[{"zip":"99501","city":"Anchorage","state":"Alaska","stateCode":"AK","county":"Anchorage Borough","lat":61.2116,"lng":-149.8761,"timezone":"America/Anchorage","areaCode":"907","population":0,"elevation":50,"type":"Standard"},{"zip":"99502","city":"Anchorage","state":"Alaska","stateCode":"AK","county":"Anchorage Borough","lat":61.1661,"lng":-149.96,"timezone":"America/Anchorage","areaCode":"907","population":0,"elevation":50,"type":"Standard"},{"zip":"99503","city":"Anchorage","state":"Alaska","stateCode":"AK","county":"Anchorage Borough","lat":61.19,"lng":-149.8938,"timezone":"America/Anchorage","areaCode":"907","population":0,"elevation":50,"type":"Standard"},{"zip":"99504","city":"Anchorage","state":"Alaska","stateCode":"AK","county":"Anchorage Borough","lat":61.2037,"lng":-149.7447,"timezone":"America/Anchorage","areaCode":"907","population":0,"elevation":50,"type":"Standard"},{"zip":"99505","city":"Jber","state":"Alaska","stateCode":"AK","county":"Jber County","lat":59.8666,"lng":-158.5996,"timezone":"America/Anchorage","areaCode":"907","population":0,"elevation":5,"type":"Standard"},{"zip":"99506","city":"Jber","state":"Alaska","stateCode":"AK","county":"Jber County","lat":59.8666,"lng":-158.5996,"timezone":"America/Anchorage","areaCode":"907","population":0,"elevation":5,"type":"Standard"},{"zip":"99507","city":"Anchorage","state":"Alaska","stateCode":"AK","county":"Anchorage Borough","lat":61.1535,"lng":-149.8289,"timezone":"America/Anchorage","areaCode":"907","population":0,"elevation":50,"type":"Standard"},{"zip":"99508","city":"Anchorage","state":"Alaska","stateCode":"AK","county":"Anchorage Borough","lat":61.206,"lng":-149.8101,"timezone":"America/Anchorage","areaCode":"907","population":0,"elevation":50,"type":"Standard"},{"zip":"99509","city":"Anchorage","state":"Alaska","stateCode":"AK","county":"Anchorage Borough","lat":61.2181,"lng":-149.9003,"timezone":"America/Anchorage","areaCode":"907","population":0,"elevation":50,"type":"Standard"},{"zip":"99510","city":"Anchorage","state":"Alaska","stateCode":"AK","county":"Anchorage Borough","lat":61.1446,"lng":-149.8784,"timezone":"America/Anchorage","areaCode":"907","population":0,"elevation":50,"type":"Standard"},{"zip":"99511","city":"Anchorage","state":"Alaska","stateCode":"AK","county":"Anchorage Borough","lat":61.0683,"lng":-149.8005,"timezone":"America/Anchorage","areaCode":"907","population":0,"elevation":50,"type":"Standard"},{"zip":"99513","city":"Anchorage","state":"Alaska","stateCode":"AK","county":"Anchorage Borough","lat":61.2149,"lng":-149.8862,"timezone":"America/Anchorage","areaCode":"907","population":0,"elevation":50,"type":"Standard"},{"zip":"99514","city":"Anchorage","state":"Alaska","stateCode":"AK","county":"Anchorage Borough","lat":61.2181,"lng":-149.9003,"timezone":"America/Anchorage","areaCode":"907","population":0,"elevation":50,"type":"Standard"},{"zip":"99515","city":"Anchorage","state":"Alaska","stateCode":"AK","county":"Anchorage Borough","lat":61.1194,"lng":-149.8974,"timezone":"America/Anchorage","areaCode":"907","population":0,"elevation":50,"type":"Standard"},{"zip":"99516","city":"Anchorage","state":"Alaska","stateCode":"AK","county":"Anchorage Borough","lat":61.1054,"lng":-149.78,"timezone":"America/Anchorage","areaCode":"907","population":0,"elevation":50,"type":"Standard"},{"zip":"99517","city":"Anchorage","state":"Alaska","stateCode":"AK","county":"Anchorage Borough","lat":61.1901,"lng":-149.9361,"timezone":"America/Anchorage","areaCode":"907","population":0,"elevation":50,"type":"Standard"},{"zip":"99518","city":"Anchorage","state":"Alaska","stateCode":"AK","county":"Anchorage Borough","lat":61.1549,"lng":-149.8866,"timezone":"America/Anchorage","areaCode":"907","population":0,"elevation":50,"type":"Standard"},{"zip":"99519","city":"Anchorage","state":"Alaska","stateCode":"AK","county":"Anchorage Borough","lat":61.1089,"lng":-149.4403,"timezone":"America/Anchorage","areaCode":"907","population":0,"elevation":50,"type":"Standard"},{"zip":"99520","city":"Anchorage","state":"Alaska","stateCode":"AK","county":"Anchorage Borough","lat":61.2181,"lng":-149.9003,"timezone":"America/Anchorage","areaCode":"907","population":0,"elevation":50,"type":"Standard"},{"zip":"99521","city":"Anchorage","state":"Alaska","stateCode":"AK","county":"Anchorage Borough","lat":61.2181,"lng":-149.9003,"timezone":"America/Anchorage","areaCode":"907","population":0,"elevation":50,"type":"Standard"},{"zip":"99522","city":"Anchorage","state":"Alaska","stateCode":"AK","county":"Anchorage Borough","lat":61.2181,"lng":-149.9003,"timezone":"America/Anchorage","areaCode":"907","population":0,"elevation":50,"type":"Standard"},{"zip":"99523","city":"Anchorage","state":"Alaska","stateCode":"AK","county":"Anchorage Borough","lat":61.2181,"lng":-149.9003,"timezone":"America/Anchorage","areaCode":"907","population":0,"elevation":50,"type":"Standard"},{"zip":"99524","city":"Anchorage","state":"Alaska","stateCode":"AK","county":"Anchorage Borough","lat":61.2181,"lng":-149.9003,"timezone":"America/Anchorage","areaCode":"907","population":0,"elevation":50,"type":"Standard"},{"zip":"99529","city":"Anchorage","state":"Alaska","stateCode":"AK","county":"Anchorage Borough","lat":61.1515,"lng":-149.9443,"timezone":"America/Anchorage","areaCode":"907","population":0,"elevation":50,"type":"Standard"},{"zip":"99530","city":"Anchorage","state":"Alaska","stateCode":"AK","county":"Anchorage Borough","lat":61.1515,"lng":-149.9443,"timezone":"America/Anchorage","areaCode":"907","population":0,"elevation":50,"type":"Standard"},{"zip":"99540","city":"Indian","state":"Alaska","stateCode":"AK","county":"Indian County","lat":61.1089,"lng":-149.4403,"timezone":"America/Anchorage","areaCode":"907","population":0,"elevation":50,"type":"Standard"},{"zip":"99545","city":"Kongiganak","state":"Alaska","stateCode":"AK","county":"Kongiganak County","lat":59.9599,"lng":-162.8919,"timezone":"America/Anchorage","areaCode":"907","population":0,"elevation":5,"type":"Standard"},{"zip":"99546","city":"Adak","state":"Alaska","stateCode":"AK","county":"Adak County","lat":51.874,"lng":-176.634,"timezone":"America/Anchorage","areaCode":"907","population":0,"elevation":5,"type":"Standard"},{"zip":"99547","city":"Atka","state":"Alaska","stateCode":"AK","county":"Atka County","lat":52.1961,"lng":-174.2006,"timezone":"America/Anchorage","areaCode":"907","population":0,"elevation":5,"type":"Standard"},{"zip":"99548","city":"Chignik Lake","state":"Alaska","stateCode":"AK","county":"Chignik Lake County","lat":56.2448,"lng":-158.7578,"timezone":"America/Anchorage","areaCode":"907","population":0,"elevation":5,"type":"Standard"},{"zip":"99549","city":"Port Heiden","state":"Alaska","stateCode":"AK","county":"Port Heiden County","lat":56.9643,"lng":-158.5664,"timezone":"America/Anchorage","areaCode":"907","population":0,"elevation":5,"type":"Standard"},{"zip":"99550","city":"Port Lions","state":"Alaska","stateCode":"AK","county":"Port Lions County","lat":57.8675,"lng":-152.8822,"timezone":"America/Anchorage","areaCode":"907","population":0,"elevation":100,"type":"Standard"},{"zip":"99551","city":"Akiachak","state":"Alaska","stateCode":"AK","county":"Akiachak County","lat":60.9094,"lng":-161.4314,"timezone":"America/Anchorage","areaCode":"907","population":0,"elevation":50,"type":"Standard"},{"zip":"99552","city":"Akiak","state":"Alaska","stateCode":"AK","county":"Akiak County","lat":60.9122,"lng":-161.2139,"timezone":"America/Anchorage","areaCode":"907","population":0,"elevation":50,"type":"Standard"},{"zip":"99553","city":"Akutan","state":"Alaska","stateCode":"AK","county":"Akutan County","lat":54.143,"lng":-165.7854,"timezone":"America/Anchorage","areaCode":"907","population":0,"elevation":5,"type":"Standard"},{"zip":"99554","city":"Alakanuk","state":"Alaska","stateCode":"AK","county":"Alakanuk County","lat":62.6944,"lng":-164.6475,"timezone":"America/Nome","areaCode":"907","population":0,"elevation":50,"type":"Standard"},{"zip":"99555","city":"Aleknagik","state":"Alaska","stateCode":"AK","county":"Aleknagik County","lat":59.2697,"lng":-158.6199,"timezone":"America/Anchorage","areaCode":"907","population":0,"elevation":5,"type":"Standard"},{"zip":"99556","city":"Anchor Point","state":"Alaska","stateCode":"AK","county":"Anchor Point County","lat":59.8371,"lng":-151.7078,"timezone":"America/Anchorage","areaCode":"907","population":0,"elevation":100,"type":"Standard"},{"zip":"99557","city":"Aniak","state":"Alaska","stateCode":"AK","county":"Aniak County","lat":61.5783,"lng":-159.5222,"timezone":"America/Anchorage","areaCode":"907","population":0,"elevation":50,"type":"Standard"},{"zip":"99558","city":"Anvik","state":"Alaska","stateCode":"AK","county":"Anvik County","lat":62.6561,"lng":-160.2067,"timezone":"America/Anchorage","areaCode":"907","population":0,"elevation":50,"type":"Standard"},{"zip":"99559","city":"Bethel","state":"Alaska","stateCode":"AK","county":"Bethel County","lat":60.7922,"lng":-161.7558,"timezone":"America/Anchorage","areaCode":"907","population":0,"elevation":50,"type":"Standard"},{"zip":"99561","city":"Chefornak","state":"Alaska","stateCode":"AK","county":"Chefornak County","lat":60.1537,"lng":-164.2103,"timezone":"America/Anchorage","areaCode":"907","population":0,"elevation":50,"type":"Standard"},{"zip":"99563","city":"Chevak","state":"Alaska","stateCode":"AK","county":"Chevak County","lat":61.529,"lng":-165.5905,"timezone":"America/Nome","areaCode":"907","population":0,"elevation":50,"type":"Standard"},{"zip":"99564","city":"Chignik","state":"Alaska","stateCode":"AK","county":"Chignik County","lat":56.3016,"lng":-158.4157,"timezone":"America/Anchorage","areaCode":"907","population":0,"elevation":5,"type":"Standard"},{"zip":"99565","city":"Chignik Lagoon","state":"Alaska","stateCode":"AK","county":"Chignik Lagoon County","lat":58.2687,"lng":-156.6484,"timezone":"America/Anchorage","areaCode":"907","population":0,"elevation":5,"type":"Standard"},{"zip":"99566","city":"Chitina","state":"Alaska","stateCode":"AK","county":"Chitina County","lat":61.5156,"lng":-144.4396,"timezone":"America/Anchorage","areaCode":"907","population":0,"elevation":50,"type":"Standard"},{"zip":"99567","city":"Chugiak","state":"Alaska","stateCode":"AK","county":"Chugiak County","lat":61.4098,"lng":-149.4537,"timezone":"America/Anchorage","areaCode":"907","population":0,"elevation":50,"type":"Standard"},{"zip":"99568","city":"Clam Gulch","state":"Alaska","stateCode":"AK","county":"Clam Gulch County","lat":60.2311,"lng":-151.3936,"timezone":"America/Anchorage","areaCode":"907","population":0,"elevation":50,"type":"Standard"},{"zip":"99569","city":"Clarks Point","state":"Alaska","stateCode":"AK","county":"Clarks Point County","lat":58.8173,"lng":-158.5299,"timezone":"America/Anchorage","areaCode":"907","population":0,"elevation":5,"type":"Standard"},{"zip":"99571","city":"Cold Bay","state":"Alaska","stateCode":"AK","county":"Cold Bay County","lat":55.1858,"lng":-162.7211,"timezone":"America/Anchorage","areaCode":"907","population":0,"elevation":5,"type":"Standard"},{"zip":"99572","city":"Cooper Landing","state":"Alaska","stateCode":"AK","county":"Cooper Landing County","lat":60.4767,"lng":-149.8235,"timezone":"America/Anchorage","areaCode":"907","population":0,"elevation":50,"type":"Standard"},{"zip":"99573","city":"Copper Center","state":"Alaska","stateCode":"AK","county":"Copper Center County","lat":61.977,"lng":-145.3297,"timezone":"America/Anchorage","areaCode":"907","population":0,"elevation":50,"type":"Standard"},{"zip":"99574","city":"Cordova","state":"Alaska","stateCode":"AK","county":"Cordova County","lat":60.5362,"lng":-145.7534,"timezone":"America/Anchorage","areaCode":"907","population":0,"elevation":50,"type":"Standard"},{"zip":"99575","city":"Crooked Creek","state":"Alaska","stateCode":"AK","county":"Crooked Creek County","lat":61.8181,"lng":-158.0025,"timezone":"America/Anchorage","areaCode":"907","population":0,"elevation":50,"type":"Standard"},{"zip":"99576","city":"Dillingham","state":"Alaska","stateCode":"AK","county":"Dillingham County","lat":59.0402,"lng":-158.5231,"timezone":"America/Anchorage","areaCode":"907","population":0,"elevation":5,"type":"Standard"},{"zip":"99577","city":"Eagle River","state":"Alaska","stateCode":"AK","county":"Eagle River County","lat":61.3114,"lng":-149.5085,"timezone":"America/Anchorage","areaCode":"907","population":0,"elevation":50,"type":"Standard"},{"zip":"99578","city":"Eek","state":"Alaska","stateCode":"AK","county":"Eek County","lat":60.2151,"lng":-162.0323,"timezone":"America/Anchorage","areaCode":"907","population":0,"elevation":50,"type":"Standard"},{"zip":"99579","city":"Egegik","state":"Alaska","stateCode":"AK","county":"Egegik County","lat":58.2062,"lng":-157.3422,"timezone":"America/Anchorage","areaCode":"907","population":0,"elevation":5,"type":"Standard"},{"zip":"99580","city":"Ekwok","state":"Alaska","stateCode":"AK","county":"Ekwok County","lat":59.3628,"lng":-157.4782,"timezone":"America/Anchorage","areaCode":"907","population":0,"elevation":5,"type":"Standard"},{"zip":"99581","city":"Emmonak","state":"Alaska","stateCode":"AK","county":"Emmonak County","lat":62.7818,"lng":-164.5335,"timezone":"America/Nome","areaCode":"907","population":0,"elevation":50,"type":"Standard"},{"zip":"99583","city":"False Pass","state":"Alaska","stateCode":"AK","county":"False Pass County","lat":54.8542,"lng":-163.4113,"timezone":"America/Anchorage","areaCode":"907","population":0,"elevation":5,"type":"Standard"},{"zip":"99585","city":"Marshall","state":"Alaska","stateCode":"AK","county":"Marshall County","lat":61.9287,"lng":-162.268,"timezone":"America/Nome","areaCode":"907","population":0,"elevation":50,"type":"Standard"},{"zip":"99586","city":"Gakona","state":"Alaska","stateCode":"AK","county":"Gakona County","lat":62.3014,"lng":-145.3027,"timezone":"America/Anchorage","areaCode":"907","population":0,"elevation":50,"type":"Standard"},{"zip":"99587","city":"Girdwood","state":"Alaska","stateCode":"AK","county":"Girdwood County","lat":60.9577,"lng":-149.1406,"timezone":"America/Anchorage","areaCode":"907","population":0,"elevation":50,"type":"Standard"},{"zip":"99588","city":"Glennallen","state":"Alaska","stateCode":"AK","county":"Glennallen County","lat":62.1039,"lng":-145.6617,"timezone":"America/Anchorage","areaCode":"907","population":0,"elevation":50,"type":"Standard"},{"zip":"99589","city":"Goodnews Bay","state":"Alaska","stateCode":"AK","county":"Goodnews Bay County","lat":59.1189,"lng":-161.5875,"timezone":"America/Anchorage","areaCode":"907","population":0,"elevation":5,"type":"Standard"},{"zip":"99590","city":"Grayling","state":"Alaska","stateCode":"AK","county":"Grayling County","lat":62.9036,"lng":-160.0647,"timezone":"America/Anchorage","areaCode":"907","population":0,"elevation":50,"type":"Standard"},{"zip":"99591","city":"Saint George Island","state":"Alaska","stateCode":"AK","county":"Saint George Island County","lat":56.5944,"lng":-169.6186,"timezone":"America/Anchorage","areaCode":"907","population":0,"elevation":5,"type":"Standard"},{"zip":"99599","city":"Anchorage","state":"Alaska","stateCode":"AK","county":"Anchorage Borough","lat":61.1872,"lng":-149.8804,"timezone":"America/Anchorage","areaCode":"907","population":0,"elevation":50,"type":"Standard"},{"zip":"99602","city":"Holy Cross","state":"Alaska","stateCode":"AK","county":"Holy Cross County","lat":62.1926,"lng":-159.8251,"timezone":"America/Anchorage","areaCode":"907","population":0,"elevation":50,"type":"Standard"},{"zip":"99603","city":"Homer","state":"Alaska","stateCode":"AK","county":"Homer County","lat":59.5374,"lng":-151.2356,"timezone":"America/Anchorage","areaCode":"907","population":0,"elevation":100,"type":"Standard"},{"zip":"99604","city":"Hooper Bay","state":"Alaska","stateCode":"AK","county":"Hooper Bay County","lat":61.527,"lng":-166.1151,"timezone":"America/Nome","areaCode":"907","population":0,"elevation":50,"type":"Standard"},{"zip":"99605","city":"Hope","state":"Alaska","stateCode":"AK","county":"Hope County","lat":60.8726,"lng":-149.4683,"timezone":"America/Anchorage","areaCode":"907","population":0,"elevation":50,"type":"Standard"},{"zip":"99606","city":"Iliamna","state":"Alaska","stateCode":"AK","county":"Iliamna County","lat":59.7525,"lng":-154.8236,"timezone":"America/Anchorage","areaCode":"907","population":0,"elevation":100,"type":"Standard"},{"zip":"99607","city":"Kalskag","state":"Alaska","stateCode":"AK","county":"Kalskag County","lat":61.541,"lng":-160.3261,"timezone":"America/Anchorage","areaCode":"907","population":0,"elevation":50,"type":"Standard"},{"zip":"99608","city":"Karluk","state":"Alaska","stateCode":"AK","county":"Karluk County","lat":57.5689,"lng":-154.4551,"timezone":"America/Anchorage","areaCode":"907","population":0,"elevation":100,"type":"Standard"},{"zip":"99609","city":"Kasigluk","state":"Alaska","stateCode":"AK","county":"Kasigluk County","lat":60.8956,"lng":-162.5181,"timezone":"America/Anchorage","areaCode":"907","population":0,"elevation":50,"type":"Standard"},{"zip":"99610","city":"Kasilof","state":"Alaska","stateCode":"AK","county":"Kasilof County","lat":60.3164,"lng":-151.2896,"timezone":"America/Anchorage","areaCode":"907","population":0,"elevation":50,"type":"Standard"},{"zip":"99611","city":"Kenai","state":"Alaska","stateCode":"AK","county":"Kenai County","lat":60.6145,"lng":-151.2546,"timezone":"America/Anchorage","areaCode":"907","population":0,"elevation":50,"type":"Standard"},{"zip":"99612","city":"King Cove","state":"Alaska","stateCode":"AK","county":"King Cove County","lat":55.0628,"lng":-162.3056,"timezone":"America/Anchorage","areaCode":"907","population":0,"elevation":5,"type":"Standard"},{"zip":"99613","city":"King Salmon","state":"Alaska","stateCode":"AK","county":"King Salmon County","lat":58.6883,"lng":-156.6614,"timezone":"America/Anchorage","areaCode":"907","population":0,"elevation":5,"type":"Standard"},{"zip":"99614","city":"Kipnuk","state":"Alaska","stateCode":"AK","county":"Kipnuk County","lat":59.9232,"lng":-164.101,"timezone":"America/Anchorage","areaCode":"907","population":0,"elevation":5,"type":"Standard"},{"zip":"99615","city":"Kodiak","state":"Alaska","stateCode":"AK","county":"Kodiak County","lat":57.6036,"lng":-153.3751,"timezone":"America/Anchorage","areaCode":"907","population":0,"elevation":100,"type":"Standard"},{"zip":"99619","city":"Kodiak","state":"Alaska","stateCode":"AK","county":"Kodiak County","lat":57.79,"lng":-152.4072,"timezone":"America/Anchorage","areaCode":"907","population":0,"elevation":100,"type":"Standard"},{"zip":"99620","city":"Kotlik","state":"Alaska","stateCode":"AK","county":"Kotlik County","lat":63.0295,"lng":-163.5542,"timezone":"America/Nome","areaCode":"907","population":0,"elevation":50,"type":"Standard"},{"zip":"99621","city":"Kwethluk","state":"Alaska","stateCode":"AK","county":"Kwethluk County","lat":60.8122,"lng":-161.4358,"timezone":"America/Anchorage","areaCode":"907","population":0,"elevation":50,"type":"Standard"},{"zip":"99622","city":"Kwigillingok","state":"Alaska","stateCode":"AK","county":"Kwigillingok County","lat":59.8644,"lng":-163.1342,"timezone":"America/Anchorage","areaCode":"907","population":0,"elevation":5,"type":"Standard"},{"zip":"99623","city":"Wasilla","state":"Alaska","stateCode":"AK","county":"Wasilla County","lat":61.5463,"lng":-149.5901,"timezone":"America/Anchorage","areaCode":"907","population":0,"elevation":50,"type":"Standard"},{"zip":"99624","city":"Larsen Bay","state":"Alaska","stateCode":"AK","county":"Larsen Bay County","lat":57.54,"lng":-153.9786,"timezone":"America/Anchorage","areaCode":"907","population":0,"elevation":100,"type":"Standard"},{"zip":"99625","city":"Levelock","state":"Alaska","stateCode":"AK","county":"Levelock County","lat":59.2905,"lng":-156.6503,"timezone":"America/Anchorage","areaCode":"907","population":0,"elevation":5,"type":"Standard"},{"zip":"99626","city":"Lower Kalskag","state":"Alaska","stateCode":"AK","county":"Lower Kalskag County","lat":61.5138,"lng":-160.36,"timezone":"America/Anchorage","areaCode":"907","population":0,"elevation":50,"type":"Standard"},{"zip":"99627","city":"Mc Grath","state":"Alaska","stateCode":"AK","county":"Mc Grath County","lat":62.9457,"lng":-155.5712,"timezone":"America/Anchorage","areaCode":"907","population":0,"elevation":50,"type":"Standard"},{"zip":"99628","city":"Manokotak","state":"Alaska","stateCode":"AK","county":"Manokotak County","lat":59.0096,"lng":-158.9897,"timezone":"America/Anchorage","areaCode":"907","population":0,"elevation":5,"type":"Standard"},{"zip":"99629","city":"Wasilla","state":"Alaska","stateCode":"AK","county":"Wasilla County","lat":61.5841,"lng":-149.4436,"timezone":"America/Anchorage","areaCode":"907","population":0,"elevation":50,"type":"Standard"},{"zip":"99630","city":"Mekoryuk","state":"Alaska","stateCode":"AK","county":"Mekoryuk County","lat":60.3657,"lng":-166.2836,"timezone":"America/Anchorage","areaCode":"907","population":0,"elevation":50,"type":"Standard"},{"zip":"99631","city":"Moose Pass","state":"Alaska","stateCode":"AK","county":"Moose Pass County","lat":60.6148,"lng":-149.4056,"timezone":"America/Anchorage","areaCode":"907","population":0,"elevation":50,"type":"Standard"},{"zip":"99632","city":"Mountain Village","state":"Alaska","stateCode":"AK","county":"Mountain Village County","lat":62.1123,"lng":-163.6644,"timezone":"America/Nome","areaCode":"907","population":0,"elevation":50,"type":"Standard"},{"zip":"99633","city":"Naknek","state":"Alaska","stateCode":"AK","county":"Naknek County","lat":58.783,"lng":-156.8992,"timezone":"America/Anchorage","areaCode":"907","population":0,"elevation":5,"type":"Standard"},{"zip":"99634","city":"Napakiak","state":"Alaska","stateCode":"AK","county":"Napakiak County","lat":60.6967,"lng":-161.9519,"timezone":"America/Anchorage","areaCode":"907","population":0,"elevation":50,"type":"Standard"},{"zip":"99635","city":"Nikiski","state":"Alaska","stateCode":"AK","county":"Nikiski County","lat":60.7007,"lng":-151.2766,"timezone":"America/Anchorage","areaCode":"907","population":0,"elevation":50,"type":"Standard"},{"zip":"99636","city":"New Stuyahok","state":"Alaska","stateCode":"AK","county":"New Stuyahok County","lat":59.4882,"lng":-157.2905,"timezone":"America/Anchorage","areaCode":"907","population":0,"elevation":5,"type":"Standard"},{"zip":"99637","city":"Toksook Bay","state":"Alaska","stateCode":"AK","county":"Toksook Bay County","lat":60.5338,"lng":-165.1037,"timezone":"America/Anchorage","areaCode":"907","population":0,"elevation":50,"type":"Standard"},{"zip":"99638","city":"Nikolski","state":"Alaska","stateCode":"AK","county":"Nikolski County","lat":52.9381,"lng":-168.8678,"timezone":"America/Anchorage","areaCode":"907","population":0,"elevation":5,"type":"Standard"},{"zip":"99639","city":"Ninilchik","state":"Alaska","stateCode":"AK","county":"Ninilchik County","lat":60.0108,"lng":-151.6396,"timezone":"America/Anchorage","areaCode":"907","population":0,"elevation":50,"type":"Standard"},{"zip":"99640","city":"Nondalton","state":"Alaska","stateCode":"AK","county":"Nondalton County","lat":59.9736,"lng":-154.8458,"timezone":"America/Anchorage","areaCode":"907","population":0,"elevation":100,"type":"Standard"},{"zip":"99641","city":"Nunapitchuk","state":"Alaska","stateCode":"AK","county":"Nunapitchuk County","lat":60.8969,"lng":-162.4594,"timezone":"America/Anchorage","areaCode":"907","population":0,"elevation":50,"type":"Standard"},{"zip":"99643","city":"Old Harbor","state":"Alaska","stateCode":"AK","county":"Old Harbor County","lat":57.2028,"lng":-153.3039,"timezone":"America/Anchorage","areaCode":"907","population":0,"elevation":100,"type":"Standard"},{"zip":"99644","city":"Ouzinkie","state":"Alaska","stateCode":"AK","county":"Ouzinkie County","lat":57.9236,"lng":-152.5022,"timezone":"America/Anchorage","areaCode":"907","population":0,"elevation":100,"type":"Standard"},{"zip":"99645","city":"Palmer","state":"Alaska","stateCode":"AK","county":"Palmer County","lat":61.6303,"lng":-148.9872,"timezone":"America/Anchorage","areaCode":"907","population":0,"elevation":50,"type":"Standard"},{"zip":"99647","city":"Pedro Bay","state":"Alaska","stateCode":"AK","county":"Pedro Bay County","lat":59.8681,"lng":-154.0757,"timezone":"America/Anchorage","areaCode":"907","population":0,"elevation":100,"type":"Standard"},{"zip":"99648","city":"Perryville","state":"Alaska","stateCode":"AK","county":"Perryville County","lat":55.9453,"lng":-159.2593,"timezone":"America/Anchorage","areaCode":"907","population":0,"elevation":5,"type":"Standard"},{"zip":"99649","city":"Pilot Point","state":"Alaska","stateCode":"AK","county":"Pilot Point County","lat":57.5642,"lng":-157.5792,"timezone":"America/Anchorage","areaCode":"907","population":0,"elevation":5,"type":"Standard"},{"zip":"99650","city":"Pilot Station","state":"Alaska","stateCode":"AK","county":"Pilot Station County","lat":61.9462,"lng":-162.8747,"timezone":"America/Nome","areaCode":"907","population":0,"elevation":50,"type":"Standard"},{"zip":"99651","city":"Platinum","state":"Alaska","stateCode":"AK","county":"Platinum County","lat":59.0131,"lng":-161.8164,"timezone":"America/Anchorage","areaCode":"907","population":0,"elevation":5,"type":"Standard"},{"zip":"99652","city":"Big Lake","state":"Alaska","stateCode":"AK","county":"Big Lake County","lat":61.5214,"lng":-149.9544,"timezone":"America/Anchorage","areaCode":"907","population":0,"elevation":50,"type":"Standard"},{"zip":"99653","city":"Port Alsworth","state":"Alaska","stateCode":"AK","county":"Port Alsworth County","lat":60.2025,"lng":-154.3128,"timezone":"America/Anchorage","areaCode":"907","population":0,"elevation":50,"type":"Standard"},{"zip":"99654","city":"Wasilla","state":"Alaska","stateCode":"AK","county":"Wasilla County","lat":61.5923,"lng":-149.3959,"timezone":"America/Anchorage","areaCode":"907","population":0,"elevation":50,"type":"Standard"},{"zip":"99655","city":"Quinhagak","state":"Alaska","stateCode":"AK","county":"Quinhagak County","lat":59.7381,"lng":-161.8749,"timezone":"America/Anchorage","areaCode":"907","population":0,"elevation":5,"type":"Standard"},{"zip":"99656","city":"Red Devil","state":"Alaska","stateCode":"AK","county":"Red Devil County","lat":61.7611,"lng":-157.3125,"timezone":"America/Anchorage","areaCode":"907","population":0,"elevation":50,"type":"Standard"},{"zip":"99657","city":"Russian Mission","state":"Alaska","stateCode":"AK","county":"Russian Mission County","lat":61.7744,"lng":-161.3939,"timezone":"America/Nome","areaCode":"907","population":0,"elevation":50,"type":"Standard"},{"zip":"99658","city":"Saint Marys","state":"Alaska","stateCode":"AK","county":"Saint Marys County","lat":62.1172,"lng":-163.2376,"timezone":"America/Nome","areaCode":"907","population":0,"elevation":50,"type":"Standard"},{"zip":"99659","city":"Saint Michael","state":"Alaska","stateCode":"AK","county":"Saint Michael County","lat":63.4776,"lng":-162.1091,"timezone":"America/Nome","areaCode":"907","population":0,"elevation":50,"type":"Standard"},{"zip":"99660","city":"Saint Paul Island","state":"Alaska","stateCode":"AK","county":"Saint Paul Island County","lat":57.1842,"lng":-170.2764,"timezone":"America/Anchorage","areaCode":"907","population":0,"elevation":5,"type":"Standard"},{"zip":"99661","city":"Sand Point","state":"Alaska","stateCode":"AK","county":"Sand Point County","lat":55.3192,"lng":-160.4914,"timezone":"America/Anchorage","areaCode":"907","population":0,"elevation":5,"type":"Standard"},{"zip":"99662","city":"Scammon Bay","state":"Alaska","stateCode":"AK","county":"Scammon Bay County","lat":61.845,"lng":-165.5819,"timezone":"America/Nome","areaCode":"907","population":0,"elevation":50,"type":"Standard"},{"zip":"99663","city":"Seldovia","state":"Alaska","stateCode":"AK","county":"Seldovia County","lat":59.4495,"lng":-151.7009,"timezone":"America/Anchorage","areaCode":"907","population":0,"elevation":100,"type":"Standard"},{"zip":"99664","city":"Seward","state":"Alaska","stateCode":"AK","county":"Seward County","lat":60.1329,"lng":-149.3985,"timezone":"America/Anchorage","areaCode":"907","population":0,"elevation":50,"type":"Standard"},{"zip":"99665","city":"Shageluk","state":"Alaska","stateCode":"AK","county":"Shageluk County","lat":62.6822,"lng":-159.5619,"timezone":"America/Anchorage","areaCode":"907","population":0,"elevation":50,"type":"Standard"},{"zip":"99666","city":"Nunam Iqua","state":"Alaska","stateCode":"AK","county":"Nunam Iqua County","lat":62.5309,"lng":-164.8496,"timezone":"America/Nome","areaCode":"907","population":0,"elevation":50,"type":"Standard"},{"zip":"99667","city":"Skwentna","state":"Alaska","stateCode":"AK","county":"Skwentna County","lat":61.9903,"lng":-151.3978,"timezone":"America/Anchorage","areaCode":"907","population":0,"elevation":50,"type":"Standard"},{"zip":"99668","city":"Sleetmute","state":"Alaska","stateCode":"AK","county":"Sleetmute County","lat":61.7025,"lng":-157.1697,"timezone":"America/Anchorage","areaCode":"907","population":0,"elevation":50,"type":"Standard"},{"zip":"99669","city":"Soldotna","state":"Alaska","stateCode":"AK","county":"Soldotna County","lat":60.4818,"lng":-151.1358,"timezone":"America/Anchorage","areaCode":"907","population":0,"elevation":50,"type":"Standard"},{"zip":"99670","city":"South Naknek","state":"Alaska","stateCode":"AK","county":"South Naknek County","lat":58.6639,"lng":-156.9756,"timezone":"America/Anchorage","areaCode":"907","population":0,"elevation":5,"type":"Standard"},{"zip":"99671","city":"Stebbins","state":"Alaska","stateCode":"AK","county":"Stebbins County","lat":63.5222,"lng":-162.2881,"timezone":"America/Nome","areaCode":"907","population":0,"elevation":50,"type":"Standard"},{"zip":"99672","city":"Sterling","state":"Alaska","stateCode":"AK","county":"Sterling County","lat":60.5136,"lng":-150.8532,"timezone":"America/Anchorage","areaCode":"907","population":0,"elevation":50,"type":"Standard"},{"zip":"99674","city":"Sutton","state":"Alaska","stateCode":"AK","county":"Sutton County","lat":61.7327,"lng":-148.7837,"timezone":"America/Anchorage","areaCode":"907","population":0,"elevation":50,"type":"Standard"},{"zip":"99675","city":"Takotna","state":"Alaska","stateCode":"AK","county":"Takotna County","lat":62.9886,"lng":-156.0642,"timezone":"America/Anchorage","areaCode":"907","population":0,"elevation":50,"type":"Standard"},{"zip":"99676","city":"Talkeetna","state":"Alaska","stateCode":"AK","county":"Talkeetna County","lat":62.2605,"lng":-150.1101,"timezone":"America/Anchorage","areaCode":"907","population":0,"elevation":50,"type":"Standard"},{"zip":"99677","city":"Tatitlek","state":"Alaska","stateCode":"AK","county":"Tatitlek County","lat":60.8906,"lng":-146.6703,"timezone":"America/Anchorage","areaCode":"907","population":0,"elevation":50,"type":"Standard"},{"zip":"99678","city":"Togiak","state":"Alaska","stateCode":"AK","county":"Togiak County","lat":59.0619,"lng":-160.3764,"timezone":"America/Anchorage","areaCode":"907","population":0,"elevation":5,"type":"Standard"},{"zip":"99679","city":"Tuluksak","state":"Alaska","stateCode":"AK","county":"Tuluksak County","lat":61.1088,"lng":-160.9389,"timezone":"America/Anchorage","areaCode":"907","population":0,"elevation":50,"type":"Standard"},{"zip":"99680","city":"Tuntutuliak","state":"Alaska","stateCode":"AK","county":"Tuntutuliak County","lat":60.3431,"lng":-162.6631,"timezone":"America/Anchorage","areaCode":"907","population":0,"elevation":50,"type":"Standard"},{"zip":"99681","city":"Tununak","state":"Alaska","stateCode":"AK","county":"Tununak County","lat":60.5856,"lng":-165.2558,"timezone":"America/Anchorage","areaCode":"907","population":0,"elevation":50,"type":"Standard"},{"zip":"99682","city":"Tyonek","state":"Alaska","stateCode":"AK","county":"Tyonek County","lat":61.0681,"lng":-151.1369,"timezone":"America/Anchorage","areaCode":"907","population":0,"elevation":50,"type":"Standard"},{"zip":"99683","city":"Trapper Creek","state":"Alaska","stateCode":"AK","county":"Trapper Creek County","lat":62.3167,"lng":-150.2314,"timezone":"America/Anchorage","areaCode":"907","population":0,"elevation":50,"type":"Standard"},{"zip":"99684","city":"Unalakleet","state":"Alaska","stateCode":"AK","county":"Unalakleet County","lat":63.8835,"lng":-160.7884,"timezone":"America/Nome","areaCode":"907","population":0,"elevation":50,"type":"Standard"},{"zip":"99685","city":"Unalaska","state":"Alaska","stateCode":"AK","county":"Unalaska County","lat":53.8871,"lng":-166.5199,"timezone":"America/Anchorage","areaCode":"907","population":0,"elevation":5,"type":"Standard"},{"zip":"99686","city":"Valdez","state":"Alaska","stateCode":"AK","county":"Valdez County","lat":61.101,"lng":-146.9,"timezone":"America/Anchorage","areaCode":"907","population":0,"elevation":50,"type":"Standard"},{"zip":"99687","city":"Wasilla","state":"Alaska","stateCode":"AK","county":"Wasilla County","lat":61.5313,"lng":-149.4784,"timezone":"America/Anchorage","areaCode":"907","population":0,"elevation":50,"type":"Standard"},{"zip":"99688","city":"Willow","state":"Alaska","stateCode":"AK","county":"Willow County","lat":61.8966,"lng":-150.0038,"timezone":"America/Anchorage","areaCode":"907","population":0,"elevation":50,"type":"Standard"},{"zip":"99689","city":"Yakutat","state":"Alaska","stateCode":"AK","county":"Yakutat County","lat":59.812,"lng":-139.5505,"timezone":"America/Yakutat","areaCode":"907","population":0,"elevation":100,"type":"Standard"},{"zip":"99690","city":"Nightmute","state":"Alaska","stateCode":"AK","county":"Nightmute County","lat":60.4794,"lng":-164.7239,"timezone":"America/Anchorage","areaCode":"907","population":0,"elevation":50,"type":"Standard"},{"zip":"99691","city":"Nikolai","state":"Alaska","stateCode":"AK","county":"Nikolai County","lat":63.0133,"lng":-154.375,"timezone":"America/Anchorage","areaCode":"907","population":0,"elevation":50,"type":"Standard"},{"zip":"99692","city":"Dutch Harbor","state":"Alaska","stateCode":"AK","county":"Dutch Harbor County","lat":53.8898,"lng":-166.5422,"timezone":"America/Anchorage","areaCode":"907","population":0,"elevation":5,"type":"Standard"},{"zip":"99693","city":"Whittier","state":"Alaska","stateCode":"AK","county":"Whittier County","lat":60.7734,"lng":-148.6839,"timezone":"America/Anchorage","areaCode":"907","population":0,"elevation":50,"type":"Standard"},{"zip":"99694","city":"Houston","state":"Alaska","stateCode":"AK","county":"Harris County","lat":61.6303,"lng":-149.8181,"timezone":"America/Anchorage","areaCode":"907","population":0,"elevation":50,"type":"Standard"},{"zip":"99695","city":"Anchorage","state":"Alaska","stateCode":"AK","county":"Anchorage Borough","lat":61.1089,"lng":-149.4403,"timezone":"America/Anchorage","areaCode":"907","population":0,"elevation":50,"type":"Standard"},{"zip":"99697","city":"Kodiak","state":"Alaska","stateCode":"AK","county":"Kodiak County","lat":57.79,"lng":-152.4072,"timezone":"America/Anchorage","areaCode":"907","population":0,"elevation":100,"type":"Standard"},{"zip":"99701","city":"Fairbanks","state":"Alaska","stateCode":"AK","county":"Fairbanks County","lat":64.8378,"lng":-147.7164,"timezone":"America/Anchorage","areaCode":"907","population":0,"elevation":50,"type":"Standard"},{"zip":"99702","city":"Eielson Afb","state":"Alaska","stateCode":"AK","county":"Eielson Afb County","lat":64.6735,"lng":-147.0805,"timezone":"America/Anchorage","areaCode":"907","population":0,"elevation":50,"type":"Standard"},{"zip":"99703","city":"Fort Wainwright","state":"Alaska","stateCode":"AK","county":"Fort Wainwright County","lat":64.8283,"lng":-147.6557,"timezone":"America/Anchorage","areaCode":"907","population":0,"elevation":50,"type":"Standard"},{"zip":"99704","city":"Clear","state":"Alaska","stateCode":"AK","county":"Clear County","lat":64.2966,"lng":-149.1608,"timezone":"America/Anchorage","areaCode":"907","population":0,"elevation":50,"type":"Standard"},{"zip":"99705","city":"North Pole","state":"Alaska","stateCode":"AK","county":"North Pole County","lat":64.7805,"lng":-147.3694,"timezone":"America/Anchorage","areaCode":"907","population":0,"elevation":50,"type":"Standard"},{"zip":"99706","city":"Fairbanks","state":"Alaska","stateCode":"AK","county":"Fairbanks County","lat":64.8521,"lng":-147.9377,"timezone":"America/Anchorage","areaCode":"907","population":0,"elevation":50,"type":"Standard"},{"zip":"99707","city":"Fairbanks","state":"Alaska","stateCode":"AK","county":"Fairbanks County","lat":64.8378,"lng":-147.7164,"timezone":"America/Anchorage","areaCode":"907","population":0,"elevation":50,"type":"Standard"},{"zip":"99708","city":"Fairbanks","state":"Alaska","stateCode":"AK","county":"Fairbanks County","lat":64.9475,"lng":-147.8564,"timezone":"America/Anchorage","areaCode":"907","population":0,"elevation":50,"type":"Standard"},{"zip":"99709","city":"Fairbanks","state":"Alaska","stateCode":"AK","county":"Fairbanks County","lat":64.8544,"lng":-147.8469,"timezone":"America/Anchorage","areaCode":"907","population":0,"elevation":50,"type":"Standard"},{"zip":"99710","city":"Fairbanks","state":"Alaska","stateCode":"AK","county":"Fairbanks County","lat":64.8378,"lng":-147.7164,"timezone":"America/Anchorage","areaCode":"907","population":0,"elevation":50,"type":"Standard"},{"zip":"99711","city":"Fairbanks","state":"Alaska","stateCode":"AK","county":"Fairbanks County","lat":64.8378,"lng":-147.7164,"timezone":"America/Anchorage","areaCode":"907","population":0,"elevation":50,"type":"Standard"},{"zip":"99712","city":"Fairbanks","state":"Alaska","stateCode":"AK","county":"Fairbanks County","lat":64.9109,"lng":-147.5105,"timezone":"America/Anchorage","areaCode":"907","population":0,"elevation":50,"type":"Standard"},{"zip":"99714","city":"Salcha","state":"Alaska","stateCode":"AK","county":"Salcha County","lat":64.5091,"lng":-146.953,"timezone":"America/Anchorage","areaCode":"907","population":0,"elevation":50,"type":"Standard"},{"zip":"99716","city":"Two Rivers","state":"Alaska","stateCode":"AK","county":"Two Rivers County","lat":64.8746,"lng":-146.8982,"timezone":"America/Anchorage","areaCode":"907","population":0,"elevation":50,"type":"Standard"},{"zip":"99720","city":"Allakaket","state":"Alaska","stateCode":"AK","county":"Allakaket County","lat":66.5656,"lng":-152.6456,"timezone":"America/Anchorage","areaCode":"907","population":0,"elevation":50,"type":"Standard"},{"zip":"99721","city":"Anaktuvuk Pass","state":"Alaska","stateCode":"AK","county":"Anaktuvuk Pass County","lat":68.1433,"lng":-151.7358,"timezone":"America/Anchorage","areaCode":"907","population":0,"elevation":50,"type":"Standard"},{"zip":"99722","city":"Arctic Village","state":"Alaska","stateCode":"AK","county":"Arctic Village County","lat":68.1269,"lng":-145.5378,"timezone":"America/Anchorage","areaCode":"907","population":0,"elevation":50,"type":"Standard"},{"zip":"99723","city":"Barrow","state":"Alaska","stateCode":"AK","county":"Barrow County","lat":71.2346,"lng":-156.8174,"timezone":"America/Anchorage","areaCode":"907","population":0,"elevation":50,"type":"Standard"},{"zip":"99724","city":"Beaver","state":"Alaska","stateCode":"AK","county":"Beaver County","lat":66.3594,"lng":-147.3964,"timezone":"America/Anchorage","areaCode":"907","population":0,"elevation":50,"type":"Standard"},{"zip":"99725","city":"Ester","state":"Alaska","stateCode":"AK","county":"Ester County","lat":64.871,"lng":-148.0949,"timezone":"America/Anchorage","areaCode":"907","population":0,"elevation":50,"type":"Standard"},{"zip":"99726","city":"Bettles Field","state":"Alaska","stateCode":"AK","county":"Bettles Field County","lat":65.2264,"lng":-151.0251,"timezone":"America/Anchorage","areaCode":"907","population":0,"elevation":50,"type":"Standard"},{"zip":"99727","city":"Buckland","state":"Alaska","stateCode":"AK","county":"Buckland County","lat":65.9789,"lng":-161.1262,"timezone":"America/Anchorage","areaCode":"907","population":0,"elevation":50,"type":"Standard"},{"zip":"99729","city":"Cantwell","state":"Alaska","stateCode":"AK","county":"Cantwell County","lat":63.3955,"lng":-148.8973,"timezone":"America/Anchorage","areaCode":"907","population":0,"elevation":50,"type":"Standard"},{"zip":"99730","city":"Central","state":"Alaska","stateCode":"AK","county":"Central County","lat":65.4681,"lng":-144.7489,"timezone":"America/Anchorage","areaCode":"907","population":0,"elevation":50,"type":"Standard"},{"zip":"99731","city":"Fort Greely","state":"Alaska","stateCode":"AK","county":"Fort Greely County","lat":63.952,"lng":-146.451,"timezone":"America/Anchorage","areaCode":"907","population":0,"elevation":50,"type":"Standard"},{"zip":"99732","city":"Chicken","state":"Alaska","stateCode":"AK","county":"Chicken County","lat":64.0733,"lng":-141.9361,"timezone":"America/Anchorage","areaCode":"907","population":0,"elevation":50,"type":"Standard"},{"zip":"99733","city":"Circle","state":"Alaska","stateCode":"AK","county":"Circle County","lat":65.8245,"lng":-144.0826,"timezone":"America/Anchorage","areaCode":"907","population":0,"elevation":50,"type":"Standard"},{"zip":"99734","city":"Prudhoe Bay","state":"Alaska","stateCode":"AK","county":"Prudhoe Bay County","lat":70.2922,"lng":-148.6694,"timezone":"America/Anchorage","areaCode":"907","population":0,"elevation":50,"type":"Standard"},{"zip":"99736","city":"Deering","state":"Alaska","stateCode":"AK","county":"Deering County","lat":66.0737,"lng":-162.714,"timezone":"America/Nome","areaCode":"907","population":0,"elevation":50,"type":"Standard"},{"zip":"99737","city":"Delta Junction","state":"Alaska","stateCode":"AK","county":"Delta Junction County","lat":64.0378,"lng":-145.7322,"timezone":"America/Anchorage","areaCode":"907","population":0,"elevation":50,"type":"Standard"},{"zip":"99738","city":"Eagle","state":"Alaska","stateCode":"AK","county":"Eagle County","lat":64.7881,"lng":-141.2,"timezone":"America/Anchorage","areaCode":"907","population":0,"elevation":50,"type":"Standard"},{"zip":"99739","city":"Elim","state":"Alaska","stateCode":"AK","county":"Elim County","lat":64.6217,"lng":-162.2604,"timezone":"America/Nome","areaCode":"907","population":0,"elevation":50,"type":"Standard"},{"zip":"99740","city":"Fort Yukon","state":"Alaska","stateCode":"AK","county":"Fort Yukon County","lat":66.5647,"lng":-145.2739,"timezone":"America/Anchorage","areaCode":"907","population":0,"elevation":50,"type":"Standard"},{"zip":"99741","city":"Galena","state":"Alaska","stateCode":"AK","county":"Galena County","lat":64.7333,"lng":-156.9275,"timezone":"America/Anchorage","areaCode":"907","population":0,"elevation":50,"type":"Standard"},{"zip":"99742","city":"Gambell","state":"Alaska","stateCode":"AK","county":"Gambell County","lat":63.7766,"lng":-171.7017,"timezone":"America/Nome","areaCode":"907","population":0,"elevation":50,"type":"Standard"},{"zip":"99743","city":"Healy","state":"Alaska","stateCode":"AK","county":"Healy County","lat":63.9171,"lng":-149.0111,"timezone":"America/Anchorage","areaCode":"907","population":0,"elevation":50,"type":"Standard"},{"zip":"99744","city":"Anderson","state":"Alaska","stateCode":"AK","county":"Anderson County","lat":64.3442,"lng":-149.1869,"timezone":"America/Anchorage","areaCode":"907","population":0,"elevation":50,"type":"Standard"},{"zip":"99745","city":"Hughes","state":"Alaska","stateCode":"AK","county":"Hughes County","lat":66.0382,"lng":-154.2644,"timezone":"America/Anchorage","areaCode":"907","population":0,"elevation":50,"type":"Standard"},{"zip":"99746","city":"Huslia","state":"Alaska","stateCode":"AK","county":"Huslia County","lat":65.6899,"lng":-156.292,"timezone":"America/Anchorage","areaCode":"907","population":0,"elevation":50,"type":"Standard"},{"zip":"99747","city":"Kaktovik","state":"Alaska","stateCode":"AK","county":"Kaktovik County","lat":70.1319,"lng":-143.6239,"timezone":"America/Anchorage","areaCode":"907","population":0,"elevation":50,"type":"Standard"},{"zip":"99748","city":"Kaltag","state":"Alaska","stateCode":"AK","county":"Kaltag County","lat":64.3305,"lng":-158.7243,"timezone":"America/Anchorage","areaCode":"907","population":0,"elevation":50,"type":"Standard"},{"zip":"99749","city":"Kiana","state":"Alaska","stateCode":"AK","county":"Kiana County","lat":66.975,"lng":-160.4228,"timezone":"America/Nome","areaCode":"907","population":0,"elevation":50,"type":"Standard"},{"zip":"99750","city":"Kivalina","state":"Alaska","stateCode":"AK","county":"Kivalina County","lat":67.7269,"lng":-164.5333,"timezone":"America/Nome","areaCode":"907","population":0,"elevation":50,"type":"Standard"},{"zip":"99751","city":"Kobuk","state":"Alaska","stateCode":"AK","county":"Kobuk County","lat":66.9072,"lng":-156.8811,"timezone":"America/Nome","areaCode":"907","population":0,"elevation":50,"type":"Standard"},{"zip":"99752","city":"Kotzebue","state":"Alaska","stateCode":"AK","county":"Kotzebue County","lat":66.8985,"lng":-162.5981,"timezone":"America/Nome","areaCode":"907","population":0,"elevation":50,"type":"Standard"},{"zip":"99753","city":"Koyuk","state":"Alaska","stateCode":"AK","county":"Koyuk County","lat":64.9319,"lng":-161.1569,"timezone":"America/Nome","areaCode":"907","population":0,"elevation":50,"type":"Standard"},{"zip":"99754","city":"Koyukuk","state":"Alaska","stateCode":"AK","county":"Koyukuk County","lat":64.8803,"lng":-157.7008,"timezone":"America/Anchorage","areaCode":"907","population":0,"elevation":50,"type":"Standard"},{"zip":"99755","city":"Denali National Park","state":"Alaska","stateCode":"AK","county":"Denali National Park County","lat":63.5436,"lng":-149.9867,"timezone":"America/Anchorage","areaCode":"907","population":0,"elevation":50,"type":"Standard"},{"zip":"99756","city":"Manley Hot Springs","state":"Alaska","stateCode":"AK","county":"Manley Hot Springs County","lat":65.0011,"lng":-150.6339,"timezone":"America/Anchorage","areaCode":"907","population":0,"elevation":50,"type":"Standard"},{"zip":"99757","city":"Lake Minchumina","state":"Alaska","stateCode":"AK","county":"Lake Minchumina County","lat":63.8828,"lng":-152.3122,"timezone":"America/Anchorage","areaCode":"907","population":0,"elevation":50,"type":"Standard"},{"zip":"99758","city":"Minto","state":"Alaska","stateCode":"AK","county":"Minto County","lat":65.0584,"lng":-149.6912,"timezone":"America/Anchorage","areaCode":"907","population":0,"elevation":50,"type":"Standard"},{"zip":"99759","city":"Point Lay","state":"Alaska","stateCode":"AK","county":"Point Lay County","lat":69.7439,"lng":-163.0084,"timezone":"America/Anchorage","areaCode":"907","population":0,"elevation":50,"type":"Standard"},{"zip":"99760","city":"Nenana","state":"Alaska","stateCode":"AK","county":"Nenana County","lat":64.5577,"lng":-149.0867,"timezone":"America/Anchorage","areaCode":"907","population":0,"elevation":50,"type":"Standard"},{"zip":"99761","city":"Noatak","state":"Alaska","stateCode":"AK","county":"Noatak County","lat":67.5711,"lng":-162.9653,"timezone":"America/Nome","areaCode":"907","population":0,"elevation":50,"type":"Standard"},{"zip":"99762","city":"Nome","state":"Alaska","stateCode":"AK","county":"Nome County","lat":64.5011,"lng":-165.4064,"timezone":"America/Nome","areaCode":"907","population":0,"elevation":50,"type":"Standard"},{"zip":"99763","city":"Noorvik","state":"Alaska","stateCode":"AK","county":"Noorvik County","lat":66.8364,"lng":-161.0441,"timezone":"America/Nome","areaCode":"907","population":0,"elevation":50,"type":"Standard"},{"zip":"99764","city":"Northway","state":"Alaska","stateCode":"AK","county":"Northway County","lat":62.9617,"lng":-141.9372,"timezone":"America/Anchorage","areaCode":"907","population":0,"elevation":50,"type":"Standard"},{"zip":"99765","city":"Nulato","state":"Alaska","stateCode":"AK","county":"Nulato County","lat":64.7194,"lng":-158.1031,"timezone":"America/Anchorage","areaCode":"907","population":0,"elevation":50,"type":"Standard"},{"zip":"99766","city":"Point Hope","state":"Alaska","stateCode":"AK","county":"Point Hope County","lat":68.3486,"lng":-166.7347,"timezone":"America/Anchorage","areaCode":"907","population":0,"elevation":50,"type":"Standard"},{"zip":"99767","city":"Rampart","state":"Alaska","stateCode":"AK","county":"Rampart County","lat":65.509,"lng":-150.1619,"timezone":"America/Anchorage","areaCode":"907","population":0,"elevation":50,"type":"Standard"},{"zip":"99768","city":"Ruby","state":"Alaska","stateCode":"AK","county":"Ruby County","lat":64.7201,"lng":-155.5039,"timezone":"America/Anchorage","areaCode":"907","population":0,"elevation":50,"type":"Standard"},{"zip":"99769","city":"Savoonga","state":"Alaska","stateCode":"AK","county":"Savoonga County","lat":63.6797,"lng":-170.4709,"timezone":"America/Nome","areaCode":"907","population":0,"elevation":50,"type":"Standard"},{"zip":"99770","city":"Selawik","state":"Alaska","stateCode":"AK","county":"Selawik County","lat":66.6039,"lng":-160.0069,"timezone":"America/Nome","areaCode":"907","population":0,"elevation":50,"type":"Standard"},{"zip":"99771","city":"Shaktoolik","state":"Alaska","stateCode":"AK","county":"Shaktoolik County","lat":64.3537,"lng":-161.1932,"timezone":"America/Nome","areaCode":"907","population":0,"elevation":50,"type":"Standard"},{"zip":"99772","city":"Shishmaref","state":"Alaska","stateCode":"AK","county":"Shishmaref County","lat":66.2306,"lng":-166.1373,"timezone":"America/Nome","areaCode":"907","population":0,"elevation":50,"type":"Standard"},{"zip":"99773","city":"Shungnak","state":"Alaska","stateCode":"AK","county":"Shungnak County","lat":66.8881,"lng":-157.1364,"timezone":"America/Nome","areaCode":"907","population":0,"elevation":50,"type":"Standard"},{"zip":"99774","city":"Stevens Village","state":"Alaska","stateCode":"AK","county":"Stevens Village County","lat":66.0064,"lng":-149.0908,"timezone":"America/Anchorage","areaCode":"907","population":0,"elevation":50,"type":"Standard"},{"zip":"99775","city":"Fairbanks","state":"Alaska","stateCode":"AK","county":"Fairbanks County","lat":64.8591,"lng":-147.8267,"timezone":"America/Anchorage","areaCode":"907","population":0,"elevation":50,"type":"Standard"},{"zip":"99776","city":"Tanacross","state":"Alaska","stateCode":"AK","county":"Tanacross County","lat":63.3853,"lng":-143.3464,"timezone":"America/Anchorage","areaCode":"907","population":0,"elevation":50,"type":"Standard"},{"zip":"99777","city":"Tanana","state":"Alaska","stateCode":"AK","county":"Tanana County","lat":65.1719,"lng":-152.0789,"timezone":"America/Anchorage","areaCode":"907","population":0,"elevation":50,"type":"Standard"},{"zip":"99778","city":"Teller","state":"Alaska","stateCode":"AK","county":"Teller County","lat":65.2402,"lng":-166.3833,"timezone":"America/Nome","areaCode":"907","population":0,"elevation":50,"type":"Standard"},{"zip":"99779","city":"Tok","state":"Alaska","stateCode":"AK","county":"Tok County","lat":63.13,"lng":-142.53,"timezone":"America/Anchorage","areaCode":"907","population":0,"elevation":50,"type":"Standard"},{"zip":"99780","city":"Tok","state":"Alaska","stateCode":"AK","county":"Tok County","lat":63.3367,"lng":-142.9856,"timezone":"America/Anchorage","areaCode":"907","population":0,"elevation":50,"type":"Standard"},{"zip":"99781","city":"Venetie","state":"Alaska","stateCode":"AK","county":"Venetie County","lat":67.0104,"lng":-146.4137,"timezone":"America/Anchorage","areaCode":"907","population":0,"elevation":50,"type":"Standard"},{"zip":"99782","city":"Wainwright","state":"Alaska","stateCode":"AK","county":"Wainwright County","lat":70.6369,"lng":-160.0383,"timezone":"America/Anchorage","areaCode":"907","population":0,"elevation":50,"type":"Standard"},{"zip":"99783","city":"Wales","state":"Alaska","stateCode":"AK","county":"Wales County","lat":65.6092,"lng":-168.0875,"timezone":"America/Nome","areaCode":"907","population":0,"elevation":50,"type":"Standard"},{"zip":"99784","city":"White Mountain","state":"Alaska","stateCode":"AK","county":"White Mountain County","lat":64.6814,"lng":-163.4056,"timezone":"America/Nome","areaCode":"907","population":0,"elevation":50,"type":"Standard"},{"zip":"99785","city":"Brevig Mission","state":"Alaska","stateCode":"AK","county":"Brevig Mission County","lat":65.3342,"lng":-166.4786,"timezone":"America/Nome","areaCode":"907","population":0,"elevation":50,"type":"Standard"},{"zip":"99786","city":"Ambler","state":"Alaska","stateCode":"AK","county":"Ambler County","lat":67.0861,"lng":-157.8514,"timezone":"America/Nome","areaCode":"907","population":0,"elevation":50,"type":"Standard"},{"zip":"99788","city":"Chalkyitsik","state":"Alaska","stateCode":"AK","county":"Chalkyitsik County","lat":66.6544,"lng":-143.7222,"timezone":"America/Anchorage","areaCode":"907","population":0,"elevation":50,"type":"Standard"},{"zip":"99789","city":"Nuiqsut","state":"Alaska","stateCode":"AK","county":"Nuiqsut County","lat":70.1927,"lng":-150.9971,"timezone":"America/Anchorage","areaCode":"907","population":0,"elevation":50,"type":"Standard"},{"zip":"99790","city":"Fairbanks","state":"Alaska","stateCode":"AK","county":"Fairbanks County","lat":64.8378,"lng":-147.7164,"timezone":"America/Anchorage","areaCode":"907","population":0,"elevation":50,"type":"Standard"},{"zip":"99791","city":"Atqasuk","state":"Alaska","stateCode":"AK","county":"Atqasuk County","lat":70.4947,"lng":-157.4411,"timezone":"America/Anchorage","areaCode":"907","population":0,"elevation":50,"type":"Standard"},{"zip":"99801","city":"Juneau","state":"Alaska","stateCode":"AK","county":"Juneau County","lat":58.3628,"lng":-134.5294,"timezone":"America/Juneau","areaCode":"907","population":0,"elevation":100,"type":"Standard"},{"zip":"99802","city":"Juneau","state":"Alaska","stateCode":"AK","county":"Juneau County","lat":58.3019,"lng":-134.4197,"timezone":"America/Juneau","areaCode":"907","population":0,"elevation":100,"type":"Standard"},{"zip":"99803","city":"Juneau","state":"Alaska","stateCode":"AK","county":"Juneau County","lat":58.3019,"lng":-134.4197,"timezone":"America/Juneau","areaCode":"907","population":0,"elevation":100,"type":"Standard"},{"zip":"99811","city":"Juneau","state":"Alaska","stateCode":"AK","county":"Juneau County","lat":58.3019,"lng":-134.4197,"timezone":"America/Juneau","areaCode":"907","population":0,"elevation":100,"type":"Standard"},{"zip":"99812","city":"Juneau","state":"Alaska","stateCode":"AK","county":"Juneau County","lat":58.3271,"lng":-134.4742,"timezone":"America/Juneau","areaCode":"907","population":0,"elevation":100,"type":"Standard"},{"zip":"99820","city":"Angoon","state":"Alaska","stateCode":"AK","county":"Angoon County","lat":57.5005,"lng":-134.586,"timezone":"America/Anchorage","areaCode":"907","population":0,"elevation":100,"type":"Standard"},{"zip":"99821","city":"Auke Bay","state":"Alaska","stateCode":"AK","county":"Auke Bay County","lat":58.4494,"lng":-134.7003,"timezone":"America/Juneau","areaCode":"907","population":0,"elevation":100,"type":"Standard"},{"zip":"99824","city":"Douglas","state":"Alaska","stateCode":"AK","county":"Douglas County","lat":58.2756,"lng":-134.395,"timezone":"America/Juneau","areaCode":"907","population":0,"elevation":100,"type":"Standard"},{"zip":"99825","city":"Elfin Cove","state":"Alaska","stateCode":"AK","county":"Elfin Cove County","lat":58.1944,"lng":-136.3433,"timezone":"America/Juneau","areaCode":"907","population":0,"elevation":100,"type":"Standard"},{"zip":"99826","city":"Gustavus","state":"Alaska","stateCode":"AK","county":"Gustavus County","lat":58.4284,"lng":-135.7615,"timezone":"America/Juneau","areaCode":"907","population":0,"elevation":100,"type":"Standard"},{"zip":"99827","city":"Haines","state":"Alaska","stateCode":"AK","county":"Haines County","lat":59.2519,"lng":-135.542,"timezone":"America/Juneau","areaCode":"907","population":0,"elevation":100,"type":"Standard"},{"zip":"99829","city":"Hoonah","state":"Alaska","stateCode":"AK","county":"Hoonah County","lat":58.0977,"lng":-135.4316,"timezone":"America/Juneau","areaCode":"907","population":0,"elevation":100,"type":"Standard"},{"zip":"99830","city":"Kake","state":"Alaska","stateCode":"AK","county":"Kake County","lat":56.9736,"lng":-133.936,"timezone":"America/Juneau","areaCode":"907","population":0,"elevation":100,"type":"Standard"},{"zip":"99832","city":"Pelican","state":"Alaska","stateCode":"AK","county":"Pelican County","lat":57.9608,"lng":-136.2275,"timezone":"America/Juneau","areaCode":"907","population":0,"elevation":100,"type":"Standard"},{"zip":"99833","city":"Petersburg","state":"Alaska","stateCode":"AK","county":"Petersburg County","lat":56.8271,"lng":-133.1607,"timezone":"America/Juneau","areaCode":"907","population":0,"elevation":100,"type":"Standard"},{"zip":"99835","city":"Sitka","state":"Alaska","stateCode":"AK","county":"Sitka County","lat":57.0514,"lng":-135.3166,"timezone":"America/Juneau","areaCode":"907","population":0,"elevation":100,"type":"Standard"},{"zip":"99836","city":"Port Alexander","state":"Alaska","stateCode":"AK","county":"Port Alexander County","lat":56.2497,"lng":-134.6444,"timezone":"America/Juneau","areaCode":"907","population":0,"elevation":100,"type":"Standard"},{"zip":"99840","city":"Skagway","state":"Alaska","stateCode":"AK","county":"Skagway County","lat":59.4685,"lng":-135.3018,"timezone":"America/Juneau","areaCode":"907","population":0,"elevation":100,"type":"Standard"},{"zip":"99841","city":"Tenakee Springs","state":"Alaska","stateCode":"AK","county":"Tenakee Springs County","lat":57.7808,"lng":-135.2189,"timezone":"America/Juneau","areaCode":"907","population":0,"elevation":100,"type":"Standard"},{"zip":"99850","city":"Juneau","state":"Alaska","stateCode":"AK","county":"Juneau County","lat":58.3019,"lng":-134.4197,"timezone":"America/Juneau","areaCode":"907","population":0,"elevation":100,"type":"Standard"},{"zip":"99901","city":"Ketchikan","state":"Alaska","stateCode":"AK","county":"Ketchikan County","lat":55.372,"lng":-131.6832,"timezone":"America/Juneau","areaCode":"907","population":0,"elevation":100,"type":"Standard"},{"zip":"99903","city":"Meyers Chuck","state":"Alaska","stateCode":"AK","county":"Meyers Chuck County","lat":55.7408,"lng":-132.2564,"timezone":"America/Juneau","areaCode":"907","population":0,"elevation":100,"type":"Standard"},{"zip":"99918","city":"Coffman Cove","state":"Alaska","stateCode":"AK","county":"Coffman Cove County","lat":55.9524,"lng":-132.7503,"timezone":"America/Juneau","areaCode":"907","population":0,"elevation":100,"type":"Standard"},{"zip":"99919","city":"Thorne Bay","state":"Alaska","stateCode":"AK","county":"Thorne Bay County","lat":55.6609,"lng":-132.5138,"timezone":"America/Juneau","areaCode":"907","population":0,"elevation":100,"type":"Standard"},{"zip":"99921","city":"Craig","state":"Alaska","stateCode":"AK","county":"Craig County","lat":55.4732,"lng":-133.1171,"timezone":"America/Juneau","areaCode":"907","population":0,"elevation":100,"type":"Standard"},{"zip":"99922","city":"Hydaburg","state":"Alaska","stateCode":"AK","county":"Hydaburg County","lat":55.2087,"lng":-132.8259,"timezone":"America/Juneau","areaCode":"907","population":0,"elevation":100,"type":"Standard"},{"zip":"99923","city":"Hyder","state":"Alaska","stateCode":"AK","county":"Hyder County","lat":55.9169,"lng":-130.0247,"timezone":"America/Juneau","areaCode":"907","population":0,"elevation":100,"type":"Standard"},{"zip":"99925","city":"Klawock","state":"Alaska","stateCode":"AK","county":"Klawock County","lat":55.5526,"lng":-133.0555,"timezone":"America/Juneau","areaCode":"907","population":0,"elevation":100,"type":"Standard"},{"zip":"99926","city":"Metlakatla","state":"Alaska","stateCode":"AK","county":"Metlakatla County","lat":55.1215,"lng":-131.579,"timezone":"America/Juneau","areaCode":"907","population":0,"elevation":100,"type":"Standard"},{"zip":"99927","city":"Point Baker","state":"Alaska","stateCode":"AK","county":"Point Baker County","lat":56.3528,"lng":-133.6211,"timezone":"America/Juneau","areaCode":"907","population":0,"elevation":100,"type":"Standard"},{"zip":"99928","city":"Ward Cove","state":"Alaska","stateCode":"AK","county":"Ward Cove County","lat":55.3954,"lng":-131.6754,"timezone":"America/Juneau","areaCode":"907","population":0,"elevation":100,"type":"Standard"},{"zip":"99929","city":"Wrangell","state":"Alaska","stateCode":"AK","county":"Wrangell County","lat":56.4335,"lng":-132.3529,"timezone":"America/Anchorage","areaCode":"907","population":0,"elevation":100,"type":"Standard"},{"zip":"99950","city":"Ketchikan","state":"Alaska","stateCode":"AK","county":"Ketchikan County","lat":55.3422,"lng":-131.6478,"timezone":"America/Juneau","areaCode":"907","population":0,"elevation":100,"type":"Standard"}]