[{"zip":"32003","city":"Fleming Island","state":"Florida","stateCode":"FL","county":"Fleming Island County","lat":30.0933,"lng":-81.719,"timezone":"America/New_York","areaCode":"850","population":0,"elevation":100,"type":"Standard"},{"zip":"32004","city":"Ponte Vedra Beach","state":"Florida","stateCode":"FL","county":"Ponte Vedra Beach County","lat":30.2397,"lng":-81.3856,"timezone":"America/New_York","areaCode":"850","population":0,"elevation":100,"type":"Standard"},{"zip":"32006","city":"Fleming Island","state":"Florida","stateCode":"FL","county":"Fleming Island County","lat":30.107,"lng":-81.7167,"timezone":"America/New_York","areaCode":"850","population":0,"elevation":100,"type":"Standard"},{"zip":"32007","city":"Bostwick","state":"Florida","stateCode":"FL","county":"Bostwick County","lat":29.7996,"lng":-81.6273,"timezone":"America/New_York","areaCode":"850","population":0,"elevation":100,"type":"Standard"},{"zip":"32008","city":"Branford","state":"Florida","stateCode":"FL","county":"Branford County","lat":29.9395,"lng":-82.8993,"timezone":"America/New_York","areaCode":"850","population":0,"elevation":100,"type":"Standard"},{"zip":"32009","city":"Bryceville","state":"Florida","stateCode":"FL","county":"Bryceville County","lat":30.4193,"lng":-81.9724,"timezone":"America/New_York","areaCode":"850","population":0,"elevation":100,"type":"Standard"},{"zip":"32011","city":"Callahan","state":"Florida","stateCode":"FL","county":"Callahan County","lat":30.552,"lng":-81.8145,"timezone":"America/New_York","areaCode":"850","population":0,"elevation":100,"type":"Standard"},{"zip":"32013","city":"Day","state":"Florida","stateCode":"FL","county":"Day County","lat":30.1941,"lng":-83.2913,"timezone":"America/New_York","areaCode":"850","population":0,"elevation":100,"type":"Standard"},{"zip":"32024","city":"Lake City","state":"Florida","stateCode":"FL","county":"Lake City County","lat":30.1055,"lng":-82.6878,"timezone":"America/New_York","areaCode":"850","population":0,"elevation":100,"type":"Standard"},{"zip":"32025","city":"Lake City","state":"Florida","stateCode":"FL","county":"Lake City County","lat":30.1601,"lng":-82.6396,"timezone":"America/New_York","areaCode":"850","population":0,"elevation":100,"type":"Standard"},{"zip":"32026","city":"Raiford","state":"Florida","stateCode":"FL","county":"Raiford County","lat":30.0699,"lng":-82.1927,"timezone":"America/New_York","areaCode":"850","population":0,"elevation":100,"type":"Standard"},{"zip":"32030","city":"Doctors Inlet","state":"Florida","stateCode":"FL","county":"Doctors Inlet County","lat":30.1056,"lng":-81.769,"timezone":"America/New_York","areaCode":"850","population":0,"elevation":100,"type":"Standard"},{"zip":"32033","city":"Elkton","state":"Florida","stateCode":"FL","county":"Elkton County","lat":29.7882,"lng":-81.462,"timezone":"America/New_York","areaCode":"850","population":0,"elevation":100,"type":"Standard"},{"zip":"32034","city":"Fernandina Beach","state":"Florida","stateCode":"FL","county":"Fernandina Beach County","lat":30.6697,"lng":-81.4626,"timezone":"America/New_York","areaCode":"850","population":0,"elevation":100,"type":"Standard"},{"zip":"32035","city":"Fernandina Beach","state":"Florida","stateCode":"FL","county":"Fernandina Beach County","lat":30.6697,"lng":-81.4626,"timezone":"America/New_York","areaCode":"850","population":0,"elevation":100,"type":"Standard"},{"zip":"32038","city":"Fort White","state":"Florida","stateCode":"FL","county":"Fort White County","lat":29.9207,"lng":-82.6879,"timezone":"America/New_York","areaCode":"850","population":0,"elevation":100,"type":"Standard"},{"zip":"32040","city":"Glen Saint Mary","state":"Florida","stateCode":"FL","county":"Glen Saint Mary County","lat":30.2861,"lng":-82.2041,"timezone":"America/New_York","areaCode":"850","population":0,"elevation":100,"type":"Standard"},{"zip":"32041","city":"Yulee","state":"Florida","stateCode":"FL","county":"Yulee County","lat":30.6233,"lng":-81.5902,"timezone":"America/New_York","areaCode":"850","population":0,"elevation":100,"type":"Standard"},{"zip":"32042","city":"Graham","state":"Florida","stateCode":"FL","county":"Graham County","lat":29.9689,"lng":-82.1226,"timezone":"America/New_York","areaCode":"850","population":0,"elevation":100,"type":"Standard"},{"zip":"32043","city":"Green Cove Springs","state":"Florida","stateCode":"FL","county":"Green Cove Springs County","lat":29.9983,"lng":-81.7647,"timezone":"America/New_York","areaCode":"850","population":0,"elevation":100,"type":"Standard"},{"zip":"32044","city":"Hampton","state":"Florida","stateCode":"FL","county":"Hampton County","lat":29.8575,"lng":-82.1483,"timezone":"America/New_York","areaCode":"850","population":0,"elevation":100,"type":"Standard"},{"zip":"32046","city":"Hilliard","state":"Florida","stateCode":"FL","county":"Hilliard County","lat":30.6884,"lng":-81.9345,"timezone":"America/New_York","areaCode":"850","population":0,"elevation":100,"type":"Standard"},{"zip":"32050","city":"Middleburg","state":"Florida","stateCode":"FL","county":"Middleburg County","lat":30.0689,"lng":-81.8604,"timezone":"America/New_York","areaCode":"850","population":0,"elevation":100,"type":"Standard"},{"zip":"32052","city":"Jasper","state":"Florida","stateCode":"FL","county":"Jasper County","lat":30.5029,"lng":-82.9322,"timezone":"America/New_York","areaCode":"850","population":0,"elevation":100,"type":"Standard"},{"zip":"32053","city":"Jennings","state":"Florida","stateCode":"FL","county":"Jennings County","lat":30.5482,"lng":-83.135,"timezone":"America/New_York","areaCode":"850","population":0,"elevation":100,"type":"Standard"},{"zip":"32054","city":"Lake Butler","state":"Florida","stateCode":"FL","county":"Lake Butler County","lat":30.0035,"lng":-82.3828,"timezone":"America/New_York","areaCode":"850","population":0,"elevation":100,"type":"Standard"},{"zip":"32055","city":"Lake City","state":"Florida","stateCode":"FL","county":"Lake City County","lat":30.2702,"lng":-82.6254,"timezone":"America/New_York","areaCode":"850","population":0,"elevation":100,"type":"Standard"},{"zip":"32056","city":"Lake City","state":"Florida","stateCode":"FL","county":"Lake City County","lat":30.1897,"lng":-82.6393,"timezone":"America/New_York","areaCode":"850","population":0,"elevation":100,"type":"Standard"},{"zip":"32058","city":"Lawtey","state":"Florida","stateCode":"FL","county":"Lawtey County","lat":30.0472,"lng":-82.1055,"timezone":"America/New_York","areaCode":"850","population":0,"elevation":100,"type":"Standard"},{"zip":"32059","city":"Lee","state":"Florida","stateCode":"FL","county":"Lee County","lat":30.3979,"lng":-83.2844,"timezone":"America/New_York","areaCode":"850","population":0,"elevation":100,"type":"Standard"},{"zip":"32060","city":"Live Oak","state":"Florida","stateCode":"FL","county":"Live Oak County","lat":30.1759,"lng":-83.0304,"timezone":"America/New_York","areaCode":"850","population":0,"elevation":100,"type":"Standard"},{"zip":"32061","city":"Lulu","state":"Florida","stateCode":"FL","county":"Lulu County","lat":30.0754,"lng":-82.5385,"timezone":"America/New_York","areaCode":"850","population":0,"elevation":100,"type":"Standard"},{"zip":"32062","city":"Mc Alpin","state":"Florida","stateCode":"FL","county":"Mc Alpin County","lat":30.1509,"lng":-82.9662,"timezone":"America/New_York","areaCode":"850","population":0,"elevation":100,"type":"Standard"},{"zip":"32063","city":"Macclenny","state":"Florida","stateCode":"FL","county":"Macclenny County","lat":30.2737,"lng":-82.1325,"timezone":"America/New_York","areaCode":"850","population":0,"elevation":100,"type":"Standard"},{"zip":"32064","city":"Live Oak","state":"Florida","stateCode":"FL","county":"Live Oak County","lat":30.2956,"lng":-82.9844,"timezone":"America/New_York","areaCode":"850","population":0,"elevation":100,"type":"Standard"},{"zip":"32065","city":"Orange Park","state":"Florida","stateCode":"FL","county":"Orange Park County","lat":30.1382,"lng":-81.7742,"timezone":"America/New_York","areaCode":"850","population":0,"elevation":100,"type":"Standard"},{"zip":"32066","city":"Mayo","state":"Florida","stateCode":"FL","county":"Mayo County","lat":30.04,"lng":-83.1462,"timezone":"America/New_York","areaCode":"850","population":0,"elevation":100,"type":"Standard"},{"zip":"32067","city":"Orange Park","state":"Florida","stateCode":"FL","county":"Orange Park County","lat":30.1661,"lng":-81.7065,"timezone":"America/New_York","areaCode":"850","population":0,"elevation":100,"type":"Standard"},{"zip":"32068","city":"Middleburg","state":"Florida","stateCode":"FL","county":"Middleburg County","lat":30.084,"lng":-81.8645,"timezone":"America/New_York","areaCode":"850","population":0,"elevation":100,"type":"Standard"},{"zip":"32071","city":"O Brien","state":"Florida","stateCode":"FL","county":"O Brien County","lat":30.0381,"lng":-82.93,"timezone":"America/New_York","areaCode":"850","population":0,"elevation":100,"type":"Standard"},{"zip":"32072","city":"Olustee","state":"Florida","stateCode":"FL","county":"Olustee County","lat":30.2041,"lng":-82.4287,"timezone":"America/New_York","areaCode":"850","population":0,"elevation":100,"type":"Standard"},{"zip":"32073","city":"Orange Park","state":"Florida","stateCode":"FL","county":"Orange Park County","lat":30.1637,"lng":-81.7291,"timezone":"America/New_York","areaCode":"850","population":0,"elevation":100,"type":"Standard"},{"zip":"32079","city":"Penney Farms","state":"Florida","stateCode":"FL","county":"Penney Farms County","lat":29.9849,"lng":-81.8022,"timezone":"America/New_York","areaCode":"850","population":0,"elevation":100,"type":"Standard"},{"zip":"32080","city":"Saint Augustine","state":"Florida","stateCode":"FL","county":"Saint Augustine County","lat":29.7964,"lng":-81.2649,"timezone":"America/New_York","areaCode":"850","population":0,"elevation":100,"type":"Standard"},{"zip":"32081","city":"Ponte Vedra","state":"Florida","stateCode":"FL","county":"Ponte Vedra County","lat":30.1204,"lng":-81.4128,"timezone":"America/New_York","areaCode":"850","population":0,"elevation":100,"type":"Standard"},{"zip":"32082","city":"Ponte Vedra Beach","state":"Florida","stateCode":"FL","county":"Ponte Vedra Beach County","lat":30.1223,"lng":-81.3627,"timezone":"America/New_York","areaCode":"850","population":0,"elevation":100,"type":"Standard"},{"zip":"32083","city":"Raiford","state":"Florida","stateCode":"FL","county":"Raiford County","lat":30.0704,"lng":-82.2001,"timezone":"America/New_York","areaCode":"850","population":0,"elevation":100,"type":"Standard"},{"zip":"32084","city":"Saint Augustine","state":"Florida","stateCode":"FL","county":"Saint Augustine County","lat":29.9175,"lng":-81.3668,"timezone":"America/New_York","areaCode":"850","population":0,"elevation":100,"type":"Standard"},{"zip":"32085","city":"Saint Augustine","state":"Florida","stateCode":"FL","county":"Saint Augustine County","lat":29.9377,"lng":-81.4206,"timezone":"America/New_York","areaCode":"850","population":0,"elevation":100,"type":"Standard"},{"zip":"32086","city":"Saint Augustine","state":"Florida","stateCode":"FL","county":"Saint Augustine County","lat":29.8285,"lng":-81.3237,"timezone":"America/New_York","areaCode":"850","population":0,"elevation":100,"type":"Standard"},{"zip":"32087","city":"Sanderson","state":"Florida","stateCode":"FL","county":"Sanderson County","lat":30.2522,"lng":-82.2729,"timezone":"America/New_York","areaCode":"850","population":0,"elevation":100,"type":"Standard"},{"zip":"32091","city":"Starke","state":"Florida","stateCode":"FL","county":"Starke County","lat":29.9583,"lng":-82.1185,"timezone":"America/New_York","areaCode":"850","population":0,"elevation":100,"type":"Standard"},{"zip":"32092","city":"Saint Augustine","state":"Florida","stateCode":"FL","county":"Saint Augustine County","lat":29.9475,"lng":-81.5264,"timezone":"America/New_York","areaCode":"850","population":0,"elevation":100,"type":"Standard"},{"zip":"32094","city":"Wellborn","state":"Florida","stateCode":"FL","county":"Wellborn County","lat":30.1796,"lng":-82.8505,"timezone":"America/New_York","areaCode":"850","population":0,"elevation":100,"type":"Standard"},{"zip":"32095","city":"Saint Augustine","state":"Florida","stateCode":"FL","county":"Saint Augustine County","lat":30.011,"lng":-81.4108,"timezone":"America/New_York","areaCode":"850","population":0,"elevation":100,"type":"Standard"},{"zip":"32096","city":"White Springs","state":"Florida","stateCode":"FL","county":"White Springs County","lat":30.3387,"lng":-82.7765,"timezone":"America/New_York","areaCode":"850","population":0,"elevation":100,"type":"Standard"},{"zip":"32097","city":"Yulee","state":"Florida","stateCode":"FL","county":"Yulee County","lat":30.6222,"lng":-81.5906,"timezone":"America/New_York","areaCode":"850","population":0,"elevation":100,"type":"Standard"},{"zip":"32099","city":"Jacksonville","state":"Florida","stateCode":"FL","county":"Duval County","lat":30.3375,"lng":-81.7686,"timezone":"America/New_York","areaCode":"850","population":0,"elevation":100,"type":"Standard"},{"zip":"32102","city":"Astor","state":"Florida","stateCode":"FL","county":"Astor County","lat":29.165,"lng":-81.5399,"timezone":"America/New_York","areaCode":"407","population":0,"elevation":100,"type":"Standard"},{"zip":"32105","city":"Barberville","state":"Florida","stateCode":"FL","county":"Barberville County","lat":29.2005,"lng":-81.4065,"timezone":"America/New_York","areaCode":"407","population":0,"elevation":100,"type":"Standard"},{"zip":"32110","city":"Bunnell","state":"Florida","stateCode":"FL","county":"Bunnell County","lat":29.4562,"lng":-81.3244,"timezone":"America/New_York","areaCode":"407","population":0,"elevation":100,"type":"Standard"},{"zip":"32111","city":"Candler","state":"Florida","stateCode":"FL","county":"Candler County","lat":29.0607,"lng":-81.969,"timezone":"America/New_York","areaCode":"407","population":0,"elevation":100,"type":"Standard"},{"zip":"32112","city":"Crescent City","state":"Florida","stateCode":"FL","county":"Crescent City County","lat":29.4272,"lng":-81.5579,"timezone":"America/New_York","areaCode":"407","population":0,"elevation":100,"type":"Standard"},{"zip":"32113","city":"Citra","state":"Florida","stateCode":"FL","county":"Citra County","lat":29.3918,"lng":-82.1062,"timezone":"America/New_York","areaCode":"407","population":0,"elevation":100,"type":"Standard"},{"zip":"32114","city":"Daytona Beach","state":"Florida","stateCode":"FL","county":"Daytona Beach County","lat":29.2012,"lng":-81.0371,"timezone":"America/New_York","areaCode":"407","population":0,"elevation":100,"type":"Standard"},{"zip":"32115","city":"Daytona Beach","state":"Florida","stateCode":"FL","county":"Daytona Beach County","lat":29.2108,"lng":-81.0228,"timezone":"America/New_York","areaCode":"407","population":0,"elevation":100,"type":"Standard"},{"zip":"32116","city":"Daytona Beach","state":"Florida","stateCode":"FL","county":"Daytona Beach County","lat":29.1091,"lng":-80.9843,"timezone":"America/New_York","areaCode":"407","population":0,"elevation":100,"type":"Standard"},{"zip":"32117","city":"Daytona Beach","state":"Florida","stateCode":"FL","county":"Daytona Beach County","lat":29.2353,"lng":-81.0658,"timezone":"America/New_York","areaCode":"407","population":0,"elevation":100,"type":"Standard"},{"zip":"32118","city":"Daytona Beach","state":"Florida","stateCode":"FL","county":"Daytona Beach County","lat":29.2219,"lng":-81.0095,"timezone":"America/New_York","areaCode":"407","population":0,"elevation":100,"type":"Standard"},{"zip":"32119","city":"Daytona Beach","state":"Florida","stateCode":"FL","county":"Daytona Beach County","lat":29.16,"lng":-81.0269,"timezone":"America/New_York","areaCode":"407","population":0,"elevation":100,"type":"Standard"},{"zip":"32120","city":"Daytona Beach","state":"Florida","stateCode":"FL","county":"Daytona Beach County","lat":29.2108,"lng":-81.0228,"timezone":"America/New_York","areaCode":"407","population":0,"elevation":100,"type":"Standard"},{"zip":"32121","city":"Daytona Beach","state":"Florida","stateCode":"FL","county":"Daytona Beach County","lat":29.2108,"lng":-81.0228,"timezone":"America/New_York","areaCode":"407","population":0,"elevation":100,"type":"Standard"},{"zip":"32122","city":"Daytona Beach","state":"Florida","stateCode":"FL","county":"Daytona Beach County","lat":29.2108,"lng":-81.0228,"timezone":"America/New_York","areaCode":"407","population":0,"elevation":100,"type":"Standard"},{"zip":"32123","city":"Port Orange","state":"Florida","stateCode":"FL","county":"Port Orange County","lat":29.1383,"lng":-80.9956,"timezone":"America/New_York","areaCode":"407","population":0,"elevation":100,"type":"Standard"},{"zip":"32124","city":"Daytona Beach","state":"Florida","stateCode":"FL","county":"Daytona Beach County","lat":29.1419,"lng":-81.1402,"timezone":"America/New_York","areaCode":"407","population":0,"elevation":100,"type":"Standard"},{"zip":"32125","city":"Daytona Beach","state":"Florida","stateCode":"FL","county":"Daytona Beach County","lat":29.2108,"lng":-81.0228,"timezone":"America/New_York","areaCode":"407","population":0,"elevation":100,"type":"Standard"},{"zip":"32126","city":"Daytona Beach","state":"Florida","stateCode":"FL","county":"Daytona Beach County","lat":29.2108,"lng":-81.0228,"timezone":"America/New_York","areaCode":"407","population":0,"elevation":100,"type":"Standard"},{"zip":"32127","city":"Port Orange","state":"Florida","stateCode":"FL","county":"Port Orange County","lat":29.1383,"lng":-80.9956,"timezone":"America/New_York","areaCode":"407","population":0,"elevation":100,"type":"Standard"},{"zip":"32128","city":"Port Orange","state":"Florida","stateCode":"FL","county":"Port Orange County","lat":29.1383,"lng":-80.9956,"timezone":"America/New_York","areaCode":"407","population":0,"elevation":100,"type":"Standard"},{"zip":"32129","city":"Port Orange","state":"Florida","stateCode":"FL","county":"Port Orange County","lat":29.1372,"lng":-81.0241,"timezone":"America/New_York","areaCode":"407","population":0,"elevation":100,"type":"Standard"},{"zip":"32130","city":"De Leon Springs","state":"Florida","stateCode":"FL","county":"De Leon Springs County","lat":29.1166,"lng":-81.3488,"timezone":"America/New_York","areaCode":"407","population":0,"elevation":100,"type":"Standard"},{"zip":"32131","city":"East Palatka","state":"Florida","stateCode":"FL","county":"East Palatka County","lat":29.6609,"lng":-81.5879,"timezone":"America/New_York","areaCode":"407","population":0,"elevation":100,"type":"Standard"},{"zip":"32132","city":"Edgewater","state":"Florida","stateCode":"FL","county":"Edgewater County","lat":28.9818,"lng":-80.9103,"timezone":"America/New_York","areaCode":"407","population":0,"elevation":100,"type":"Standard"},{"zip":"32133","city":"Eastlake Weir","state":"Florida","stateCode":"FL","county":"Eastlake Weir County","lat":29.0088,"lng":-81.9094,"timezone":"America/New_York","areaCode":"407","population":0,"elevation":100,"type":"Standard"},{"zip":"32134","city":"Fort Mc Coy","state":"Florida","stateCode":"FL","county":"Fort Mc Coy County","lat":29.391,"lng":-81.8551,"timezone":"America/New_York","areaCode":"407","population":0,"elevation":100,"type":"Standard"},{"zip":"32135","city":"Palm Coast","state":"Florida","stateCode":"FL","county":"Palm Coast County","lat":29.4661,"lng":-81.2828,"timezone":"America/New_York","areaCode":"407","population":0,"elevation":100,"type":"Standard"},{"zip":"32136","city":"Flagler Beach","state":"Florida","stateCode":"FL","county":"Flagler Beach County","lat":29.475,"lng":-81.1303,"timezone":"America/New_York","areaCode":"407","population":0,"elevation":100,"type":"Standard"},{"zip":"32137","city":"Palm Coast","state":"Florida","stateCode":"FL","county":"Palm Coast County","lat":29.5565,"lng":-81.219,"timezone":"America/New_York","areaCode":"407","population":0,"elevation":100,"type":"Standard"},{"zip":"32138","city":"Grandin","state":"Florida","stateCode":"FL","county":"Grandin County","lat":29.7277,"lng":-81.9184,"timezone":"America/New_York","areaCode":"407","population":0,"elevation":100,"type":"Standard"},{"zip":"32139","city":"Georgetown","state":"Florida","stateCode":"FL","county":"Georgetown County","lat":29.3842,"lng":-81.6183,"timezone":"America/New_York","areaCode":"407","population":0,"elevation":100,"type":"Standard"},{"zip":"32140","city":"Florahome","state":"Florida","stateCode":"FL","county":"Florahome County","lat":29.7581,"lng":-81.8622,"timezone":"America/New_York","areaCode":"407","population":0,"elevation":100,"type":"Standard"},{"zip":"32141","city":"Edgewater","state":"Florida","stateCode":"FL","county":"Edgewater County","lat":28.9455,"lng":-80.8969,"timezone":"America/New_York","areaCode":"407","population":0,"elevation":100,"type":"Standard"},{"zip":"32142","city":"Palm Coast","state":"Florida","stateCode":"FL","county":"Palm Coast County","lat":29.4661,"lng":-81.2828,"timezone":"America/New_York","areaCode":"407","population":0,"elevation":100,"type":"Standard"},{"zip":"32143","city":"Palm Coast","state":"Florida","stateCode":"FL","county":"Palm Coast County","lat":29.585,"lng":-81.2078,"timezone":"America/New_York","areaCode":"407","population":0,"elevation":100,"type":"Standard"},{"zip":"32145","city":"Hastings","state":"Florida","stateCode":"FL","county":"Hastings County","lat":29.7051,"lng":-81.4909,"timezone":"America/New_York","areaCode":"407","population":0,"elevation":100,"type":"Standard"},{"zip":"32147","city":"Hollister","state":"Florida","stateCode":"FL","county":"Hollister County","lat":29.6227,"lng":-81.8137,"timezone":"America/New_York","areaCode":"407","population":0,"elevation":100,"type":"Standard"},{"zip":"32148","city":"Interlachen","state":"Florida","stateCode":"FL","county":"Interlachen County","lat":29.627,"lng":-81.8894,"timezone":"America/New_York","areaCode":"407","population":0,"elevation":100,"type":"Standard"},{"zip":"32149","city":"Edgar","state":"Florida","stateCode":"FL","county":"Edgar County","lat":29.6242,"lng":-81.8926,"timezone":"America/New_York","areaCode":"407","population":0,"elevation":100,"type":"Standard"},{"zip":"32157","city":"Lake Como","state":"Florida","stateCode":"FL","county":"Lake Como County","lat":29.4839,"lng":-81.5729,"timezone":"America/New_York","areaCode":"407","population":0,"elevation":100,"type":"Standard"},{"zip":"32158","city":"Lady Lake","state":"Florida","stateCode":"FL","county":"Lady Lake County","lat":28.9175,"lng":-81.9229,"timezone":"America/New_York","areaCode":"407","population":0,"elevation":100,"type":"Standard"},{"zip":"32159","city":"Lady Lake","state":"Florida","stateCode":"FL","county":"Lady Lake County","lat":28.9299,"lng":-81.9256,"timezone":"America/New_York","areaCode":"407","population":0,"elevation":100,"type":"Standard"},{"zip":"32160","city":"Lake Geneva","state":"Florida","stateCode":"FL","county":"Lake Geneva County","lat":29.7683,"lng":-81.9907,"timezone":"America/New_York","areaCode":"407","population":0,"elevation":100,"type":"Standard"},{"zip":"32162","city":"The Villages","state":"Florida","stateCode":"FL","county":"The Villages County","lat":28.9341,"lng":-81.9599,"timezone":"America/New_York","areaCode":"407","population":0,"elevation":100,"type":"Standard"},{"zip":"32163","city":"The Villages","state":"Florida","stateCode":"FL","county":"The Villages County","lat":28.9338,"lng":-81.9914,"timezone":"America/New_York","areaCode":"407","population":0,"elevation":100,"type":"Standard"},{"zip":"32164","city":"Palm Coast","state":"Florida","stateCode":"FL","county":"Palm Coast County","lat":29.4861,"lng":-81.2045,"timezone":"America/New_York","areaCode":"407","population":0,"elevation":100,"type":"Standard"},{"zip":"32168","city":"New Smyrna Beach","state":"Florida","stateCode":"FL","county":"New Smyrna Beach County","lat":29.0247,"lng":-80.9584,"timezone":"America/New_York","areaCode":"407","population":0,"elevation":100,"type":"Standard"},{"zip":"32169","city":"New Smyrna Beach","state":"Florida","stateCode":"FL","county":"New Smyrna Beach County","lat":29.0172,"lng":-80.8885,"timezone":"America/New_York","areaCode":"407","population":0,"elevation":100,"type":"Standard"},{"zip":"32170","city":"New Smyrna Beach","state":"Florida","stateCode":"FL","county":"New Smyrna Beach County","lat":29.0258,"lng":-80.927,"timezone":"America/New_York","areaCode":"407","population":0,"elevation":100,"type":"Standard"},{"zip":"32173","city":"Ormond Beach","state":"Florida","stateCode":"FL","county":"Ormond Beach County","lat":29.2858,"lng":-81.0559,"timezone":"America/New_York","areaCode":"407","population":0,"elevation":100,"type":"Standard"},{"zip":"32174","city":"Ormond Beach","state":"Florida","stateCode":"FL","county":"Ormond Beach County","lat":29.2833,"lng":-81.0882,"timezone":"America/New_York","areaCode":"407","population":0,"elevation":100,"type":"Standard"},{"zip":"32175","city":"Ormond Beach","state":"Florida","stateCode":"FL","county":"Ormond Beach County","lat":29.2858,"lng":-81.0559,"timezone":"America/New_York","areaCode":"407","population":0,"elevation":100,"type":"Standard"},{"zip":"32176","city":"Ormond Beach","state":"Florida","stateCode":"FL","county":"Ormond Beach County","lat":29.3222,"lng":-81.0584,"timezone":"America/New_York","areaCode":"407","population":0,"elevation":100,"type":"Standard"},{"zip":"32177","city":"Palatka","state":"Florida","stateCode":"FL","county":"Palatka County","lat":29.6577,"lng":-81.6595,"timezone":"America/New_York","areaCode":"407","population":0,"elevation":100,"type":"Standard"},{"zip":"32178","city":"Palatka","state":"Florida","stateCode":"FL","county":"Palatka County","lat":29.6486,"lng":-81.6376,"timezone":"America/New_York","areaCode":"407","population":0,"elevation":100,"type":"Standard"},{"zip":"32179","city":"Ocklawaha","state":"Florida","stateCode":"FL","county":"Ocklawaha County","lat":29.0643,"lng":-81.8857,"timezone":"America/New_York","areaCode":"407","population":0,"elevation":100,"type":"Standard"},{"zip":"32180","city":"Pierson","state":"Florida","stateCode":"FL","county":"Pierson County","lat":29.2226,"lng":-81.4353,"timezone":"America/New_York","areaCode":"407","population":0,"elevation":100,"type":"Standard"},{"zip":"32181","city":"Pomona Park","state":"Florida","stateCode":"FL","county":"Pomona Park County","lat":29.5002,"lng":-81.5915,"timezone":"America/New_York","areaCode":"407","population":0,"elevation":100,"type":"Standard"},{"zip":"32182","city":"Orange Springs","state":"Florida","stateCode":"FL","county":"Orange Springs County","lat":29.4856,"lng":-81.9589,"timezone":"America/New_York","areaCode":"407","population":0,"elevation":100,"type":"Standard"},{"zip":"32183","city":"Ocklawaha","state":"Florida","stateCode":"FL","county":"Ocklawaha County","lat":29.0597,"lng":-81.9051,"timezone":"America/New_York","areaCode":"407","population":0,"elevation":100,"type":"Standard"},{"zip":"32185","city":"Putnam Hall","state":"Florida","stateCode":"FL","county":"Putnam Hall County","lat":29.7368,"lng":-81.958,"timezone":"America/New_York","areaCode":"407","population":0,"elevation":100,"type":"Standard"},{"zip":"32187","city":"San Mateo","state":"Florida","stateCode":"FL","county":"San Mateo County","lat":29.5888,"lng":-81.5921,"timezone":"America/New_York","areaCode":"407","population":0,"elevation":100,"type":"Standard"},{"zip":"32189","city":"Satsuma","state":"Florida","stateCode":"FL","county":"Satsuma County","lat":29.5594,"lng":-81.6406,"timezone":"America/New_York","areaCode":"407","population":0,"elevation":100,"type":"Standard"},{"zip":"32190","city":"Seville","state":"Florida","stateCode":"FL","county":"Seville County","lat":29.3201,"lng":-81.5279,"timezone":"America/New_York","areaCode":"407","population":0,"elevation":100,"type":"Standard"},{"zip":"32192","city":"Sparr","state":"Florida","stateCode":"FL","county":"Sparr County","lat":29.3268,"lng":-82.1046,"timezone":"America/New_York","areaCode":"407","population":0,"elevation":100,"type":"Standard"},{"zip":"32193","city":"Welaka","state":"Florida","stateCode":"FL","county":"Welaka County","lat":29.4905,"lng":-81.653,"timezone":"America/New_York","areaCode":"407","population":0,"elevation":100,"type":"Standard"},{"zip":"32195","city":"Weirsdale","state":"Florida","stateCode":"FL","county":"Weirsdale County","lat":28.9782,"lng":-81.8932,"timezone":"America/New_York","areaCode":"407","population":0,"elevation":100,"type":"Standard"},{"zip":"32198","city":"Daytona Beach","state":"Florida","stateCode":"FL","county":"Daytona Beach County","lat":29.2108,"lng":-81.0228,"timezone":"America/New_York","areaCode":"407","population":0,"elevation":100,"type":"Standard"},{"zip":"32201","city":"Jacksonville","state":"Florida","stateCode":"FL","county":"Duval County","lat":30.3894,"lng":-81.6808,"timezone":"America/New_York","areaCode":"850","population":0,"elevation":100,"type":"Standard"},{"zip":"32202","city":"Jacksonville","state":"Florida","stateCode":"FL","county":"Duval County","lat":30.3299,"lng":-81.6517,"timezone":"America/New_York","areaCode":"850","population":0,"elevation":100,"type":"Standard"},{"zip":"32203","city":"Jacksonville","state":"Florida","stateCode":"FL","county":"Duval County","lat":30.3228,"lng":-81.547,"timezone":"America/New_York","areaCode":"850","population":0,"elevation":100,"type":"Standard"},{"zip":"32204","city":"Jacksonville","state":"Florida","stateCode":"FL","county":"Duval County","lat":30.3189,"lng":-81.6854,"timezone":"America/New_York","areaCode":"850","population":0,"elevation":100,"type":"Standard"},{"zip":"32205","city":"Jacksonville","state":"Florida","stateCode":"FL","county":"Duval County","lat":30.3172,"lng":-81.722,"timezone":"America/New_York","areaCode":"850","population":0,"elevation":100,"type":"Standard"},{"zip":"32206","city":"Jacksonville","state":"Florida","stateCode":"FL","county":"Duval County","lat":30.3511,"lng":-81.6488,"timezone":"America/New_York","areaCode":"850","population":0,"elevation":100,"type":"Standard"},{"zip":"32207","city":"Jacksonville","state":"Florida","stateCode":"FL","county":"Duval County","lat":30.2908,"lng":-81.6321,"timezone":"America/New_York","areaCode":"850","population":0,"elevation":100,"type":"Standard"},{"zip":"32208","city":"Jacksonville","state":"Florida","stateCode":"FL","county":"Duval County","lat":30.3937,"lng":-81.6889,"timezone":"America/New_York","areaCode":"850","population":0,"elevation":100,"type":"Standard"},{"zip":"32209","city":"Jacksonville","state":"Florida","stateCode":"FL","county":"Duval County","lat":30.3584,"lng":-81.692,"timezone":"America/New_York","areaCode":"850","population":0,"elevation":100,"type":"Standard"},{"zip":"32210","city":"Jacksonville","state":"Florida","stateCode":"FL","county":"Duval County","lat":30.2687,"lng":-81.7473,"timezone":"America/New_York","areaCode":"850","population":0,"elevation":100,"type":"Standard"},{"zip":"32211","city":"Jacksonville","state":"Florida","stateCode":"FL","county":"Duval County","lat":30.348,"lng":-81.5882,"timezone":"America/New_York","areaCode":"850","population":0,"elevation":100,"type":"Standard"},{"zip":"32212","city":"Jacksonville","state":"Florida","stateCode":"FL","county":"Duval County","lat":30.2132,"lng":-81.69,"timezone":"America/New_York","areaCode":"850","population":0,"elevation":100,"type":"Standard"},{"zip":"32214","city":"Jacksonville","state":"Florida","stateCode":"FL","county":"Duval County","lat":30.3449,"lng":-81.6831,"timezone":"America/New_York","areaCode":"850","population":0,"elevation":100,"type":"Standard"},{"zip":"32215","city":"Jacksonville","state":"Florida","stateCode":"FL","county":"Duval County","lat":30.33,"lng":-81.65,"timezone":"America/New_York","areaCode":"850","population":0,"elevation":100,"type":"Standard"},{"zip":"32216","city":"Jacksonville","state":"Florida","stateCode":"FL","county":"Duval County","lat":30.2787,"lng":-81.5831,"timezone":"America/New_York","areaCode":"850","population":0,"elevation":100,"type":"Standard"},{"zip":"32217","city":"Jacksonville","state":"Florida","stateCode":"FL","county":"Duval County","lat":30.2407,"lng":-81.617,"timezone":"America/New_York","areaCode":"850","population":0,"elevation":100,"type":"Standard"},{"zip":"32218","city":"Jacksonville","state":"Florida","stateCode":"FL","county":"Duval County","lat":30.4507,"lng":-81.6626,"timezone":"America/New_York","areaCode":"850","population":0,"elevation":100,"type":"Standard"},{"zip":"32219","city":"Jacksonville","state":"Florida","stateCode":"FL","county":"Duval County","lat":30.4034,"lng":-81.7635,"timezone":"America/New_York","areaCode":"850","population":0,"elevation":100,"type":"Standard"},{"zip":"32220","city":"Jacksonville","state":"Florida","stateCode":"FL","county":"Duval County","lat":30.329,"lng":-81.8176,"timezone":"America/New_York","areaCode":"850","population":0,"elevation":100,"type":"Standard"},{"zip":"32221","city":"Jacksonville","state":"Florida","stateCode":"FL","county":"Duval County","lat":30.2837,"lng":-81.8202,"timezone":"America/New_York","areaCode":"850","population":0,"elevation":100,"type":"Standard"},{"zip":"32222","city":"Jacksonville","state":"Florida","stateCode":"FL","county":"Duval County","lat":30.2292,"lng":-81.8131,"timezone":"America/New_York","areaCode":"850","population":0,"elevation":100,"type":"Standard"},{"zip":"32223","city":"Jacksonville","state":"Florida","stateCode":"FL","county":"Duval County","lat":30.1548,"lng":-81.63,"timezone":"America/New_York","areaCode":"850","population":0,"elevation":100,"type":"Standard"},{"zip":"32224","city":"Jacksonville","state":"Florida","stateCode":"FL","county":"Duval County","lat":30.3031,"lng":-81.4404,"timezone":"America/New_York","areaCode":"850","population":0,"elevation":100,"type":"Standard"},{"zip":"32225","city":"Jacksonville","state":"Florida","stateCode":"FL","county":"Duval County","lat":30.351,"lng":-81.5061,"timezone":"America/New_York","areaCode":"850","population":0,"elevation":100,"type":"Standard"},{"zip":"32226","city":"Jacksonville","state":"Florida","stateCode":"FL","county":"Duval County","lat":30.4735,"lng":-81.5448,"timezone":"America/New_York","areaCode":"850","population":0,"elevation":100,"type":"Standard"},{"zip":"32227","city":"Jacksonville","state":"Florida","stateCode":"FL","county":"Duval County","lat":30.3802,"lng":-81.416,"timezone":"America/New_York","areaCode":"850","population":0,"elevation":100,"type":"Standard"},{"zip":"32228","city":"Jacksonville","state":"Florida","stateCode":"FL","county":"Duval County","lat":30.3824,"lng":-81.4369,"timezone":"America/New_York","areaCode":"850","population":0,"elevation":100,"type":"Standard"},{"zip":"32229","city":"Jacksonville","state":"Florida","stateCode":"FL","county":"Duval County","lat":30.3449,"lng":-81.6831,"timezone":"America/New_York","areaCode":"850","population":0,"elevation":100,"type":"Standard"},{"zip":"32230","city":"Jacksonville","state":"Florida","stateCode":"FL","county":"Duval County","lat":30.33,"lng":-81.65,"timezone":"America/New_York","areaCode":"850","population":0,"elevation":100,"type":"Standard"},{"zip":"32231","city":"Jacksonville","state":"Florida","stateCode":"FL","county":"Duval County","lat":30.3449,"lng":-81.6831,"timezone":"America/New_York","areaCode":"850","population":0,"elevation":100,"type":"Standard"},{"zip":"32232","city":"Jacksonville","state":"Florida","stateCode":"FL","county":"Duval County","lat":30.3449,"lng":-81.6831,"timezone":"America/New_York","areaCode":"850","population":0,"elevation":100,"type":"Standard"},{"zip":"32233","city":"Atlantic Beach","state":"Florida","stateCode":"FL","county":"Atlantic Beach County","lat":30.3483,"lng":-81.4159,"timezone":"America/New_York","areaCode":"850","population":0,"elevation":100,"type":"Standard"},{"zip":"32234","city":"Jacksonville","state":"Florida","stateCode":"FL","county":"Duval County","lat":30.2757,"lng":-81.9686,"timezone":"America/New_York","areaCode":"850","population":0,"elevation":100,"type":"Standard"},{"zip":"32235","city":"Jacksonville","state":"Florida","stateCode":"FL","county":"Duval County","lat":30.3449,"lng":-81.6831,"timezone":"America/New_York","areaCode":"850","population":0,"elevation":100,"type":"Standard"},{"zip":"32236","city":"Jacksonville","state":"Florida","stateCode":"FL","county":"Duval County","lat":30.3449,"lng":-81.6831,"timezone":"America/New_York","areaCode":"850","population":0,"elevation":100,"type":"Standard"},{"zip":"32237","city":"Jacksonville","state":"Florida","stateCode":"FL","county":"Duval County","lat":30.3449,"lng":-81.6831,"timezone":"America/New_York","areaCode":"850","population":0,"elevation":100,"type":"Standard"},{"zip":"32238","city":"Jacksonville","state":"Florida","stateCode":"FL","county":"Duval County","lat":30.3449,"lng":-81.6831,"timezone":"America/New_York","areaCode":"850","population":0,"elevation":100,"type":"Standard"},{"zip":"32239","city":"Jacksonville","state":"Florida","stateCode":"FL","county":"Duval County","lat":30.3449,"lng":-81.6831,"timezone":"America/New_York","areaCode":"850","population":0,"elevation":100,"type":"Standard"},{"zip":"32240","city":"Jacksonville Beach","state":"Florida","stateCode":"FL","county":"Jacksonville Beach County","lat":30.2947,"lng":-81.3931,"timezone":"America/New_York","areaCode":"850","population":0,"elevation":100,"type":"Standard"},{"zip":"32241","city":"Jacksonville","state":"Florida","stateCode":"FL","county":"Duval County","lat":30.3449,"lng":-81.6831,"timezone":"America/New_York","areaCode":"850","population":0,"elevation":100,"type":"Standard"},{"zip":"32244","city":"Jacksonville","state":"Florida","stateCode":"FL","county":"Duval County","lat":30.2231,"lng":-81.7556,"timezone":"America/New_York","areaCode":"850","population":0,"elevation":100,"type":"Standard"},{"zip":"32245","city":"Jacksonville","state":"Florida","stateCode":"FL","county":"Duval County","lat":30.3449,"lng":-81.6831,"timezone":"America/New_York","areaCode":"850","population":0,"elevation":100,"type":"Standard"},{"zip":"32246","city":"Jacksonville","state":"Florida","stateCode":"FL","county":"Duval County","lat":30.2933,"lng":-81.5092,"timezone":"America/New_York","areaCode":"850","population":0,"elevation":100,"type":"Standard"},{"zip":"32247","city":"Jacksonville","state":"Florida","stateCode":"FL","county":"Duval County","lat":30.3449,"lng":-81.6831,"timezone":"America/New_York","areaCode":"850","population":0,"elevation":100,"type":"Standard"},{"zip":"32250","city":"Jacksonville Beach","state":"Florida","stateCode":"FL","county":"Jacksonville Beach County","lat":30.2801,"lng":-81.4165,"timezone":"America/New_York","areaCode":"850","population":0,"elevation":100,"type":"Standard"},{"zip":"32254","city":"Jacksonville","state":"Florida","stateCode":"FL","county":"Duval County","lat":30.3415,"lng":-81.7358,"timezone":"America/New_York","areaCode":"850","population":0,"elevation":100,"type":"Standard"},{"zip":"32255","city":"Jacksonville","state":"Florida","stateCode":"FL","county":"Duval County","lat":30.3322,"lng":-81.6557,"timezone":"America/New_York","areaCode":"850","population":0,"elevation":100,"type":"Standard"},{"zip":"32256","city":"Jacksonville","state":"Florida","stateCode":"FL","county":"Duval County","lat":30.2214,"lng":-81.5571,"timezone":"America/New_York","areaCode":"850","population":0,"elevation":100,"type":"Standard"},{"zip":"32257","city":"Jacksonville","state":"Florida","stateCode":"FL","county":"Duval County","lat":30.1927,"lng":-81.605,"timezone":"America/New_York","areaCode":"850","population":0,"elevation":100,"type":"Standard"},{"zip":"32258","city":"Jacksonville","state":"Florida","stateCode":"FL","county":"Duval County","lat":30.1459,"lng":-81.5739,"timezone":"America/New_York","areaCode":"850","population":0,"elevation":100,"type":"Standard"},{"zip":"32259","city":"Saint Johns","state":"Florida","stateCode":"FL","county":"Saint Johns County","lat":30.0815,"lng":-81.5477,"timezone":"America/New_York","areaCode":"850","population":0,"elevation":100,"type":"Standard"},{"zip":"32260","city":"Jacksonville","state":"Florida","stateCode":"FL","county":"Duval County","lat":29.9377,"lng":-81.4206,"timezone":"America/New_York","areaCode":"850","population":0,"elevation":100,"type":"Standard"},{"zip":"32266","city":"Neptune Beach","state":"Florida","stateCode":"FL","county":"Neptune Beach County","lat":30.3155,"lng":-81.4051,"timezone":"America/New_York","areaCode":"850","population":0,"elevation":100,"type":"Standard"},{"zip":"32267","city":"Jacksonville","state":"Florida","stateCode":"FL","county":"Duval County","lat":30.38,"lng":-81.41,"timezone":"America/New_York","areaCode":"850","population":0,"elevation":100,"type":"Standard"},{"zip":"32277","city":"Jacksonville","state":"Florida","stateCode":"FL","county":"Duval County","lat":30.3704,"lng":-81.5864,"timezone":"America/New_York","areaCode":"850","population":0,"elevation":100,"type":"Standard"},{"zip":"32290","city":"Homeside Lending Inc","state":"Florida","stateCode":"FL","county":"Homeside Lending Inc County","lat":30.33,"lng":-81.65,"timezone":"America/New_York","areaCode":"850","population":0,"elevation":100,"type":"Standard"},{"zip":"32301","city":"Tallahassee","state":"Florida","stateCode":"FL","county":"Tallahassee County","lat":30.4286,"lng":-84.2593,"timezone":"America/New_York","areaCode":"850","population":0,"elevation":100,"type":"Standard"},{"zip":"32302","city":"Tallahassee","state":"Florida","stateCode":"FL","county":"Tallahassee County","lat":30.4383,"lng":-84.2807,"timezone":"America/New_York","areaCode":"850","population":0,"elevation":100,"type":"Standard"},{"zip":"32303","city":"Tallahassee","state":"Florida","stateCode":"FL","county":"Tallahassee County","lat":30.4874,"lng":-84.3189,"timezone":"America/New_York","areaCode":"850","population":0,"elevation":100,"type":"Standard"},{"zip":"32304","city":"Tallahassee","state":"Florida","stateCode":"FL","county":"Tallahassee County","lat":30.4478,"lng":-84.3211,"timezone":"America/New_York","areaCode":"850","population":0,"elevation":100,"type":"Standard"},{"zip":"32305","city":"Tallahassee","state":"Florida","stateCode":"FL","county":"Tallahassee County","lat":30.334,"lng":-84.287,"timezone":"America/New_York","areaCode":"850","population":0,"elevation":100,"type":"Standard"},{"zip":"32306","city":"Tallahassee","state":"Florida","stateCode":"FL","county":"Tallahassee County","lat":30.4425,"lng":-84.2986,"timezone":"America/New_York","areaCode":"850","population":0,"elevation":100,"type":"Standard"},{"zip":"32307","city":"Tallahassee","state":"Florida","stateCode":"FL","county":"Tallahassee County","lat":30.4257,"lng":-84.2877,"timezone":"America/New_York","areaCode":"850","population":0,"elevation":100,"type":"Standard"},{"zip":"32308","city":"Tallahassee","state":"Florida","stateCode":"FL","county":"Tallahassee County","lat":30.4771,"lng":-84.2246,"timezone":"America/New_York","areaCode":"850","population":0,"elevation":100,"type":"Standard"},{"zip":"32309","city":"Tallahassee","state":"Florida","stateCode":"FL","county":"Tallahassee County","lat":30.5422,"lng":-84.1413,"timezone":"America/New_York","areaCode":"850","population":0,"elevation":100,"type":"Standard"},{"zip":"32310","city":"Tallahassee","state":"Florida","stateCode":"FL","county":"Tallahassee County","lat":30.3991,"lng":-84.3298,"timezone":"America/New_York","areaCode":"850","population":0,"elevation":100,"type":"Standard"},{"zip":"32311","city":"Tallahassee","state":"Florida","stateCode":"FL","county":"Tallahassee County","lat":30.4156,"lng":-84.187,"timezone":"America/New_York","areaCode":"850","population":0,"elevation":100,"type":"Standard"},{"zip":"32312","city":"Tallahassee","state":"Florida","stateCode":"FL","county":"Tallahassee County","lat":30.5185,"lng":-84.2627,"timezone":"America/New_York","areaCode":"850","population":0,"elevation":100,"type":"Standard"},{"zip":"32313","city":"Tallahassee","state":"Florida","stateCode":"FL","county":"Tallahassee County","lat":30.4793,"lng":-84.3462,"timezone":"America/New_York","areaCode":"850","population":0,"elevation":100,"type":"Standard"},{"zip":"32314","city":"Tallahassee","state":"Florida","stateCode":"FL","county":"Tallahassee County","lat":30.4793,"lng":-84.3462,"timezone":"America/New_York","areaCode":"850","population":0,"elevation":100,"type":"Standard"},{"zip":"32315","city":"Tallahassee","state":"Florida","stateCode":"FL","county":"Tallahassee County","lat":30.4793,"lng":-84.3462,"timezone":"America/New_York","areaCode":"850","population":0,"elevation":100,"type":"Standard"},{"zip":"32316","city":"Tallahassee","state":"Florida","stateCode":"FL","county":"Tallahassee County","lat":30.4793,"lng":-84.3462,"timezone":"America/New_York","areaCode":"850","population":0,"elevation":100,"type":"Standard"},{"zip":"32317","city":"Tallahassee","state":"Florida","stateCode":"FL","county":"Tallahassee County","lat":30.4651,"lng":-84.1128,"timezone":"America/New_York","areaCode":"850","population":0,"elevation":100,"type":"Standard"},{"zip":"32318","city":"Tallahassee","state":"Florida","stateCode":"FL","county":"Tallahassee County","lat":30.4383,"lng":-84.2807,"timezone":"America/New_York","areaCode":"850","population":0,"elevation":100,"type":"Standard"},{"zip":"32320","city":"Apalachicola","state":"Florida","stateCode":"FL","county":"Apalachicola County","lat":29.7255,"lng":-85.0063,"timezone":"America/New_York","areaCode":"850","population":0,"elevation":100,"type":"Standard"},{"zip":"32321","city":"Bristol","state":"Florida","stateCode":"FL","county":"Bristol County","lat":30.4223,"lng":-84.9466,"timezone":"America/New_York","areaCode":"850","population":0,"elevation":100,"type":"Standard"},{"zip":"32322","city":"Carrabelle","state":"Florida","stateCode":"FL","county":"Carrabelle County","lat":29.8692,"lng":-84.6358,"timezone":"America/New_York","areaCode":"850","population":0,"elevation":100,"type":"Standard"},{"zip":"32323","city":"Lanark Village","state":"Florida","stateCode":"FL","county":"Lanark Village County","lat":29.8826,"lng":-84.5964,"timezone":"America/New_York","areaCode":"850","population":0,"elevation":100,"type":"Standard"},{"zip":"32324","city":"Chattahoochee","state":"Florida","stateCode":"FL","county":"Chattahoochee County","lat":30.6834,"lng":-84.828,"timezone":"America/New_York","areaCode":"850","population":0,"elevation":100,"type":"Standard"},{"zip":"32326","city":"Crawfordville","state":"Florida","stateCode":"FL","county":"Crawfordville County","lat":30.176,"lng":-84.3752,"timezone":"America/New_York","areaCode":"850","population":0,"elevation":100,"type":"Standard"},{"zip":"32327","city":"Crawfordville","state":"Florida","stateCode":"FL","county":"Crawfordville County","lat":30.2108,"lng":-84.3205,"timezone":"America/New_York","areaCode":"850","population":0,"elevation":100,"type":"Standard"},{"zip":"32328","city":"Eastpoint","state":"Florida","stateCode":"FL","county":"Eastpoint County","lat":29.7495,"lng":-84.8162,"timezone":"America/New_York","areaCode":"850","population":0,"elevation":100,"type":"Standard"},{"zip":"32329","city":"Apalachicola","state":"Florida","stateCode":"FL","county":"Apalachicola County","lat":29.726,"lng":-84.9856,"timezone":"America/New_York","areaCode":"850","population":0,"elevation":100,"type":"Standard"},{"zip":"32330","city":"Greensboro","state":"Florida","stateCode":"FL","county":"Greensboro County","lat":30.5696,"lng":-84.7453,"timezone":"America/New_York","areaCode":"850","population":0,"elevation":100,"type":"Standard"},{"zip":"32331","city":"Greenville","state":"Florida","stateCode":"FL","county":"Greenville County","lat":30.4512,"lng":-83.6474,"timezone":"America/New_York","areaCode":"850","population":0,"elevation":100,"type":"Standard"},{"zip":"32332","city":"Gretna","state":"Florida","stateCode":"FL","county":"Gretna County","lat":30.6171,"lng":-84.6599,"timezone":"America/New_York","areaCode":"850","population":0,"elevation":100,"type":"Standard"},{"zip":"32333","city":"Havana","state":"Florida","stateCode":"FL","county":"Havana County","lat":30.6092,"lng":-84.4143,"timezone":"America/New_York","areaCode":"850","population":0,"elevation":100,"type":"Standard"},{"zip":"32334","city":"Hosford","state":"Florida","stateCode":"FL","county":"Hosford County","lat":30.3639,"lng":-84.8054,"timezone":"America/New_York","areaCode":"850","population":0,"elevation":100,"type":"Standard"},{"zip":"32335","city":"Sumatra","state":"Florida","stateCode":"FL","county":"Sumatra County","lat":30.0206,"lng":-84.9806,"timezone":"America/New_York","areaCode":"850","population":0,"elevation":100,"type":"Standard"},{"zip":"32336","city":"Lamont","state":"Florida","stateCode":"FL","county":"Lamont County","lat":30.3772,"lng":-83.8129,"timezone":"America/New_York","areaCode":"850","population":0,"elevation":100,"type":"Standard"},{"zip":"32337","city":"Lloyd","state":"Florida","stateCode":"FL","county":"Lloyd County","lat":30.4778,"lng":-84.0228,"timezone":"America/New_York","areaCode":"850","population":0,"elevation":100,"type":"Standard"},{"zip":"32340","city":"Madison","state":"Florida","stateCode":"FL","county":"Madison County","lat":30.4802,"lng":-83.4067,"timezone":"America/New_York","areaCode":"850","population":0,"elevation":100,"type":"Standard"},{"zip":"32341","city":"Madison","state":"Florida","stateCode":"FL","county":"Madison County","lat":30.4776,"lng":-83.3914,"timezone":"America/New_York","areaCode":"850","population":0,"elevation":100,"type":"Standard"},{"zip":"32343","city":"Midway","state":"Florida","stateCode":"FL","county":"Midway County","lat":30.485,"lng":-84.4768,"timezone":"America/New_York","areaCode":"850","population":0,"elevation":100,"type":"Standard"},{"zip":"32344","city":"Monticello","state":"Florida","stateCode":"FL","county":"Monticello County","lat":30.5197,"lng":-83.8925,"timezone":"America/New_York","areaCode":"850","population":0,"elevation":100,"type":"Standard"},{"zip":"32345","city":"Monticello","state":"Florida","stateCode":"FL","county":"Monticello County","lat":30.5451,"lng":-83.8713,"timezone":"America/New_York","areaCode":"850","population":0,"elevation":100,"type":"Standard"},{"zip":"32346","city":"Panacea","state":"Florida","stateCode":"FL","county":"Panacea County","lat":30.0153,"lng":-84.3912,"timezone":"America/New_York","areaCode":"850","population":0,"elevation":100,"type":"Standard"},{"zip":"32347","city":"Perry","state":"Florida","stateCode":"FL","county":"Perry County","lat":30.1668,"lng":-83.616,"timezone":"America/New_York","areaCode":"850","population":0,"elevation":100,"type":"Standard"},{"zip":"32348","city":"Perry","state":"Florida","stateCode":"FL","county":"Perry County","lat":29.9665,"lng":-83.6594,"timezone":"America/New_York","areaCode":"850","population":0,"elevation":100,"type":"Standard"},{"zip":"32350","city":"Pinetta","state":"Florida","stateCode":"FL","county":"Pinetta County","lat":30.5997,"lng":-83.3405,"timezone":"America/New_York","areaCode":"850","population":0,"elevation":100,"type":"Standard"},{"zip":"32351","city":"Quincy","state":"Florida","stateCode":"FL","county":"Quincy County","lat":30.5867,"lng":-84.6094,"timezone":"America/New_York","areaCode":"850","population":0,"elevation":100,"type":"Standard"},{"zip":"32352","city":"Quincy","state":"Florida","stateCode":"FL","county":"Quincy County","lat":30.6512,"lng":-84.5866,"timezone":"America/New_York","areaCode":"850","population":0,"elevation":100,"type":"Standard"},{"zip":"32353","city":"Quincy","state":"Florida","stateCode":"FL","county":"Quincy County","lat":30.5497,"lng":-84.6069,"timezone":"America/New_York","areaCode":"850","population":0,"elevation":100,"type":"Standard"},{"zip":"32355","city":"Saint Marks","state":"Florida","stateCode":"FL","county":"Saint Marks County","lat":30.1631,"lng":-84.2083,"timezone":"America/New_York","areaCode":"850","population":0,"elevation":100,"type":"Standard"},{"zip":"32356","city":"Salem","state":"Florida","stateCode":"FL","county":"Salem County","lat":29.8539,"lng":-83.4421,"timezone":"America/New_York","areaCode":"850","population":0,"elevation":100,"type":"Standard"},{"zip":"32357","city":"Shady Grove","state":"Florida","stateCode":"FL","county":"Shady Grove County","lat":30.288,"lng":-83.6318,"timezone":"America/New_York","areaCode":"850","population":0,"elevation":100,"type":"Standard"},{"zip":"32358","city":"Sopchoppy","state":"Florida","stateCode":"FL","county":"Sopchoppy County","lat":30.0714,"lng":-84.4549,"timezone":"America/New_York","areaCode":"850","population":0,"elevation":100,"type":"Standard"},{"zip":"32359","city":"Steinhatchee","state":"Florida","stateCode":"FL","county":"Steinhatchee County","lat":29.6739,"lng":-83.3723,"timezone":"America/New_York","areaCode":"850","population":0,"elevation":100,"type":"Standard"},{"zip":"32360","city":"Telogia","state":"Florida","stateCode":"FL","county":"Telogia County","lat":30.3511,"lng":-84.8203,"timezone":"America/New_York","areaCode":"850","population":0,"elevation":100,"type":"Standard"},{"zip":"32361","city":"Wacissa","state":"Florida","stateCode":"FL","county":"Wacissa County","lat":30.3585,"lng":-83.9871,"timezone":"America/New_York","areaCode":"850","population":0,"elevation":100,"type":"Standard"},{"zip":"32362","city":"Woodville","state":"Florida","stateCode":"FL","county":"Woodville County","lat":30.3193,"lng":-84.2674,"timezone":"America/New_York","areaCode":"850","population":0,"elevation":100,"type":"Standard"},{"zip":"32395","city":"Tallahassee","state":"Florida","stateCode":"FL","county":"Tallahassee County","lat":30.4793,"lng":-84.3462,"timezone":"America/New_York","areaCode":"850","population":0,"elevation":100,"type":"Standard"},{"zip":"32399","city":"Tallahassee","state":"Florida","stateCode":"FL","county":"Tallahassee County","lat":30.4383,"lng":-84.2807,"timezone":"America/New_York","areaCode":"850","population":0,"elevation":100,"type":"Standard"},{"zip":"32401","city":"Panama City","state":"Florida","stateCode":"FL","county":"Panama City County","lat":30.1606,"lng":-85.6494,"timezone":"America/Chicago","areaCode":"850","population":0,"elevation":100,"type":"Standard"},{"zip":"32402","city":"Panama City","state":"Florida","stateCode":"FL","county":"Panama City County","lat":30.2345,"lng":-85.692,"timezone":"America/Chicago","areaCode":"850","population":0,"elevation":100,"type":"Standard"},{"zip":"32403","city":"Panama City","state":"Florida","stateCode":"FL","county":"Panama City County","lat":30.0583,"lng":-85.5762,"timezone":"America/Chicago","areaCode":"850","population":0,"elevation":100,"type":"Standard"},{"zip":"32404","city":"Panama City","state":"Florida","stateCode":"FL","county":"Panama City County","lat":30.1653,"lng":-85.5763,"timezone":"America/Chicago","areaCode":"850","population":0,"elevation":100,"type":"Standard"},{"zip":"32405","city":"Panama City","state":"Florida","stateCode":"FL","county":"Panama City County","lat":30.1949,"lng":-85.6727,"timezone":"America/Chicago","areaCode":"850","population":0,"elevation":100,"type":"Standard"},{"zip":"32406","city":"Panama City","state":"Florida","stateCode":"FL","county":"Panama City County","lat":30.2345,"lng":-85.692,"timezone":"America/Chicago","areaCode":"850","population":0,"elevation":100,"type":"Standard"},{"zip":"32407","city":"Panama City Beach","state":"Florida","stateCode":"FL","county":"Panama City Beach County","lat":30.2007,"lng":-85.8136,"timezone":"America/Chicago","areaCode":"850","population":0,"elevation":100,"type":"Standard"},{"zip":"32408","city":"Panama City","state":"Florida","stateCode":"FL","county":"Panama City County","lat":30.1655,"lng":-85.7116,"timezone":"America/Chicago","areaCode":"850","population":0,"elevation":100,"type":"Standard"},{"zip":"32409","city":"Panama City","state":"Florida","stateCode":"FL","county":"Panama City County","lat":30.3117,"lng":-85.6923,"timezone":"America/Chicago","areaCode":"850","population":0,"elevation":100,"type":"Standard"},{"zip":"32410","city":"Mexico Beach","state":"Florida","stateCode":"FL","county":"Mexico Beach County","lat":29.9395,"lng":-85.4096,"timezone":"America/Chicago","areaCode":"850","population":0,"elevation":100,"type":"Standard"},{"zip":"32411","city":"Panama City","state":"Florida","stateCode":"FL","county":"Panama City County","lat":30.2345,"lng":-85.692,"timezone":"America/Chicago","areaCode":"850","population":0,"elevation":100,"type":"Standard"},{"zip":"32412","city":"Panama City","state":"Florida","stateCode":"FL","county":"Panama City County","lat":30.2345,"lng":-85.692,"timezone":"America/Chicago","areaCode":"850","population":0,"elevation":100,"type":"Standard"},{"zip":"32413","city":"Panama City Beach","state":"Florida","stateCode":"FL","county":"Panama City Beach County","lat":30.3105,"lng":-85.9106,"timezone":"America/Chicago","areaCode":"850","population":0,"elevation":100,"type":"Standard"},{"zip":"32417","city":"Panama City","state":"Florida","stateCode":"FL","county":"Panama City County","lat":30.1595,"lng":-85.6598,"timezone":"America/Chicago","areaCode":"850","population":0,"elevation":100,"type":"Standard"},{"zip":"32420","city":"Alford","state":"Florida","stateCode":"FL","county":"Alford County","lat":30.6412,"lng":-85.3756,"timezone":"America/Chicago","areaCode":"850","population":0,"elevation":100,"type":"Standard"},{"zip":"32421","city":"Altha","state":"Florida","stateCode":"FL","county":"Altha County","lat":30.5319,"lng":-85.1704,"timezone":"America/Chicago","areaCode":"850","population":0,"elevation":100,"type":"Standard"},{"zip":"32422","city":"Argyle","state":"Florida","stateCode":"FL","county":"Argyle County","lat":30.7056,"lng":-86.0314,"timezone":"America/Chicago","areaCode":"850","population":0,"elevation":100,"type":"Standard"},{"zip":"32423","city":"Bascom","state":"Florida","stateCode":"FL","county":"Bascom County","lat":30.9514,"lng":-85.0972,"timezone":"America/Chicago","areaCode":"850","population":0,"elevation":100,"type":"Standard"},{"zip":"32424","city":"Blountstown","state":"Florida","stateCode":"FL","county":"Blountstown County","lat":30.4394,"lng":-85.062,"timezone":"America/Chicago","areaCode":"850","population":0,"elevation":100,"type":"Standard"},{"zip":"32425","city":"Bonifay","state":"Florida","stateCode":"FL","county":"Bonifay County","lat":30.8464,"lng":-85.69,"timezone":"America/Chicago","areaCode":"850","population":0,"elevation":100,"type":"Standard"},{"zip":"32426","city":"Campbellton","state":"Florida","stateCode":"FL","county":"Campbellton County","lat":30.9563,"lng":-85.3766,"timezone":"America/Chicago","areaCode":"850","population":0,"elevation":100,"type":"Standard"},{"zip":"32427","city":"Caryville","state":"Florida","stateCode":"FL","county":"Caryville County","lat":30.7123,"lng":-85.8014,"timezone":"America/Chicago","areaCode":"850","population":0,"elevation":100,"type":"Standard"},{"zip":"32428","city":"Chipley","state":"Florida","stateCode":"FL","county":"Chipley County","lat":30.7107,"lng":-85.5486,"timezone":"America/Chicago","areaCode":"850","population":0,"elevation":100,"type":"Standard"},{"zip":"32430","city":"Clarksville","state":"Florida","stateCode":"FL","county":"Clarksville County","lat":30.3568,"lng":-85.1898,"timezone":"America/Chicago","areaCode":"850","population":0,"elevation":100,"type":"Standard"},{"zip":"32431","city":"Cottondale","state":"Florida","stateCode":"FL","county":"Cottondale County","lat":30.8004,"lng":-85.3847,"timezone":"America/Chicago","areaCode":"850","population":0,"elevation":100,"type":"Standard"},{"zip":"32432","city":"Cypress","state":"Florida","stateCode":"FL","county":"Cypress County","lat":30.7158,"lng":-85.0784,"timezone":"America/Chicago","areaCode":"850","population":0,"elevation":100,"type":"Standard"},{"zip":"32433","city":"Defuniak Springs","state":"Florida","stateCode":"FL","county":"Defuniak Springs County","lat":30.8494,"lng":-86.2023,"timezone":"America/Chicago","areaCode":"850","population":0,"elevation":100,"type":"Standard"},{"zip":"32434","city":"Mossy Head","state":"Florida","stateCode":"FL","county":"Mossy Head County","lat":30.7432,"lng":-86.3149,"timezone":"America/Chicago","areaCode":"850","population":0,"elevation":100,"type":"Standard"},{"zip":"32435","city":"Defuniak Springs","state":"Florida","stateCode":"FL","county":"Defuniak Springs County","lat":30.721,"lng":-86.1152,"timezone":"America/Chicago","areaCode":"850","population":0,"elevation":100,"type":"Standard"},{"zip":"32437","city":"Ebro","state":"Florida","stateCode":"FL","county":"Ebro County","lat":30.4352,"lng":-85.8881,"timezone":"America/Chicago","areaCode":"850","population":0,"elevation":100,"type":"Standard"},{"zip":"32438","city":"Fountain","state":"Florida","stateCode":"FL","county":"Fountain County","lat":30.4753,"lng":-85.4293,"timezone":"America/Chicago","areaCode":"850","population":0,"elevation":100,"type":"Standard"},{"zip":"32439","city":"Freeport","state":"Florida","stateCode":"FL","county":"Freeport County","lat":30.4896,"lng":-86.1684,"timezone":"America/Chicago","areaCode":"850","population":0,"elevation":100,"type":"Standard"},{"zip":"32440","city":"Graceville","state":"Florida","stateCode":"FL","county":"Graceville County","lat":30.9426,"lng":-85.5136,"timezone":"America/Chicago","areaCode":"850","population":0,"elevation":100,"type":"Standard"},{"zip":"32442","city":"Grand Ridge","state":"Florida","stateCode":"FL","county":"Grand Ridge County","lat":30.7148,"lng":-85.021,"timezone":"America/Chicago","areaCode":"850","population":0,"elevation":100,"type":"Standard"},{"zip":"32443","city":"Greenwood","state":"Florida","stateCode":"FL","county":"Greenwood County","lat":30.8667,"lng":-85.1153,"timezone":"America/Chicago","areaCode":"850","population":0,"elevation":100,"type":"Standard"},{"zip":"32444","city":"Lynn Haven","state":"Florida","stateCode":"FL","county":"Lynn Haven County","lat":30.2362,"lng":-85.6467,"timezone":"America/Chicago","areaCode":"850","population":0,"elevation":100,"type":"Standard"},{"zip":"32445","city":"Malone","state":"Florida","stateCode":"FL","county":"Malone County","lat":30.9602,"lng":-85.1639,"timezone":"America/Chicago","areaCode":"850","population":0,"elevation":100,"type":"Standard"},{"zip":"32446","city":"Marianna","state":"Florida","stateCode":"FL","county":"Marianna County","lat":30.7996,"lng":-85.2293,"timezone":"America/Chicago","areaCode":"850","population":0,"elevation":100,"type":"Standard"},{"zip":"32447","city":"Marianna","state":"Florida","stateCode":"FL","county":"Marianna County","lat":30.7603,"lng":-85.2022,"timezone":"America/Chicago","areaCode":"850","population":0,"elevation":100,"type":"Standard"},{"zip":"32448","city":"Marianna","state":"Florida","stateCode":"FL","county":"Marianna County","lat":30.6749,"lng":-85.2122,"timezone":"America/Chicago","areaCode":"850","population":0,"elevation":100,"type":"Standard"},{"zip":"32449","city":"Wewahitchka","state":"Florida","stateCode":"FL","county":"Wewahitchka County","lat":30.4059,"lng":-85.1974,"timezone":"America/Chicago","areaCode":"850","population":0,"elevation":100,"type":"Standard"},{"zip":"32452","city":"Noma","state":"Florida","stateCode":"FL","county":"Noma County","lat":30.9821,"lng":-85.6185,"timezone":"America/New_York","areaCode":"850","population":0,"elevation":100,"type":"Standard"},{"zip":"32454","city":"Point Washington","state":"Florida","stateCode":"FL","county":"Point Washington County","lat":30.37,"lng":-86.11,"timezone":"America/Chicago","areaCode":"850","population":0,"elevation":100,"type":"Standard"},{"zip":"32455","city":"Ponce De Leon","state":"Florida","stateCode":"FL","county":"Ponce De Leon County","lat":30.7041,"lng":-85.9546,"timezone":"America/Chicago","areaCode":"850","population":0,"elevation":100,"type":"Standard"},{"zip":"32456","city":"Port Saint Joe","state":"Florida","stateCode":"FL","county":"Port Saint Joe County","lat":29.8119,"lng":-85.303,"timezone":"America/New_York","areaCode":"850","population":0,"elevation":100,"type":"Standard"},{"zip":"32457","city":"Port Saint Joe","state":"Florida","stateCode":"FL","county":"Port Saint Joe County","lat":29.8119,"lng":-85.303,"timezone":"America/New_York","areaCode":"850","population":0,"elevation":100,"type":"Standard"},{"zip":"32459","city":"Santa Rosa Beach","state":"Florida","stateCode":"FL","county":"Santa Rosa Beach County","lat":30.3659,"lng":-86.2458,"timezone":"America/Chicago","areaCode":"850","population":0,"elevation":100,"type":"Standard"},{"zip":"32460","city":"Sneads","state":"Florida","stateCode":"FL","county":"Sneads County","lat":30.7276,"lng":-84.9337,"timezone":"America/Chicago","areaCode":"850","population":0,"elevation":100,"type":"Standard"},{"zip":"32461","city":"Rosemary Beach","state":"Florida","stateCode":"FL","county":"Rosemary Beach County","lat":30.2835,"lng":-86.0305,"timezone":"America/Chicago","areaCode":"850","population":0,"elevation":100,"type":"Standard"},{"zip":"32462","city":"Vernon","state":"Florida","stateCode":"FL","county":"Vernon County","lat":30.6267,"lng":-85.7553,"timezone":"America/Chicago","areaCode":"850","population":0,"elevation":100,"type":"Standard"},{"zip":"32463","city":"Wausau","state":"Florida","stateCode":"FL","county":"Wausau County","lat":30.6321,"lng":-85.5888,"timezone":"America/New_York","areaCode":"850","population":0,"elevation":100,"type":"Standard"},{"zip":"32464","city":"Westville","state":"Florida","stateCode":"FL","county":"Westville County","lat":30.8747,"lng":-85.913,"timezone":"America/Chicago","areaCode":"850","population":0,"elevation":100,"type":"Standard"},{"zip":"32465","city":"Wewahitchka","state":"Florida","stateCode":"FL","county":"Wewahitchka County","lat":30.0933,"lng":-85.2048,"timezone":"America/Chicago","areaCode":"850","population":0,"elevation":100,"type":"Standard"},{"zip":"32466","city":"Youngstown","state":"Florida","stateCode":"FL","county":"Youngstown County","lat":30.3269,"lng":-85.5169,"timezone":"America/Chicago","areaCode":"850","population":0,"elevation":100,"type":"Standard"},{"zip":"32501","city":"Pensacola","state":"Florida","stateCode":"FL","county":"Pensacola County","lat":30.4223,"lng":-87.2248,"timezone":"America/Chicago","areaCode":"850","population":0,"elevation":100,"type":"Standard"},{"zip":"32502","city":"Pensacola","state":"Florida","stateCode":"FL","county":"Pensacola County","lat":30.4095,"lng":-87.2229,"timezone":"America/Chicago","areaCode":"850","population":0,"elevation":100,"type":"Standard"},{"zip":"32503","city":"Pensacola","state":"Florida","stateCode":"FL","county":"Pensacola County","lat":30.4564,"lng":-87.2104,"timezone":"America/Chicago","areaCode":"850","population":0,"elevation":100,"type":"Standard"},{"zip":"32504","city":"Pensacola","state":"Florida","stateCode":"FL","county":"Pensacola County","lat":30.4873,"lng":-87.1872,"timezone":"America/Chicago","areaCode":"850","population":0,"elevation":100,"type":"Standard"},{"zip":"32505","city":"Pensacola","state":"Florida","stateCode":"FL","county":"Pensacola County","lat":30.4481,"lng":-87.2589,"timezone":"America/Chicago","areaCode":"850","population":0,"elevation":100,"type":"Standard"},{"zip":"32506","city":"Pensacola","state":"Florida","stateCode":"FL","county":"Pensacola County","lat":30.4129,"lng":-87.3092,"timezone":"America/Chicago","areaCode":"850","population":0,"elevation":100,"type":"Standard"},{"zip":"32507","city":"Pensacola","state":"Florida","stateCode":"FL","county":"Pensacola County","lat":30.3737,"lng":-87.3126,"timezone":"America/Chicago","areaCode":"850","population":0,"elevation":100,"type":"Standard"},{"zip":"32508","city":"Pensacola","state":"Florida","stateCode":"FL","county":"Pensacola County","lat":30.3511,"lng":-87.2749,"timezone":"America/Chicago","areaCode":"850","population":0,"elevation":100,"type":"Standard"},{"zip":"32509","city":"Pensacola","state":"Florida","stateCode":"FL","county":"Pensacola County","lat":30.4643,"lng":-87.3403,"timezone":"America/Chicago","areaCode":"850","population":0,"elevation":100,"type":"Standard"},{"zip":"32511","city":"Pensacola","state":"Florida","stateCode":"FL","county":"Pensacola County","lat":30.4061,"lng":-87.2917,"timezone":"America/Chicago","areaCode":"850","population":0,"elevation":100,"type":"Standard"},{"zip":"32512","city":"Pensacola","state":"Florida","stateCode":"FL","county":"Pensacola County","lat":30.3943,"lng":-87.2991,"timezone":"America/Chicago","areaCode":"850","population":0,"elevation":100,"type":"Standard"},{"zip":"32513","city":"Pensacola","state":"Florida","stateCode":"FL","county":"Pensacola County","lat":30.5571,"lng":-87.2596,"timezone":"America/Chicago","areaCode":"850","population":0,"elevation":100,"type":"Standard"},{"zip":"32514","city":"Pensacola","state":"Florida","stateCode":"FL","county":"Pensacola County","lat":30.5241,"lng":-87.2167,"timezone":"America/Chicago","areaCode":"850","population":0,"elevation":100,"type":"Standard"},{"zip":"32516","city":"Pensacola","state":"Florida","stateCode":"FL","county":"Pensacola County","lat":30.4213,"lng":-87.2169,"timezone":"America/Chicago","areaCode":"850","population":0,"elevation":100,"type":"Standard"},{"zip":"32520","city":"Pensacola","state":"Florida","stateCode":"FL","county":"Pensacola County","lat":30.4124,"lng":-87.2035,"timezone":"America/Chicago","areaCode":"850","population":0,"elevation":100,"type":"Standard"},{"zip":"32521","city":"Pensacola","state":"Florida","stateCode":"FL","county":"Pensacola County","lat":30.4213,"lng":-87.2169,"timezone":"America/Chicago","areaCode":"850","population":0,"elevation":100,"type":"Standard"},{"zip":"32522","city":"Pensacola","state":"Florida","stateCode":"FL","county":"Pensacola County","lat":30.4213,"lng":-87.2169,"timezone":"America/Chicago","areaCode":"850","population":0,"elevation":100,"type":"Standard"},{"zip":"32523","city":"Pensacola","state":"Florida","stateCode":"FL","county":"Pensacola County","lat":30.4213,"lng":-87.2169,"timezone":"America/Chicago","areaCode":"850","population":0,"elevation":100,"type":"Standard"},{"zip":"32524","city":"Pensacola","state":"Florida","stateCode":"FL","county":"Pensacola County","lat":30.4213,"lng":-87.2169,"timezone":"America/Chicago","areaCode":"850","population":0,"elevation":100,"type":"Standard"},{"zip":"32526","city":"Pensacola","state":"Florida","stateCode":"FL","county":"Pensacola County","lat":30.4756,"lng":-87.3179,"timezone":"America/Chicago","areaCode":"850","population":0,"elevation":100,"type":"Standard"},{"zip":"32530","city":"Bagdad","state":"Florida","stateCode":"FL","county":"Bagdad County","lat":30.5986,"lng":-87.0315,"timezone":"America/Chicago","areaCode":"850","population":0,"elevation":100,"type":"Standard"},{"zip":"32531","city":"Baker","state":"Florida","stateCode":"FL","county":"Baker County","lat":30.8316,"lng":-86.677,"timezone":"America/Chicago","areaCode":"850","population":0,"elevation":100,"type":"Standard"},{"zip":"32533","city":"Cantonment","state":"Florida","stateCode":"FL","county":"Cantonment County","lat":30.6143,"lng":-87.3251,"timezone":"America/Chicago","areaCode":"850","population":0,"elevation":100,"type":"Standard"},{"zip":"32534","city":"Pensacola","state":"Florida","stateCode":"FL","county":"Pensacola County","lat":30.5301,"lng":-87.2793,"timezone":"America/Chicago","areaCode":"850","population":0,"elevation":100,"type":"Standard"},{"zip":"32535","city":"Century","state":"Florida","stateCode":"FL","county":"Century County","lat":30.9687,"lng":-87.3216,"timezone":"America/Chicago","areaCode":"850","population":0,"elevation":100,"type":"Standard"},{"zip":"32536","city":"Crestview","state":"Florida","stateCode":"FL","county":"Crestview County","lat":30.7644,"lng":-86.5917,"timezone":"America/Chicago","areaCode":"850","population":0,"elevation":100,"type":"Standard"},{"zip":"32537","city":"Milligan","state":"Florida","stateCode":"FL","county":"Milligan County","lat":30.742,"lng":-86.6552,"timezone":"America/Chicago","areaCode":"850","population":0,"elevation":100,"type":"Standard"},{"zip":"32538","city":"Paxton","state":"Florida","stateCode":"FL","county":"Paxton County","lat":30.9709,"lng":-86.3111,"timezone":"America/Chicago","areaCode":"850","population":0,"elevation":100,"type":"Standard"},{"zip":"32539","city":"Crestview","state":"Florida","stateCode":"FL","county":"Crestview County","lat":30.7773,"lng":-86.4832,"timezone":"America/Chicago","areaCode":"850","population":0,"elevation":100,"type":"Standard"},{"zip":"32540","city":"Destin","state":"Florida","stateCode":"FL","county":"Destin County","lat":30.3935,"lng":-86.4958,"timezone":"America/Chicago","areaCode":"850","population":0,"elevation":100,"type":"Standard"},{"zip":"32541","city":"Destin","state":"Florida","stateCode":"FL","county":"Destin County","lat":30.3949,"lng":-86.4692,"timezone":"America/Chicago","areaCode":"850","population":0,"elevation":100,"type":"Standard"},{"zip":"32542","city":"Eglin Afb","state":"Florida","stateCode":"FL","county":"Eglin Afb County","lat":30.5393,"lng":-86.6087,"timezone":"America/Chicago","areaCode":"850","population":0,"elevation":100,"type":"Standard"},{"zip":"32544","city":"Hurlburt Field","state":"Florida","stateCode":"FL","county":"Hurlburt Field County","lat":30.4229,"lng":-86.6985,"timezone":"America/Chicago","areaCode":"850","population":0,"elevation":100,"type":"Standard"},{"zip":"32547","city":"Fort Walton Beach","state":"Florida","stateCode":"FL","county":"Fort Walton Beach County","lat":30.4487,"lng":-86.6255,"timezone":"America/Chicago","areaCode":"850","population":0,"elevation":100,"type":"Standard"},{"zip":"32548","city":"Fort Walton Beach","state":"Florida","stateCode":"FL","county":"Fort Walton Beach County","lat":30.4206,"lng":-86.6286,"timezone":"America/Chicago","areaCode":"850","population":0,"elevation":100,"type":"Standard"},{"zip":"32549","city":"Fort Walton Beach","state":"Florida","stateCode":"FL","county":"Fort Walton Beach County","lat":30.4208,"lng":-86.6194,"timezone":"America/Chicago","areaCode":"850","population":0,"elevation":100,"type":"Standard"},{"zip":"32550","city":"Miramar Beach","state":"Florida","stateCode":"FL","county":"Miramar Beach County","lat":30.385,"lng":-86.3473,"timezone":"America/Chicago","areaCode":"850","population":0,"elevation":100,"type":"Standard"},{"zip":"32559","city":"Pensacola","state":"Florida","stateCode":"FL","county":"Pensacola County","lat":30.3563,"lng":-87.2773,"timezone":"America/Chicago","areaCode":"850","population":0,"elevation":100,"type":"Standard"},{"zip":"32560","city":"Gonzalez","state":"Florida","stateCode":"FL","county":"Gonzalez County","lat":30.5818,"lng":-87.2929,"timezone":"America/Chicago","areaCode":"850","population":0,"elevation":100,"type":"Standard"},{"zip":"32561","city":"Gulf Breeze","state":"Florida","stateCode":"FL","county":"Gulf Breeze County","lat":30.3571,"lng":-87.1639,"timezone":"America/Chicago","areaCode":"850","population":0,"elevation":100,"type":"Standard"},{"zip":"32562","city":"Gulf Breeze","state":"Florida","stateCode":"FL","county":"Gulf Breeze County","lat":30.3571,"lng":-87.1639,"timezone":"America/Chicago","areaCode":"850","population":0,"elevation":100,"type":"Standard"},{"zip":"32563","city":"Gulf Breeze","state":"Florida","stateCode":"FL","county":"Gulf Breeze County","lat":30.3962,"lng":-87.0274,"timezone":"America/Chicago","areaCode":"850","population":0,"elevation":100,"type":"Standard"},{"zip":"32564","city":"Holt","state":"Florida","stateCode":"FL","county":"Holt County","lat":30.7416,"lng":-86.7198,"timezone":"America/Chicago","areaCode":"850","population":0,"elevation":100,"type":"Standard"},{"zip":"32565","city":"Jay","state":"Florida","stateCode":"FL","county":"Jay County","lat":30.8985,"lng":-87.1332,"timezone":"America/Chicago","areaCode":"850","population":0,"elevation":100,"type":"Standard"},{"zip":"32566","city":"Navarre","state":"Florida","stateCode":"FL","county":"Navarre County","lat":30.4212,"lng":-86.8926,"timezone":"America/Chicago","areaCode":"850","population":0,"elevation":100,"type":"Standard"},{"zip":"32567","city":"Laurel Hill","state":"Florida","stateCode":"FL","county":"Laurel Hill County","lat":30.9524,"lng":-86.4003,"timezone":"America/Chicago","areaCode":"850","population":0,"elevation":100,"type":"Standard"},{"zip":"32568","city":"Mc David","state":"Florida","stateCode":"FL","county":"Mc David County","lat":30.8686,"lng":-87.4539,"timezone":"America/Chicago","areaCode":"850","population":0,"elevation":100,"type":"Standard"},{"zip":"32569","city":"Mary Esther","state":"Florida","stateCode":"FL","county":"Mary Esther County","lat":30.4085,"lng":-86.7352,"timezone":"America/Chicago","areaCode":"850","population":0,"elevation":100,"type":"Standard"},{"zip":"32570","city":"Milton","state":"Florida","stateCode":"FL","county":"Milton County","lat":30.6604,"lng":-87.0473,"timezone":"America/Chicago","areaCode":"850","population":0,"elevation":100,"type":"Standard"},{"zip":"32571","city":"Milton","state":"Florida","stateCode":"FL","county":"Milton County","lat":30.6698,"lng":-87.1794,"timezone":"America/Chicago","areaCode":"850","population":0,"elevation":100,"type":"Standard"},{"zip":"32572","city":"Milton","state":"Florida","stateCode":"FL","county":"Milton County","lat":30.6592,"lng":-87.0497,"timezone":"America/Chicago","areaCode":"850","population":0,"elevation":100,"type":"Standard"},{"zip":"32577","city":"Molino","state":"Florida","stateCode":"FL","county":"Molino County","lat":30.6902,"lng":-87.3852,"timezone":"America/Chicago","areaCode":"850","population":0,"elevation":100,"type":"Standard"},{"zip":"32578","city":"Niceville","state":"Florida","stateCode":"FL","county":"Niceville County","lat":30.5169,"lng":-86.4822,"timezone":"America/Chicago","areaCode":"850","population":0,"elevation":100,"type":"Standard"},{"zip":"32579","city":"Shalimar","state":"Florida","stateCode":"FL","county":"Shalimar County","lat":30.4456,"lng":-86.5717,"timezone":"America/Chicago","areaCode":"850","population":0,"elevation":100,"type":"Standard"},{"zip":"32580","city":"Valparaiso","state":"Florida","stateCode":"FL","county":"Valparaiso County","lat":30.5092,"lng":-86.5009,"timezone":"America/Chicago","areaCode":"850","population":0,"elevation":100,"type":"Standard"},{"zip":"32583","city":"Milton","state":"Florida","stateCode":"FL","county":"Milton County","lat":30.5761,"lng":-87.0663,"timezone":"America/Chicago","areaCode":"850","population":0,"elevation":100,"type":"Standard"},{"zip":"32588","city":"Niceville","state":"Florida","stateCode":"FL","county":"Niceville County","lat":30.6612,"lng":-86.5945,"timezone":"America/Chicago","areaCode":"850","population":0,"elevation":100,"type":"Standard"},{"zip":"32590","city":"Pensacola","state":"Florida","stateCode":"FL","county":"Pensacola County","lat":30.44,"lng":-87.18,"timezone":"America/Chicago","areaCode":"850","population":0,"elevation":100,"type":"Standard"},{"zip":"32591","city":"Pensacola","state":"Florida","stateCode":"FL","county":"Pensacola County","lat":30.4213,"lng":-87.2169,"timezone":"America/Chicago","areaCode":"850","population":0,"elevation":100,"type":"Standard"},{"zip":"32592","city":"Pensacola","state":"Florida","stateCode":"FL","county":"Pensacola County","lat":30.44,"lng":-87.18,"timezone":"America/Chicago","areaCode":"850","population":0,"elevation":100,"type":"Standard"},{"zip":"32601","city":"Gainesville","state":"Florida","stateCode":"FL","county":"Gainesville County","lat":29.6489,"lng":-82.325,"timezone":"America/New_York","areaCode":"352","population":0,"elevation":100,"type":"Standard"},{"zip":"32602","city":"Gainesville","state":"Florida","stateCode":"FL","county":"Gainesville County","lat":29.6299,"lng":-82.3966,"timezone":"America/New_York","areaCode":"352","population":0,"elevation":100,"type":"Standard"},{"zip":"32603","city":"Gainesville","state":"Florida","stateCode":"FL","county":"Gainesville County","lat":29.6515,"lng":-82.3493,"timezone":"America/New_York","areaCode":"352","population":0,"elevation":100,"type":"Standard"},{"zip":"32604","city":"Gainesville","state":"Florida","stateCode":"FL","county":"Gainesville County","lat":29.5733,"lng":-82.3979,"timezone":"America/New_York","areaCode":"352","population":0,"elevation":100,"type":"Standard"},{"zip":"32605","city":"Gainesville","state":"Florida","stateCode":"FL","county":"Gainesville County","lat":29.6785,"lng":-82.3679,"timezone":"America/New_York","areaCode":"352","population":0,"elevation":100,"type":"Standard"},{"zip":"32606","city":"Gainesville","state":"Florida","stateCode":"FL","county":"Gainesville County","lat":29.6954,"lng":-82.4023,"timezone":"America/New_York","areaCode":"352","population":0,"elevation":100,"type":"Standard"},{"zip":"32607","city":"Gainesville","state":"Florida","stateCode":"FL","county":"Gainesville County","lat":29.6456,"lng":-82.4033,"timezone":"America/New_York","areaCode":"352","population":0,"elevation":100,"type":"Standard"},{"zip":"32608","city":"Gainesville","state":"Florida","stateCode":"FL","county":"Gainesville County","lat":29.6132,"lng":-82.3873,"timezone":"America/New_York","areaCode":"352","population":0,"elevation":100,"type":"Standard"},{"zip":"32609","city":"Gainesville","state":"Florida","stateCode":"FL","county":"Gainesville County","lat":29.7005,"lng":-82.308,"timezone":"America/New_York","areaCode":"352","population":0,"elevation":100,"type":"Standard"},{"zip":"32610","city":"Gainesville","state":"Florida","stateCode":"FL","county":"Gainesville County","lat":29.6813,"lng":-82.3539,"timezone":"America/New_York","areaCode":"352","population":0,"elevation":100,"type":"Standard"},{"zip":"32611","city":"Gainesville","state":"Florida","stateCode":"FL","county":"Gainesville County","lat":29.6813,"lng":-82.3539,"timezone":"America/New_York","areaCode":"352","population":0,"elevation":100,"type":"Standard"},{"zip":"32612","city":"Gainesville","state":"Florida","stateCode":"FL","county":"Gainesville County","lat":29.6813,"lng":-82.3539,"timezone":"America/New_York","areaCode":"352","population":0,"elevation":100,"type":"Standard"},{"zip":"32613","city":"Gainesville","state":"Florida","stateCode":"FL","county":"Gainesville County","lat":29.67,"lng":-82.33,"timezone":"America/New_York","areaCode":"352","population":0,"elevation":100,"type":"Standard"},{"zip":"32614","city":"Gainesville","state":"Florida","stateCode":"FL","county":"Gainesville County","lat":29.6813,"lng":-82.3539,"timezone":"America/New_York","areaCode":"352","population":0,"elevation":100,"type":"Standard"},{"zip":"32615","city":"Alachua","state":"Florida","stateCode":"FL","county":"Alachua County","lat":29.8135,"lng":-82.472,"timezone":"America/New_York","areaCode":"352","population":0,"elevation":100,"type":"Standard"},{"zip":"32616","city":"Alachua","state":"Florida","stateCode":"FL","county":"Alachua County","lat":29.792,"lng":-82.496,"timezone":"America/New_York","areaCode":"352","population":0,"elevation":100,"type":"Standard"},{"zip":"32617","city":"Anthony","state":"Florida","stateCode":"FL","county":"Anthony County","lat":29.3048,"lng":-82.1262,"timezone":"America/New_York","areaCode":"352","population":0,"elevation":100,"type":"Standard"},{"zip":"32618","city":"Archer","state":"Florida","stateCode":"FL","county":"Archer County","lat":29.5597,"lng":-82.5108,"timezone":"America/New_York","areaCode":"352","population":0,"elevation":100,"type":"Standard"},{"zip":"32619","city":"Bell","state":"Florida","stateCode":"FL","county":"Bell County","lat":29.7837,"lng":-82.8711,"timezone":"America/New_York","areaCode":"352","population":0,"elevation":100,"type":"Standard"},{"zip":"32621","city":"Bronson","state":"Florida","stateCode":"FL","county":"Bronson County","lat":29.461,"lng":-82.6356,"timezone":"America/New_York","areaCode":"352","population":0,"elevation":100,"type":"Standard"},{"zip":"32622","city":"Brooker","state":"Florida","stateCode":"FL","county":"Brooker County","lat":29.919,"lng":-82.2956,"timezone":"America/New_York","areaCode":"352","population":0,"elevation":100,"type":"Standard"},{"zip":"32625","city":"Cedar Key","state":"Florida","stateCode":"FL","county":"Cedar Key County","lat":29.171,"lng":-83.0168,"timezone":"America/New_York","areaCode":"352","population":0,"elevation":100,"type":"Standard"},{"zip":"32626","city":"Chiefland","state":"Florida","stateCode":"FL","county":"Chiefland County","lat":29.4832,"lng":-82.8809,"timezone":"America/New_York","areaCode":"352","population":0,"elevation":100,"type":"Standard"},{"zip":"32627","city":"Gainesville","state":"Florida","stateCode":"FL","county":"Gainesville County","lat":29.6516,"lng":-82.3248,"timezone":"America/New_York","areaCode":"352","population":0,"elevation":100,"type":"Standard"},{"zip":"32628","city":"Cross City","state":"Florida","stateCode":"FL","county":"Cross City County","lat":29.6372,"lng":-83.2032,"timezone":"America/New_York","areaCode":"352","population":0,"elevation":100,"type":"Standard"},{"zip":"32631","city":"Earleton","state":"Florida","stateCode":"FL","county":"Earleton County","lat":29.7439,"lng":-82.1034,"timezone":"America/New_York","areaCode":"352","population":0,"elevation":100,"type":"Standard"},{"zip":"32633","city":"Evinston","state":"Florida","stateCode":"FL","county":"Evinston County","lat":29.4869,"lng":-82.2312,"timezone":"America/New_York","areaCode":"352","population":0,"elevation":100,"type":"Standard"},{"zip":"32634","city":"Fairfield","state":"Florida","stateCode":"FL","county":"Fairfield County","lat":29.3509,"lng":-82.2765,"timezone":"America/New_York","areaCode":"352","population":0,"elevation":100,"type":"Standard"},{"zip":"32635","city":"Gainesville","state":"Florida","stateCode":"FL","county":"Gainesville County","lat":29.6813,"lng":-82.3539,"timezone":"America/New_York","areaCode":"352","population":0,"elevation":100,"type":"Standard"},{"zip":"32639","city":"Gulf Hammock","state":"Florida","stateCode":"FL","county":"Gulf Hammock County","lat":29.2447,"lng":-82.7402,"timezone":"America/New_York","areaCode":"352","population":0,"elevation":100,"type":"Standard"},{"zip":"32640","city":"Hawthorne","state":"Florida","stateCode":"FL","county":"Hawthorne County","lat":29.574,"lng":-82.1056,"timezone":"America/New_York","areaCode":"352","population":0,"elevation":100,"type":"Standard"},{"zip":"32641","city":"Gainesville","state":"Florida","stateCode":"FL","county":"Gainesville County","lat":29.6824,"lng":-82.2014,"timezone":"America/New_York","areaCode":"352","population":0,"elevation":100,"type":"Standard"},{"zip":"32643","city":"High Springs","state":"Florida","stateCode":"FL","county":"High Springs County","lat":29.841,"lng":-82.6156,"timezone":"America/New_York","areaCode":"352","population":0,"elevation":100,"type":"Standard"},{"zip":"32644","city":"Chiefland","state":"Florida","stateCode":"FL","county":"Chiefland County","lat":29.4602,"lng":-82.8553,"timezone":"America/New_York","areaCode":"352","population":0,"elevation":100,"type":"Standard"},{"zip":"32648","city":"Horseshoe Beach","state":"Florida","stateCode":"FL","county":"Horseshoe Beach County","lat":29.4869,"lng":-83.2616,"timezone":"America/New_York","areaCode":"352","population":0,"elevation":100,"type":"Standard"},{"zip":"32653","city":"Gainesville","state":"Florida","stateCode":"FL","county":"Gainesville County","lat":29.7728,"lng":-82.3782,"timezone":"America/New_York","areaCode":"352","population":0,"elevation":100,"type":"Standard"},{"zip":"32654","city":"Island Grove","state":"Florida","stateCode":"FL","county":"Island Grove County","lat":29.4536,"lng":-82.1065,"timezone":"America/New_York","areaCode":"352","population":0,"elevation":100,"type":"Standard"},{"zip":"32655","city":"High Springs","state":"Florida","stateCode":"FL","county":"High Springs County","lat":29.8175,"lng":-82.6006,"timezone":"America/New_York","areaCode":"352","population":0,"elevation":100,"type":"Standard"},{"zip":"32656","city":"Keystone Heights","state":"Florida","stateCode":"FL","county":"Keystone Heights County","lat":29.7976,"lng":-81.9899,"timezone":"America/New_York","areaCode":"352","population":0,"elevation":100,"type":"Standard"},{"zip":"32658","city":"La Crosse","state":"Florida","stateCode":"FL","county":"La Crosse County","lat":29.8433,"lng":-82.4048,"timezone":"America/New_York","areaCode":"352","population":0,"elevation":100,"type":"Standard"},{"zip":"32662","city":"Lochloosa","state":"Florida","stateCode":"FL","county":"Lochloosa County","lat":29.5116,"lng":-82.1004,"timezone":"America/New_York","areaCode":"352","population":0,"elevation":100,"type":"Standard"},{"zip":"32663","city":"Lowell","state":"Florida","stateCode":"FL","county":"Lowell County","lat":29.3424,"lng":-82.2126,"timezone":"America/New_York","areaCode":"352","population":0,"elevation":100,"type":"Standard"},{"zip":"32664","city":"Mc Intosh","state":"Florida","stateCode":"FL","county":"Mc Intosh County","lat":29.438,"lng":-82.2295,"timezone":"America/New_York","areaCode":"352","population":0,"elevation":100,"type":"Standard"},{"zip":"32666","city":"Melrose","state":"Florida","stateCode":"FL","county":"Melrose County","lat":29.7325,"lng":-82.0279,"timezone":"America/New_York","areaCode":"352","population":0,"elevation":100,"type":"Standard"},{"zip":"32667","city":"Micanopy","state":"Florida","stateCode":"FL","county":"Micanopy County","lat":29.5122,"lng":-82.3053,"timezone":"America/New_York","areaCode":"352","population":0,"elevation":100,"type":"Standard"},{"zip":"32668","city":"Morriston","state":"Florida","stateCode":"FL","county":"Morriston County","lat":29.2813,"lng":-82.4917,"timezone":"America/New_York","areaCode":"352","population":0,"elevation":100,"type":"Standard"},{"zip":"32669","city":"Newberry","state":"Florida","stateCode":"FL","county":"Newberry County","lat":29.6609,"lng":-82.5852,"timezone":"America/New_York","areaCode":"352","population":0,"elevation":100,"type":"Standard"},{"zip":"32680","city":"Old Town","state":"Florida","stateCode":"FL","county":"Old Town County","lat":29.6699,"lng":-83.005,"timezone":"America/New_York","areaCode":"352","population":0,"elevation":100,"type":"Standard"},{"zip":"32681","city":"Orange Lake","state":"Florida","stateCode":"FL","county":"Orange Lake County","lat":29.4236,"lng":-82.2168,"timezone":"America/New_York","areaCode":"352","population":0,"elevation":100,"type":"Standard"},{"zip":"32683","city":"Otter Creek","state":"Florida","stateCode":"FL","county":"Otter Creek County","lat":29.3109,"lng":-82.7945,"timezone":"America/New_York","areaCode":"352","population":0,"elevation":100,"type":"Standard"},{"zip":"32686","city":"Reddick","state":"Florida","stateCode":"FL","county":"Reddick County","lat":29.3754,"lng":-82.244,"timezone":"America/New_York","areaCode":"352","population":0,"elevation":100,"type":"Standard"},{"zip":"32692","city":"Suwannee","state":"Florida","stateCode":"FL","county":"Suwannee County","lat":29.3295,"lng":-83.14,"timezone":"America/New_York","areaCode":"352","population":0,"elevation":100,"type":"Standard"},{"zip":"32693","city":"Trenton","state":"Florida","stateCode":"FL","county":"Trenton County","lat":29.6133,"lng":-82.8176,"timezone":"America/New_York","areaCode":"352","population":0,"elevation":100,"type":"Standard"},{"zip":"32694","city":"Waldo","state":"Florida","stateCode":"FL","county":"Waldo County","lat":29.7871,"lng":-82.1608,"timezone":"America/New_York","areaCode":"352","population":0,"elevation":100,"type":"Standard"},{"zip":"32696","city":"Williston","state":"Florida","stateCode":"FL","county":"Williston County","lat":29.3977,"lng":-82.4856,"timezone":"America/New_York","areaCode":"352","population":0,"elevation":100,"type":"Standard"},{"zip":"32697","city":"Worthington Springs","state":"Florida","stateCode":"FL","county":"Worthington Springs County","lat":29.9315,"lng":-82.4255,"timezone":"America/New_York","areaCode":"352","population":0,"elevation":100,"type":"Standard"},{"zip":"32701","city":"Altamonte Springs","state":"Florida","stateCode":"FL","county":"Altamonte Springs County","lat":28.6666,"lng":-81.365,"timezone":"America/New_York","areaCode":"407","population":0,"elevation":100,"type":"Standard"},{"zip":"32702","city":"Altoona","state":"Florida","stateCode":"FL","county":"Altoona County","lat":29.0219,"lng":-81.6323,"timezone":"America/New_York","areaCode":"407","population":0,"elevation":100,"type":"Standard"},{"zip":"32703","city":"Apopka","state":"Florida","stateCode":"FL","county":"Apopka County","lat":28.6354,"lng":-81.4888,"timezone":"America/New_York","areaCode":"407","population":0,"elevation":100,"type":"Standard"},{"zip":"32704","city":"Apopka","state":"Florida","stateCode":"FL","county":"Apopka County","lat":28.6762,"lng":-81.5119,"timezone":"America/New_York","areaCode":"407","population":0,"elevation":100,"type":"Standard"},{"zip":"32706","city":"Cassadaga","state":"Florida","stateCode":"FL","county":"Cassadaga County","lat":28.9664,"lng":-81.2371,"timezone":"America/New_York","areaCode":"407","population":0,"elevation":100,"type":"Standard"},{"zip":"32707","city":"Casselberry","state":"Florida","stateCode":"FL","county":"Casselberry County","lat":28.6617,"lng":-81.3122,"timezone":"America/New_York","areaCode":"407","population":0,"elevation":100,"type":"Standard"},{"zip":"32708","city":"Winter Springs","state":"Florida","stateCode":"FL","county":"Winter Springs County","lat":28.6831,"lng":-81.2814,"timezone":"America/New_York","areaCode":"407","population":0,"elevation":100,"type":"Standard"},{"zip":"32709","city":"Christmas","state":"Florida","stateCode":"FL","county":"Christmas County","lat":28.5462,"lng":-81.0116,"timezone":"America/New_York","areaCode":"407","population":0,"elevation":100,"type":"Standard"},{"zip":"32710","city":"Clarcona","state":"Florida","stateCode":"FL","county":"Clarcona County","lat":28.6128,"lng":-81.4987,"timezone":"America/New_York","areaCode":"407","population":0,"elevation":100,"type":"Standard"},{"zip":"32712","city":"Apopka","state":"Florida","stateCode":"FL","county":"Apopka County","lat":28.712,"lng":-81.5136,"timezone":"America/New_York","areaCode":"407","population":0,"elevation":100,"type":"Standard"},{"zip":"32713","city":"Debary","state":"Florida","stateCode":"FL","county":"Debary County","lat":28.8846,"lng":-81.3065,"timezone":"America/New_York","areaCode":"407","population":0,"elevation":100,"type":"Standard"},{"zip":"32714","city":"Altamonte Springs","state":"Florida","stateCode":"FL","county":"Altamonte Springs County","lat":28.6625,"lng":-81.4117,"timezone":"America/New_York","areaCode":"407","population":0,"elevation":100,"type":"Standard"},{"zip":"32715","city":"Altamonte Springs","state":"Florida","stateCode":"FL","county":"Altamonte Springs County","lat":28.6611,"lng":-81.3656,"timezone":"America/New_York","areaCode":"407","population":0,"elevation":100,"type":"Standard"},{"zip":"32716","city":"Altamonte Springs","state":"Florida","stateCode":"FL","county":"Altamonte Springs County","lat":28.7448,"lng":-81.2233,"timezone":"America/New_York","areaCode":"407","population":0,"elevation":100,"type":"Standard"},{"zip":"32718","city":"Casselberry","state":"Florida","stateCode":"FL","county":"Casselberry County","lat":28.7448,"lng":-81.2233,"timezone":"America/New_York","areaCode":"407","population":0,"elevation":100,"type":"Standard"},{"zip":"32719","city":"Winter Springs","state":"Florida","stateCode":"FL","county":"Winter Springs County","lat":28.7448,"lng":-81.2233,"timezone":"America/New_York","areaCode":"407","population":0,"elevation":100,"type":"Standard"},{"zip":"32720","city":"Deland","state":"Florida","stateCode":"FL","county":"Deland County","lat":29.0266,"lng":-81.3349,"timezone":"America/New_York","areaCode":"407","population":0,"elevation":100,"type":"Standard"},{"zip":"32721","city":"Deland","state":"Florida","stateCode":"FL","county":"Deland County","lat":28.9973,"lng":-81.2995,"timezone":"America/New_York","areaCode":"407","population":0,"elevation":100,"type":"Standard"},{"zip":"32722","city":"Glenwood","state":"Florida","stateCode":"FL","county":"Glenwood County","lat":29.0861,"lng":-81.3542,"timezone":"America/New_York","areaCode":"407","population":0,"elevation":100,"type":"Standard"},{"zip":"32723","city":"Deland","state":"Florida","stateCode":"FL","county":"Deland County","lat":29.0275,"lng":-81.3068,"timezone":"America/New_York","areaCode":"407","population":0,"elevation":100,"type":"Standard"},{"zip":"32724","city":"Deland","state":"Florida","stateCode":"FL","county":"Deland County","lat":29.0422,"lng":-81.2863,"timezone":"America/New_York","areaCode":"407","population":0,"elevation":100,"type":"Standard"},{"zip":"32725","city":"Deltona","state":"Florida","stateCode":"FL","county":"Deltona County","lat":28.8989,"lng":-81.2473,"timezone":"America/New_York","areaCode":"407","population":0,"elevation":100,"type":"Standard"},{"zip":"32726","city":"Eustis","state":"Florida","stateCode":"FL","county":"Eustis County","lat":28.855,"lng":-81.6789,"timezone":"America/New_York","areaCode":"407","population":0,"elevation":100,"type":"Standard"},{"zip":"32727","city":"Eustis","state":"Florida","stateCode":"FL","county":"Eustis County","lat":28.8555,"lng":-81.6741,"timezone":"America/New_York","areaCode":"407","population":0,"elevation":100,"type":"Standard"},{"zip":"32728","city":"Deltona","state":"Florida","stateCode":"FL","county":"Deltona County","lat":29.0227,"lng":-81.1722,"timezone":"America/New_York","areaCode":"407","population":0,"elevation":100,"type":"Standard"},{"zip":"32730","city":"Casselberry","state":"Florida","stateCode":"FL","county":"Casselberry County","lat":28.6513,"lng":-81.3418,"timezone":"America/New_York","areaCode":"407","population":0,"elevation":100,"type":"Standard"},{"zip":"32732","city":"Geneva","state":"Florida","stateCode":"FL","county":"Geneva County","lat":28.7503,"lng":-81.1114,"timezone":"America/New_York","areaCode":"407","population":0,"elevation":100,"type":"Standard"},{"zip":"32733","city":"Goldenrod","state":"Florida","stateCode":"FL","county":"Goldenrod County","lat":28.6133,"lng":-81.2581,"timezone":"America/New_York","areaCode":"407","population":0,"elevation":100,"type":"Standard"},{"zip":"32735","city":"Grand Island","state":"Florida","stateCode":"FL","county":"Grand Island County","lat":28.8866,"lng":-81.7391,"timezone":"America/New_York","areaCode":"407","population":0,"elevation":100,"type":"Standard"},{"zip":"32736","city":"Eustis","state":"Florida","stateCode":"FL","county":"Eustis County","lat":28.9102,"lng":-81.5235,"timezone":"America/New_York","areaCode":"407","population":0,"elevation":100,"type":"Standard"},{"zip":"32738","city":"Deltona","state":"Florida","stateCode":"FL","county":"Deltona County","lat":28.9093,"lng":-81.1922,"timezone":"America/New_York","areaCode":"407","population":0,"elevation":100,"type":"Standard"},{"zip":"32739","city":"Deltona","state":"Florida","stateCode":"FL","county":"Deltona County","lat":29.0227,"lng":-81.1722,"timezone":"America/New_York","areaCode":"407","population":0,"elevation":100,"type":"Standard"},{"zip":"32744","city":"Lake Helen","state":"Florida","stateCode":"FL","county":"Lake Helen County","lat":28.9806,"lng":-81.2334,"timezone":"America/New_York","areaCode":"407","population":0,"elevation":100,"type":"Standard"},{"zip":"32745","city":"Mid Florida","state":"Florida","stateCode":"FL","county":"Mid Florida County","lat":28.7676,"lng":-81.3522,"timezone":"America/New_York","areaCode":"407","population":0,"elevation":100,"type":"Standard"},{"zip":"32746","city":"Lake Mary","state":"Florida","stateCode":"FL","county":"Lake Mary County","lat":28.7577,"lng":-81.3508,"timezone":"America/New_York","areaCode":"407","population":0,"elevation":100,"type":"Standard"},{"zip":"32747","city":"Lake Monroe","state":"Florida","stateCode":"FL","county":"Lake Monroe County","lat":28.8272,"lng":-81.3329,"timezone":"America/New_York","areaCode":"407","population":0,"elevation":100,"type":"Standard"},