[{"zip":"50001","city":"Ackworth","state":"Iowa","stateCode":"IA","county":"Ackworth County","lat":41.3737,"lng":-93.3767,"timezone":"America/Chicago","areaCode":"515","population":0,"elevation":100,"type":"Standard"},{"zip":"50002","city":"Adair","state":"Iowa","stateCode":"IA","county":"Adair County","lat":41.5137,"lng":-94.6444,"timezone":"America/Chicago","areaCode":"515","population":0,"elevation":100,"type":"Standard"},{"zip":"50003","city":"Adel","state":"Iowa","stateCode":"IA","county":"Adel County","lat":41.6221,"lng":-94.038,"timezone":"America/Chicago","areaCode":"515","population":0,"elevation":100,"type":"Standard"},{"zip":"50005","city":"Albion","state":"Iowa","stateCode":"IA","county":"Albion County","lat":42.1143,"lng":-92.9882,"timezone":"America/Chicago","areaCode":"515","population":0,"elevation":100,"type":"Standard"},{"zip":"50006","city":"Alden","state":"Iowa","stateCode":"IA","county":"Alden County","lat":42.5179,"lng":-93.3841,"timezone":"America/Chicago","areaCode":"515","population":0,"elevation":100,"type":"Standard"},{"zip":"50007","city":"Alleman","state":"Iowa","stateCode":"IA","county":"Alleman County","lat":41.8159,"lng":-93.6063,"timezone":"America/Chicago","areaCode":"515","population":0,"elevation":100,"type":"Standard"},{"zip":"50008","city":"Allerton","state":"Iowa","stateCode":"IA","county":"Allerton County","lat":40.7023,"lng":-93.3724,"timezone":"America/Chicago","areaCode":"515","population":0,"elevation":100,"type":"Standard"},{"zip":"50009","city":"Altoona","state":"Iowa","stateCode":"IA","county":"Altoona County","lat":41.6475,"lng":-93.4724,"timezone":"America/Chicago","areaCode":"515","population":0,"elevation":100,"type":"Standard"},{"zip":"50010","city":"Ames","state":"Iowa","stateCode":"IA","county":"Ames County","lat":42.0379,"lng":-93.6003,"timezone":"America/Chicago","areaCode":"515","population":0,"elevation":100,"type":"Standard"},{"zip":"50011","city":"Ames","state":"Iowa","stateCode":"IA","county":"Ames County","lat":42.036,"lng":-93.4652,"timezone":"America/Chicago","areaCode":"515","population":0,"elevation":100,"type":"Standard"},{"zip":"50012","city":"Ames","state":"Iowa","stateCode":"IA","county":"Ames County","lat":42.0236,"lng":-93.6485,"timezone":"America/Chicago","areaCode":"515","population":0,"elevation":100,"type":"Standard"},{"zip":"50013","city":"Ames","state":"Iowa","stateCode":"IA","county":"Ames County","lat":42.0235,"lng":-93.6408,"timezone":"America/Chicago","areaCode":"515","population":0,"elevation":100,"type":"Standard"},{"zip":"50014","city":"Ames","state":"Iowa","stateCode":"IA","county":"Ames County","lat":42.0486,"lng":-93.6945,"timezone":"America/Chicago","areaCode":"515","population":0,"elevation":100,"type":"Standard"},{"zip":"50020","city":"Anita","state":"Iowa","stateCode":"IA","county":"Anita County","lat":41.45,"lng":-94.7794,"timezone":"America/Chicago","areaCode":"515","population":0,"elevation":100,"type":"Standard"},{"zip":"50021","city":"Ankeny","state":"Iowa","stateCode":"IA","county":"Ankeny County","lat":41.7212,"lng":-93.5682,"timezone":"America/Chicago","areaCode":"515","population":0,"elevation":100,"type":"Standard"},{"zip":"50022","city":"Atlantic","state":"Iowa","stateCode":"IA","county":"Atlantic County","lat":41.4003,"lng":-95.0101,"timezone":"America/Chicago","areaCode":"515","population":0,"elevation":600,"type":"Standard"},{"zip":"50023","city":"Ankeny","state":"Iowa","stateCode":"IA","county":"Ankeny County","lat":41.7194,"lng":-93.6266,"timezone":"America/Chicago","areaCode":"515","population":0,"elevation":100,"type":"Standard"},{"zip":"50025","city":"Audubon","state":"Iowa","stateCode":"IA","county":"Audubon County","lat":41.73,"lng":-94.9164,"timezone":"America/Chicago","areaCode":"515","population":0,"elevation":100,"type":"Standard"},{"zip":"50026","city":"Bagley","state":"Iowa","stateCode":"IA","county":"Bagley County","lat":41.8341,"lng":-94.4415,"timezone":"America/Chicago","areaCode":"515","population":0,"elevation":100,"type":"Standard"},{"zip":"50027","city":"Barnes City","state":"Iowa","stateCode":"IA","county":"Barnes City County","lat":41.4883,"lng":-92.4703,"timezone":"America/Chicago","areaCode":"515","population":0,"elevation":100,"type":"Standard"},{"zip":"50028","city":"Baxter","state":"Iowa","stateCode":"IA","county":"Baxter County","lat":41.8204,"lng":-93.1583,"timezone":"America/Chicago","areaCode":"515","population":0,"elevation":100,"type":"Standard"},{"zip":"50029","city":"Bayard","state":"Iowa","stateCode":"IA","county":"Bayard County","lat":41.8519,"lng":-94.5583,"timezone":"America/Chicago","areaCode":"515","population":0,"elevation":100,"type":"Standard"},{"zip":"50031","city":"Beaver","state":"Iowa","stateCode":"IA","county":"Beaver County","lat":42.0387,"lng":-94.1436,"timezone":"America/Chicago","areaCode":"515","population":0,"elevation":100,"type":"Standard"},{"zip":"50032","city":"Berwick","state":"Iowa","stateCode":"IA","county":"Berwick County","lat":41.6658,"lng":-93.5432,"timezone":"America/Chicago","areaCode":"515","population":0,"elevation":100,"type":"Standard"},{"zip":"50033","city":"Bevington","state":"Iowa","stateCode":"IA","county":"Bevington County","lat":41.363,"lng":-93.7928,"timezone":"America/Chicago","areaCode":"515","population":0,"elevation":100,"type":"Standard"},{"zip":"50034","city":"Blairsburg","state":"Iowa","stateCode":"IA","county":"Blairsburg County","lat":42.4937,"lng":-93.6594,"timezone":"America/Chicago","areaCode":"515","population":0,"elevation":100,"type":"Standard"},{"zip":"50035","city":"Bondurant","state":"Iowa","stateCode":"IA","county":"Bondurant County","lat":41.7017,"lng":-93.4527,"timezone":"America/Chicago","areaCode":"515","population":0,"elevation":100,"type":"Standard"},{"zip":"50036","city":"Boone","state":"Iowa","stateCode":"IA","county":"Boone County","lat":42.0694,"lng":-93.8781,"timezone":"America/Chicago","areaCode":"515","population":0,"elevation":100,"type":"Standard"},{"zip":"50037","city":"Boone","state":"Iowa","stateCode":"IA","county":"Boone County","lat":42.0597,"lng":-93.8802,"timezone":"America/Chicago","areaCode":"515","population":0,"elevation":100,"type":"Standard"},{"zip":"50038","city":"Booneville","state":"Iowa","stateCode":"IA","county":"Booneville County","lat":41.5242,"lng":-93.8838,"timezone":"America/Chicago","areaCode":"515","population":0,"elevation":100,"type":"Standard"},{"zip":"50039","city":"Bouton","state":"Iowa","stateCode":"IA","county":"Bouton County","lat":41.8284,"lng":-93.9963,"timezone":"America/Chicago","areaCode":"515","population":0,"elevation":100,"type":"Standard"},{"zip":"50040","city":"Boxholm","state":"Iowa","stateCode":"IA","county":"Boxholm County","lat":42.1706,"lng":-94.1052,"timezone":"America/Chicago","areaCode":"515","population":0,"elevation":100,"type":"Standard"},{"zip":"50041","city":"Bradford","state":"Iowa","stateCode":"IA","county":"Bradford County","lat":42.633,"lng":-93.2449,"timezone":"America/Chicago","areaCode":"515","population":0,"elevation":100,"type":"Standard"},{"zip":"50042","city":"Brayton","state":"Iowa","stateCode":"IA","county":"Brayton County","lat":41.5524,"lng":-94.974,"timezone":"America/Chicago","areaCode":"515","population":0,"elevation":100,"type":"Standard"},{"zip":"50043","city":"Buckeye","state":"Iowa","stateCode":"IA","county":"Buckeye County","lat":42.4179,"lng":-93.3755,"timezone":"America/Chicago","areaCode":"515","population":0,"elevation":100,"type":"Standard"},{"zip":"50044","city":"Bussey","state":"Iowa","stateCode":"IA","county":"Bussey County","lat":41.2094,"lng":-92.8963,"timezone":"America/Chicago","areaCode":"515","population":0,"elevation":100,"type":"Standard"},{"zip":"50046","city":"Cambridge","state":"Iowa","stateCode":"IA","county":"Cambridge County","lat":41.9025,"lng":-93.5305,"timezone":"America/Chicago","areaCode":"515","population":0,"elevation":100,"type":"Standard"},{"zip":"50047","city":"Carlisle","state":"Iowa","stateCode":"IA","county":"Carlisle County","lat":41.4814,"lng":-93.4921,"timezone":"America/Chicago","areaCode":"515","population":0,"elevation":100,"type":"Standard"},{"zip":"50048","city":"Casey","state":"Iowa","stateCode":"IA","county":"Casey County","lat":41.505,"lng":-94.5194,"timezone":"America/Chicago","areaCode":"515","population":0,"elevation":100,"type":"Standard"},{"zip":"50049","city":"Chariton","state":"Iowa","stateCode":"IA","county":"Chariton County","lat":41.0226,"lng":-93.3042,"timezone":"America/Chicago","areaCode":"515","population":0,"elevation":100,"type":"Standard"},{"zip":"50050","city":"Churdan","state":"Iowa","stateCode":"IA","county":"Churdan County","lat":42.1614,"lng":-94.4933,"timezone":"America/Chicago","areaCode":"515","population":0,"elevation":100,"type":"Standard"},{"zip":"50051","city":"Clemons","state":"Iowa","stateCode":"IA","county":"Clemons County","lat":42.09,"lng":-93.1688,"timezone":"America/Chicago","areaCode":"515","population":0,"elevation":100,"type":"Standard"},{"zip":"50052","city":"Clio","state":"Iowa","stateCode":"IA","county":"Clio County","lat":40.6342,"lng":-93.448,"timezone":"America/Chicago","areaCode":"515","population":0,"elevation":100,"type":"Standard"},{"zip":"50054","city":"Colfax","state":"Iowa","stateCode":"IA","county":"Colfax County","lat":41.6788,"lng":-93.2588,"timezone":"America/Chicago","areaCode":"515","population":0,"elevation":100,"type":"Standard"},{"zip":"50055","city":"Collins","state":"Iowa","stateCode":"IA","county":"Collins County","lat":41.9032,"lng":-93.3008,"timezone":"America/Chicago","areaCode":"515","population":0,"elevation":100,"type":"Standard"},{"zip":"50056","city":"Colo","state":"Iowa","stateCode":"IA","county":"Colo County","lat":42.0131,"lng":-93.3071,"timezone":"America/Chicago","areaCode":"515","population":0,"elevation":100,"type":"Standard"},{"zip":"50057","city":"Columbia","state":"Iowa","stateCode":"IA","county":"Richland County","lat":41.1838,"lng":-93.1582,"timezone":"America/Chicago","areaCode":"515","population":0,"elevation":100,"type":"Standard"},{"zip":"50058","city":"Coon Rapids","state":"Iowa","stateCode":"IA","county":"Coon Rapids County","lat":41.894,"lng":-94.68,"timezone":"America/Chicago","areaCode":"515","population":0,"elevation":100,"type":"Standard"},{"zip":"50059","city":"Cooper","state":"Iowa","stateCode":"IA","county":"Cooper County","lat":42.0363,"lng":-94.397,"timezone":"America/Chicago","areaCode":"515","population":0,"elevation":100,"type":"Standard"},{"zip":"50060","city":"Corydon","state":"Iowa","stateCode":"IA","county":"Corydon County","lat":40.7771,"lng":-93.3274,"timezone":"America/Chicago","areaCode":"515","population":0,"elevation":100,"type":"Standard"},{"zip":"50061","city":"Cumming","state":"Iowa","stateCode":"IA","county":"Cumming County","lat":41.4849,"lng":-93.7539,"timezone":"America/Chicago","areaCode":"515","population":0,"elevation":100,"type":"Standard"},{"zip":"50062","city":"Melcher-dallas","state":"Iowa","stateCode":"IA","county":"Melcher-dallas County","lat":41.225,"lng":-93.2413,"timezone":"America/Chicago","areaCode":"515","population":0,"elevation":100,"type":"Standard"},{"zip":"50063","city":"Dallas Center","state":"Iowa","stateCode":"IA","county":"Dallas Center County","lat":41.6862,"lng":-93.9707,"timezone":"America/Chicago","areaCode":"515","population":0,"elevation":100,"type":"Standard"},{"zip":"50064","city":"Dana","state":"Iowa","stateCode":"IA","county":"Dana County","lat":42.1075,"lng":-94.2408,"timezone":"America/Chicago","areaCode":"515","population":0,"elevation":100,"type":"Standard"},{"zip":"50065","city":"Davis City","state":"Iowa","stateCode":"IA","county":"Davis City County","lat":40.6346,"lng":-93.8105,"timezone":"America/Chicago","areaCode":"515","population":0,"elevation":100,"type":"Standard"},{"zip":"50066","city":"Dawson","state":"Iowa","stateCode":"IA","county":"Dawson County","lat":41.8324,"lng":-94.2171,"timezone":"America/Chicago","areaCode":"515","population":0,"elevation":100,"type":"Standard"},{"zip":"50067","city":"Decatur","state":"Iowa","stateCode":"IA","county":"Decatur County","lat":40.743,"lng":-93.8317,"timezone":"America/Chicago","areaCode":"515","population":0,"elevation":100,"type":"Standard"},{"zip":"50068","city":"Derby","state":"Iowa","stateCode":"IA","county":"Derby County","lat":40.9355,"lng":-93.4796,"timezone":"America/Chicago","areaCode":"515","population":0,"elevation":100,"type":"Standard"},{"zip":"50069","city":"De Soto","state":"Iowa","stateCode":"IA","county":"De Soto County","lat":41.5208,"lng":-94.0303,"timezone":"America/Chicago","areaCode":"515","population":0,"elevation":100,"type":"Standard"},{"zip":"50070","city":"Dexter","state":"Iowa","stateCode":"IA","county":"Dexter County","lat":41.5198,"lng":-94.2145,"timezone":"America/Chicago","areaCode":"515","population":0,"elevation":100,"type":"Standard"},{"zip":"50071","city":"Dows","state":"Iowa","stateCode":"IA","county":"Dows County","lat":42.661,"lng":-93.5058,"timezone":"America/Chicago","areaCode":"515","population":0,"elevation":100,"type":"Standard"},{"zip":"50072","city":"Earlham","state":"Iowa","stateCode":"IA","county":"Earlham County","lat":41.4709,"lng":-94.1294,"timezone":"America/Chicago","areaCode":"515","population":0,"elevation":100,"type":"Standard"},{"zip":"50073","city":"Elkhart","state":"Iowa","stateCode":"IA","county":"Elkhart County","lat":41.7917,"lng":-93.5222,"timezone":"America/Chicago","areaCode":"515","population":0,"elevation":100,"type":"Standard"},{"zip":"50074","city":"Ellston","state":"Iowa","stateCode":"IA","county":"Ellston County","lat":40.8505,"lng":-94.0841,"timezone":"America/Chicago","areaCode":"515","population":0,"elevation":100,"type":"Standard"},{"zip":"50075","city":"Ellsworth","state":"Iowa","stateCode":"IA","county":"Ellsworth County","lat":42.3009,"lng":-93.549,"timezone":"America/Chicago","areaCode":"515","population":0,"elevation":100,"type":"Standard"},{"zip":"50076","city":"Exira","state":"Iowa","stateCode":"IA","county":"Exira County","lat":41.5768,"lng":-94.8571,"timezone":"America/Chicago","areaCode":"515","population":0,"elevation":100,"type":"Standard"},{"zip":"50078","city":"Ferguson","state":"Iowa","stateCode":"IA","county":"Ferguson County","lat":41.9374,"lng":-92.865,"timezone":"America/Chicago","areaCode":"515","population":0,"elevation":100,"type":"Standard"},{"zip":"50099","city":"Boone","state":"Iowa","stateCode":"IA","county":"Boone County","lat":42.0597,"lng":-93.8802,"timezone":"America/Chicago","areaCode":"515","population":0,"elevation":100,"type":"Standard"},{"zip":"50101","city":"Galt","state":"Iowa","stateCode":"IA","county":"Galt County","lat":42.6912,"lng":-93.6035,"timezone":"America/Chicago","areaCode":"515","population":0,"elevation":100,"type":"Standard"},{"zip":"50102","city":"Garden City","state":"Iowa","stateCode":"IA","county":"Garden City County","lat":42.2455,"lng":-93.3955,"timezone":"America/Chicago","areaCode":"515","population":0,"elevation":100,"type":"Standard"},{"zip":"50103","city":"Garden Grove","state":"Iowa","stateCode":"IA","county":"Garden Grove County","lat":40.7711,"lng":-93.6117,"timezone":"America/Chicago","areaCode":"515","population":0,"elevation":100,"type":"Standard"},{"zip":"50104","city":"Gibson","state":"Iowa","stateCode":"IA","county":"Gibson County","lat":41.4868,"lng":-92.3867,"timezone":"America/Chicago","areaCode":"515","population":0,"elevation":100,"type":"Standard"},{"zip":"50105","city":"Gilbert","state":"Iowa","stateCode":"IA","county":"Gilbert County","lat":42.1148,"lng":-93.6399,"timezone":"America/Chicago","areaCode":"515","population":0,"elevation":100,"type":"Standard"},{"zip":"50106","city":"Gilman","state":"Iowa","stateCode":"IA","county":"Gilman County","lat":41.9012,"lng":-92.8101,"timezone":"America/Chicago","areaCode":"515","population":0,"elevation":100,"type":"Standard"},{"zip":"50107","city":"Grand Junction","state":"Iowa","stateCode":"IA","county":"Grand Junction County","lat":42.0296,"lng":-94.2336,"timezone":"America/Chicago","areaCode":"515","population":0,"elevation":100,"type":"Standard"},{"zip":"50108","city":"Grand River","state":"Iowa","stateCode":"IA","county":"Grand River County","lat":40.8137,"lng":-93.9544,"timezone":"America/Chicago","areaCode":"515","population":0,"elevation":100,"type":"Standard"},{"zip":"50109","city":"Granger","state":"Iowa","stateCode":"IA","county":"Granger County","lat":41.7611,"lng":-93.8244,"timezone":"America/Chicago","areaCode":"515","population":0,"elevation":100,"type":"Standard"},{"zip":"50110","city":"Gray","state":"Iowa","stateCode":"IA","county":"Gray County","lat":41.8401,"lng":-94.9812,"timezone":"America/Chicago","areaCode":"515","population":0,"elevation":100,"type":"Standard"},{"zip":"50111","city":"Grimes","state":"Iowa","stateCode":"IA","county":"Grimes County","lat":41.7018,"lng":-93.7821,"timezone":"America/Chicago","areaCode":"515","population":0,"elevation":100,"type":"Standard"},{"zip":"50112","city":"Grinnell","state":"Iowa","stateCode":"IA","county":"Grinnell County","lat":41.7421,"lng":-92.7344,"timezone":"America/Chicago","areaCode":"515","population":0,"elevation":100,"type":"Standard"},{"zip":"50115","city":"Guthrie Center","state":"Iowa","stateCode":"IA","county":"Guthrie Center County","lat":41.6837,"lng":-94.4864,"timezone":"America/Chicago","areaCode":"515","population":0,"elevation":100,"type":"Standard"},{"zip":"50116","city":"Hamilton","state":"Iowa","stateCode":"IA","county":"Hamilton County","lat":41.19,"lng":-92.959,"timezone":"America/Chicago","areaCode":"515","population":0,"elevation":100,"type":"Standard"},{"zip":"50117","city":"Hamlin","state":"Iowa","stateCode":"IA","county":"Hamlin County","lat":41.6506,"lng":-94.9157,"timezone":"America/Chicago","areaCode":"515","population":0,"elevation":100,"type":"Standard"},{"zip":"50118","city":"Hartford","state":"Iowa","stateCode":"IA","county":"Hartford County","lat":41.4596,"lng":-93.4022,"timezone":"America/Chicago","areaCode":"515","population":0,"elevation":100,"type":"Standard"},{"zip":"50119","city":"Harvey","state":"Iowa","stateCode":"IA","county":"Harvey County","lat":41.303,"lng":-92.9318,"timezone":"America/Chicago","areaCode":"515","population":0,"elevation":100,"type":"Standard"},{"zip":"50120","city":"Haverhill","state":"Iowa","stateCode":"IA","county":"Haverhill County","lat":41.9337,"lng":-92.9829,"timezone":"America/Chicago","areaCode":"515","population":0,"elevation":100,"type":"Standard"},{"zip":"50122","city":"Hubbard","state":"Iowa","stateCode":"IA","county":"Hubbard County","lat":42.3022,"lng":-93.2939,"timezone":"America/Chicago","areaCode":"515","population":0,"elevation":100,"type":"Standard"},{"zip":"50123","city":"Humeston","state":"Iowa","stateCode":"IA","county":"Humeston County","lat":40.8469,"lng":-93.5101,"timezone":"America/Chicago","areaCode":"515","population":0,"elevation":100,"type":"Standard"},{"zip":"50124","city":"Huxley","state":"Iowa","stateCode":"IA","county":"Huxley County","lat":41.8994,"lng":-93.6024,"timezone":"America/Chicago","areaCode":"515","population":0,"elevation":100,"type":"Standard"},{"zip":"50125","city":"Indianola","state":"Iowa","stateCode":"IA","county":"Indianola County","lat":41.3143,"lng":-93.588,"timezone":"America/Chicago","areaCode":"515","population":0,"elevation":100,"type":"Standard"},{"zip":"50126","city":"Iowa Falls","state":"Iowa","stateCode":"IA","county":"Iowa Falls County","lat":42.5138,"lng":-93.2709,"timezone":"America/Chicago","areaCode":"515","population":0,"elevation":100,"type":"Standard"},{"zip":"50127","city":"Ira","state":"Iowa","stateCode":"IA","county":"Ira County","lat":41.7771,"lng":-93.2058,"timezone":"America/Chicago","areaCode":"515","population":0,"elevation":100,"type":"Standard"},{"zip":"50128","city":"Jamaica","state":"Iowa","stateCode":"IA","county":"Jamaica County","lat":41.8419,"lng":-94.3204,"timezone":"America/Chicago","areaCode":"515","population":0,"elevation":100,"type":"Standard"},{"zip":"50129","city":"Jefferson","state":"Iowa","stateCode":"IA","county":"Jefferson County","lat":42.0093,"lng":-94.3888,"timezone":"America/Chicago","areaCode":"515","population":0,"elevation":100,"type":"Standard"},{"zip":"50130","city":"Jewell","state":"Iowa","stateCode":"IA","county":"Jewell County","lat":42.3139,"lng":-93.6428,"timezone":"America/Chicago","areaCode":"515","population":0,"elevation":100,"type":"Standard"},{"zip":"50131","city":"Johnston","state":"Iowa","stateCode":"IA","county":"Johnston County","lat":41.673,"lng":-93.7028,"timezone":"America/Chicago","areaCode":"515","population":0,"elevation":100,"type":"Standard"},{"zip":"50132","city":"Kamrar","state":"Iowa","stateCode":"IA","county":"Kamrar County","lat":42.3945,"lng":-93.7279,"timezone":"America/Chicago","areaCode":"515","population":0,"elevation":100,"type":"Standard"},{"zip":"50133","city":"Kellerton","state":"Iowa","stateCode":"IA","county":"Kellerton County","lat":40.6861,"lng":-94.0607,"timezone":"America/Chicago","areaCode":"515","population":0,"elevation":100,"type":"Standard"},{"zip":"50134","city":"Kelley","state":"Iowa","stateCode":"IA","county":"Kelley County","lat":41.9488,"lng":-93.6644,"timezone":"America/Chicago","areaCode":"515","population":0,"elevation":100,"type":"Standard"},{"zip":"50135","city":"Kellogg","state":"Iowa","stateCode":"IA","county":"Kellogg County","lat":41.7184,"lng":-92.9114,"timezone":"America/Chicago","areaCode":"515","population":0,"elevation":100,"type":"Standard"},{"zip":"50136","city":"Keswick","state":"Iowa","stateCode":"IA","county":"Keswick County","lat":41.4613,"lng":-92.2395,"timezone":"America/Chicago","areaCode":"515","population":0,"elevation":100,"type":"Standard"},{"zip":"50137","city":"Killduff","state":"Iowa","stateCode":"IA","county":"Killduff County","lat":41.608,"lng":-92.9046,"timezone":"America/Chicago","areaCode":"515","population":0,"elevation":100,"type":"Standard"},{"zip":"50138","city":"Knoxville","state":"Iowa","stateCode":"IA","county":"Knoxville County","lat":41.3164,"lng":-93.0954,"timezone":"America/Chicago","areaCode":"515","population":0,"elevation":100,"type":"Standard"},{"zip":"50139","city":"Lacona","state":"Iowa","stateCode":"IA","county":"Lacona County","lat":41.1988,"lng":-93.3838,"timezone":"America/Chicago","areaCode":"515","population":0,"elevation":100,"type":"Standard"},{"zip":"50140","city":"Lamoni","state":"Iowa","stateCode":"IA","county":"Lamoni County","lat":40.6229,"lng":-93.9349,"timezone":"America/Chicago","areaCode":"515","population":0,"elevation":100,"type":"Standard"},{"zip":"50141","city":"Laurel","state":"Iowa","stateCode":"IA","county":"Laurel County","lat":41.8829,"lng":-92.9263,"timezone":"America/Chicago","areaCode":"515","population":0,"elevation":100,"type":"Standard"},{"zip":"50142","city":"Le Grand","state":"Iowa","stateCode":"IA","county":"Le Grand County","lat":42.0066,"lng":-92.7756,"timezone":"America/Chicago","areaCode":"515","population":0,"elevation":100,"type":"Standard"},{"zip":"50143","city":"Leighton","state":"Iowa","stateCode":"IA","county":"Leighton County","lat":41.3647,"lng":-92.8081,"timezone":"America/Chicago","areaCode":"515","population":0,"elevation":100,"type":"Standard"},{"zip":"50144","city":"Leon","state":"Iowa","stateCode":"IA","county":"Leon County","lat":40.7373,"lng":-93.7429,"timezone":"America/Chicago","areaCode":"515","population":0,"elevation":100,"type":"Standard"},{"zip":"50145","city":"Liberty Center","state":"Iowa","stateCode":"IA","county":"Liberty Center County","lat":41.2071,"lng":-93.4993,"timezone":"America/Chicago","areaCode":"515","population":0,"elevation":100,"type":"Standard"},{"zip":"50146","city":"Linden","state":"Iowa","stateCode":"IA","county":"Linden County","lat":41.6422,"lng":-94.2406,"timezone":"America/Chicago","areaCode":"515","population":0,"elevation":100,"type":"Standard"},{"zip":"50147","city":"Lineville","state":"Iowa","stateCode":"IA","county":"Lineville County","lat":40.6004,"lng":-93.4862,"timezone":"America/Chicago","areaCode":"515","population":0,"elevation":100,"type":"Standard"},{"zip":"50148","city":"Liscomb","state":"Iowa","stateCode":"IA","county":"Liscomb County","lat":42.184,"lng":-92.9833,"timezone":"America/Chicago","areaCode":"515","population":0,"elevation":100,"type":"Standard"},{"zip":"50149","city":"Lorimor","state":"Iowa","stateCode":"IA","county":"Lorimor County","lat":41.1233,"lng":-94.0639,"timezone":"America/Chicago","areaCode":"515","population":0,"elevation":100,"type":"Standard"},{"zip":"50150","city":"Lovilia","state":"Iowa","stateCode":"IA","county":"Lovilia County","lat":41.1272,"lng":-92.9293,"timezone":"America/Chicago","areaCode":"515","population":0,"elevation":100,"type":"Standard"},{"zip":"50151","city":"Lucas","state":"Iowa","stateCode":"IA","county":"Lucas County","lat":41.0585,"lng":-93.4836,"timezone":"America/Chicago","areaCode":"515","population":0,"elevation":100,"type":"Standard"},{"zip":"50152","city":"Luther","state":"Iowa","stateCode":"IA","county":"Luther County","lat":41.9387,"lng":-93.8371,"timezone":"America/Chicago","areaCode":"515","population":0,"elevation":100,"type":"Standard"},{"zip":"50153","city":"Lynnville","state":"Iowa","stateCode":"IA","county":"Lynnville County","lat":41.5698,"lng":-92.7877,"timezone":"America/Chicago","areaCode":"515","population":0,"elevation":100,"type":"Standard"},{"zip":"50154","city":"Mc Callsburg","state":"Iowa","stateCode":"IA","county":"Mc Callsburg County","lat":42.1665,"lng":-93.3978,"timezone":"America/Chicago","areaCode":"515","population":0,"elevation":100,"type":"Standard"},{"zip":"50155","city":"Macksburg","state":"Iowa","stateCode":"IA","county":"Macksburg County","lat":41.2104,"lng":-94.1825,"timezone":"America/Chicago","areaCode":"515","population":0,"elevation":100,"type":"Standard"},{"zip":"50156","city":"Madrid","state":"Iowa","stateCode":"IA","county":"Madrid County","lat":41.8841,"lng":-93.8448,"timezone":"America/Chicago","areaCode":"515","population":0,"elevation":100,"type":"Standard"},{"zip":"50157","city":"Malcom","state":"Iowa","stateCode":"IA","county":"Malcom County","lat":41.7695,"lng":-92.5354,"timezone":"America/Chicago","areaCode":"515","population":0,"elevation":100,"type":"Standard"},{"zip":"50158","city":"Marshalltown","state":"Iowa","stateCode":"IA","county":"Marshalltown County","lat":42.0405,"lng":-92.9127,"timezone":"America/Chicago","areaCode":"515","population":0,"elevation":100,"type":"Standard"},{"zip":"50160","city":"Martensdale","state":"Iowa","stateCode":"IA","county":"Martensdale County","lat":41.373,"lng":-93.7358,"timezone":"America/Chicago","areaCode":"515","population":0,"elevation":100,"type":"Standard"},{"zip":"50161","city":"Maxwell","state":"Iowa","stateCode":"IA","county":"Maxwell County","lat":41.8967,"lng":-93.4001,"timezone":"America/Chicago","areaCode":"515","population":0,"elevation":100,"type":"Standard"},{"zip":"50162","city":"Melbourne","state":"Iowa","stateCode":"IA","county":"Melbourne County","lat":41.9323,"lng":-93.0856,"timezone":"America/Chicago","areaCode":"515","population":0,"elevation":100,"type":"Standard"},{"zip":"50163","city":"Melcher-dallas","state":"Iowa","stateCode":"IA","county":"Melcher-dallas County","lat":41.225,"lng":-93.2413,"timezone":"America/Chicago","areaCode":"515","population":0,"elevation":100,"type":"Standard"},{"zip":"50164","city":"Menlo","state":"Iowa","stateCode":"IA","county":"Menlo County","lat":41.5348,"lng":-94.409,"timezone":"America/Chicago","areaCode":"515","population":0,"elevation":100,"type":"Standard"},{"zip":"50165","city":"Millerton","state":"Iowa","stateCode":"IA","county":"Millerton County","lat":40.8494,"lng":-93.3055,"timezone":"America/Chicago","areaCode":"515","population":0,"elevation":100,"type":"Standard"},{"zip":"50166","city":"Milo","state":"Iowa","stateCode":"IA","county":"Milo County","lat":41.2904,"lng":-93.4454,"timezone":"America/Chicago","areaCode":"515","population":0,"elevation":100,"type":"Standard"},{"zip":"50167","city":"Minburn","state":"Iowa","stateCode":"IA","county":"Minburn County","lat":41.7562,"lng":-94.015,"timezone":"America/Chicago","areaCode":"515","population":0,"elevation":100,"type":"Standard"},{"zip":"50168","city":"Mingo","state":"Iowa","stateCode":"IA","county":"Mingo County","lat":41.7898,"lng":-93.288,"timezone":"America/Chicago","areaCode":"515","population":0,"elevation":100,"type":"Standard"},{"zip":"50169","city":"Mitchellville","state":"Iowa","stateCode":"IA","county":"Mitchellville County","lat":41.6609,"lng":-93.37,"timezone":"America/Chicago","areaCode":"515","population":0,"elevation":100,"type":"Standard"},{"zip":"50170","city":"Monroe","state":"Iowa","stateCode":"IA","county":"Monroe County","lat":41.5222,"lng":-93.1019,"timezone":"America/Chicago","areaCode":"515","population":0,"elevation":100,"type":"Standard"},{"zip":"50171","city":"Montezuma","state":"Iowa","stateCode":"IA","county":"Montezuma County","lat":41.5928,"lng":-92.5276,"timezone":"America/Chicago","areaCode":"515","population":0,"elevation":100,"type":"Standard"},{"zip":"50173","city":"Montour","state":"Iowa","stateCode":"IA","county":"Montour County","lat":41.9709,"lng":-92.7006,"timezone":"America/Chicago","areaCode":"515","population":0,"elevation":100,"type":"Standard"},{"zip":"50174","city":"Murray","state":"Iowa","stateCode":"IA","county":"Murray County","lat":41.0376,"lng":-93.953,"timezone":"America/Chicago","areaCode":"515","population":0,"elevation":100,"type":"Standard"},{"zip":"50201","city":"Nevada","state":"Iowa","stateCode":"IA","county":"Nevada County","lat":42.019,"lng":-93.4462,"timezone":"America/Chicago","areaCode":"319","population":0,"elevation":100,"type":"Standard"},{"zip":"50206","city":"New Providence","state":"Iowa","stateCode":"IA","county":"New Providence County","lat":42.2693,"lng":-93.1753,"timezone":"America/Chicago","areaCode":"319","population":0,"elevation":100,"type":"Standard"},{"zip":"50207","city":"New Sharon","state":"Iowa","stateCode":"IA","county":"New Sharon County","lat":41.464,"lng":-92.6848,"timezone":"America/Chicago","areaCode":"319","population":0,"elevation":100,"type":"Standard"},{"zip":"50208","city":"Newton","state":"Iowa","stateCode":"IA","county":"Newton County","lat":41.6992,"lng":-93.0455,"timezone":"America/Chicago","areaCode":"319","population":0,"elevation":100,"type":"Standard"},{"zip":"50210","city":"New Virginia","state":"Iowa","stateCode":"IA","county":"New Virginia County","lat":41.1883,"lng":-93.6976,"timezone":"America/Chicago","areaCode":"319","population":0,"elevation":100,"type":"Standard"},{"zip":"50211","city":"Norwalk","state":"Iowa","stateCode":"IA","county":"Norwalk County","lat":41.4861,"lng":-93.6573,"timezone":"America/Chicago","areaCode":"319","population":0,"elevation":100,"type":"Standard"},{"zip":"50212","city":"Ogden","state":"Iowa","stateCode":"IA","county":"Ogden County","lat":42.0351,"lng":-94.0063,"timezone":"America/Chicago","areaCode":"319","population":0,"elevation":100,"type":"Standard"},{"zip":"50213","city":"Osceola","state":"Iowa","stateCode":"IA","county":"Osceola County","lat":41.0295,"lng":-93.7712,"timezone":"America/Chicago","areaCode":"319","population":0,"elevation":100,"type":"Standard"},{"zip":"50214","city":"Otley","state":"Iowa","stateCode":"IA","county":"Otley County","lat":41.4518,"lng":-93.0348,"timezone":"America/Chicago","areaCode":"319","population":0,"elevation":100,"type":"Standard"},{"zip":"50216","city":"Panora","state":"Iowa","stateCode":"IA","county":"Panora County","lat":41.6967,"lng":-94.3606,"timezone":"America/Chicago","areaCode":"319","population":0,"elevation":100,"type":"Standard"},{"zip":"50217","city":"Paton","state":"Iowa","stateCode":"IA","county":"Paton County","lat":42.1658,"lng":-94.273,"timezone":"America/Chicago","areaCode":"319","population":0,"elevation":100,"type":"Standard"},{"zip":"50218","city":"Patterson","state":"Iowa","stateCode":"IA","county":"Patterson County","lat":41.3499,"lng":-93.8803,"timezone":"America/Chicago","areaCode":"319","population":0,"elevation":100,"type":"Standard"},{"zip":"50219","city":"Pella","state":"Iowa","stateCode":"IA","county":"Pella County","lat":41.4082,"lng":-92.9172,"timezone":"America/Chicago","areaCode":"319","population":0,"elevation":100,"type":"Standard"},{"zip":"50220","city":"Perry","state":"Iowa","stateCode":"IA","county":"Perry County","lat":41.8397,"lng":-94.1022,"timezone":"America/Chicago","areaCode":"319","population":0,"elevation":100,"type":"Standard"},{"zip":"50222","city":"Peru","state":"Iowa","stateCode":"IA","county":"Peru County","lat":41.2145,"lng":-93.9437,"timezone":"America/Chicago","areaCode":"319","population":0,"elevation":100,"type":"Standard"},{"zip":"50223","city":"Pilot Mound","state":"Iowa","stateCode":"IA","county":"Pilot Mound County","lat":42.1604,"lng":-94.0102,"timezone":"America/Chicago","areaCode":"319","population":0,"elevation":100,"type":"Standard"},{"zip":"50225","city":"Pleasantville","state":"Iowa","stateCode":"IA","county":"Pleasantville County","lat":41.3738,"lng":-93.2712,"timezone":"America/Chicago","areaCode":"319","population":0,"elevation":100,"type":"Standard"},{"zip":"50226","city":"Polk City","state":"Iowa","stateCode":"IA","county":"Polk City County","lat":41.7549,"lng":-93.6893,"timezone":"America/Chicago","areaCode":"319","population":0,"elevation":100,"type":"Standard"},{"zip":"50227","city":"Popejoy","state":"Iowa","stateCode":"IA","county":"Popejoy County","lat":42.5974,"lng":-93.4279,"timezone":"America/Chicago","areaCode":"319","population":0,"elevation":100,"type":"Standard"},{"zip":"50228","city":"Prairie City","state":"Iowa","stateCode":"IA","county":"Prairie City County","lat":41.5854,"lng":-93.241,"timezone":"America/Chicago","areaCode":"319","population":0,"elevation":100,"type":"Standard"},{"zip":"50229","city":"Prole","state":"Iowa","stateCode":"IA","county":"Prole County","lat":41.383,"lng":-93.7344,"timezone":"America/Chicago","areaCode":"319","population":0,"elevation":100,"type":"Standard"},{"zip":"50230","city":"Radcliffe","state":"Iowa","stateCode":"IA","county":"Radcliffe County","lat":42.3241,"lng":-93.4234,"timezone":"America/Chicago","areaCode":"319","population":0,"elevation":100,"type":"Standard"},{"zip":"50231","city":"Randall","state":"Iowa","stateCode":"IA","county":"Randall County","lat":42.2383,"lng":-93.6008,"timezone":"America/Chicago","areaCode":"319","population":0,"elevation":100,"type":"Standard"},{"zip":"50232","city":"Reasnor","state":"Iowa","stateCode":"IA","county":"Reasnor County","lat":41.5798,"lng":-93.0198,"timezone":"America/Chicago","areaCode":"319","population":0,"elevation":100,"type":"Standard"},{"zip":"50233","city":"Redfield","state":"Iowa","stateCode":"IA","county":"Redfield County","lat":41.5873,"lng":-94.1897,"timezone":"America/Chicago","areaCode":"319","population":0,"elevation":100,"type":"Standard"},{"zip":"50234","city":"Rhodes","state":"Iowa","stateCode":"IA","county":"Rhodes County","lat":41.9177,"lng":-93.1796,"timezone":"America/Chicago","areaCode":"319","population":0,"elevation":100,"type":"Standard"},{"zip":"50235","city":"Rippey","state":"Iowa","stateCode":"IA","county":"Rippey County","lat":41.9257,"lng":-94.2132,"timezone":"America/Chicago","areaCode":"319","population":0,"elevation":100,"type":"Standard"},{"zip":"50236","city":"Roland","state":"Iowa","stateCode":"IA","county":"Roland County","lat":42.1646,"lng":-93.5063,"timezone":"America/Chicago","areaCode":"319","population":0,"elevation":100,"type":"Standard"},{"zip":"50237","city":"Runnells","state":"Iowa","stateCode":"IA","county":"Runnells County","lat":41.5515,"lng":-93.4202,"timezone":"America/Chicago","areaCode":"319","population":0,"elevation":100,"type":"Standard"},{"zip":"50238","city":"Russell","state":"Iowa","stateCode":"IA","county":"Russell County","lat":40.9456,"lng":-93.1784,"timezone":"America/Chicago","areaCode":"319","population":0,"elevation":100,"type":"Standard"},{"zip":"50239","city":"Saint Anthony","state":"Iowa","stateCode":"IA","county":"Saint Anthony County","lat":42.152,"lng":-93.1824,"timezone":"America/Chicago","areaCode":"319","population":0,"elevation":100,"type":"Standard"},{"zip":"50240","city":"Saint Charles","state":"Iowa","stateCode":"IA","county":"Saint Charles County","lat":41.2924,"lng":-93.8242,"timezone":"America/Chicago","areaCode":"319","population":0,"elevation":100,"type":"Standard"},{"zip":"50241","city":"Saint Marys","state":"Iowa","stateCode":"IA","county":"Saint Marys County","lat":41.3084,"lng":-93.7369,"timezone":"America/Chicago","areaCode":"319","population":0,"elevation":100,"type":"Standard"},{"zip":"50242","city":"Searsboro","state":"Iowa","stateCode":"IA","county":"Searsboro County","lat":41.5656,"lng":-92.6987,"timezone":"America/Chicago","areaCode":"319","population":0,"elevation":100,"type":"Standard"},{"zip":"50243","city":"Sheldahl","state":"Iowa","stateCode":"IA","county":"Sheldahl County","lat":41.8571,"lng":-93.6973,"timezone":"America/Chicago","areaCode":"319","population":0,"elevation":100,"type":"Standard"},{"zip":"50244","city":"Slater","state":"Iowa","stateCode":"IA","county":"Slater County","lat":41.8765,"lng":-93.6812,"timezone":"America/Chicago","areaCode":"319","population":0,"elevation":100,"type":"Standard"},{"zip":"50246","city":"Stanhope","state":"Iowa","stateCode":"IA","county":"Stanhope County","lat":42.2904,"lng":-93.7751,"timezone":"America/Chicago","areaCode":"319","population":0,"elevation":100,"type":"Standard"},{"zip":"50247","city":"State Center","state":"Iowa","stateCode":"IA","county":"State Center County","lat":42.0109,"lng":-93.1673,"timezone":"America/Chicago","areaCode":"319","population":0,"elevation":100,"type":"Standard"},{"zip":"50248","city":"Story City","state":"Iowa","stateCode":"IA","county":"Story City County","lat":42.1835,"lng":-93.5988,"timezone":"America/Chicago","areaCode":"319","population":0,"elevation":100,"type":"Standard"},{"zip":"50249","city":"Stratford","state":"Iowa","stateCode":"IA","county":"Stratford County","lat":42.2847,"lng":-93.9029,"timezone":"America/Chicago","areaCode":"319","population":0,"elevation":100,"type":"Standard"},{"zip":"50250","city":"Stuart","state":"Iowa","stateCode":"IA","county":"Stuart County","lat":41.5033,"lng":-94.3186,"timezone":"America/Chicago","areaCode":"319","population":0,"elevation":100,"type":"Standard"},{"zip":"50251","city":"Sully","state":"Iowa","stateCode":"IA","county":"Sully County","lat":41.574,"lng":-92.8451,"timezone":"America/Chicago","areaCode":"319","population":0,"elevation":100,"type":"Standard"},{"zip":"50252","city":"Swan","state":"Iowa","stateCode":"IA","county":"Swan County","lat":41.4636,"lng":-93.301,"timezone":"America/Chicago","areaCode":"319","population":0,"elevation":100,"type":"Standard"},{"zip":"50254","city":"Thayer","state":"Iowa","stateCode":"IA","county":"Thayer County","lat":41.0029,"lng":-94.0686,"timezone":"America/Chicago","areaCode":"319","population":0,"elevation":100,"type":"Standard"},{"zip":"50255","city":"Thornburg","state":"Iowa","stateCode":"IA","county":"Thornburg County","lat":41.4547,"lng":-92.3357,"timezone":"America/Chicago","areaCode":"319","population":0,"elevation":100,"type":"Standard"},{"zip":"50256","city":"Tracy","state":"Iowa","stateCode":"IA","county":"Tracy County","lat":41.2756,"lng":-92.8753,"timezone":"America/Chicago","areaCode":"319","population":0,"elevation":100,"type":"Standard"},{"zip":"50257","city":"Truro","state":"Iowa","stateCode":"IA","county":"Truro County","lat":41.2076,"lng":-93.841,"timezone":"America/Chicago","areaCode":"319","population":0,"elevation":100,"type":"Standard"},{"zip":"50258","city":"Union","state":"Iowa","stateCode":"IA","county":"Union County","lat":42.2521,"lng":-93.0562,"timezone":"America/Chicago","areaCode":"319","population":0,"elevation":100,"type":"Standard"},{"zip":"50259","city":"Gifford","state":"Iowa","stateCode":"IA","county":"Gifford County","lat":42.3831,"lng":-93.2506,"timezone":"America/Chicago","areaCode":"319","population":0,"elevation":100,"type":"Standard"},{"zip":"50261","city":"Van Meter","state":"Iowa","stateCode":"IA","county":"Van Meter County","lat":41.4699,"lng":-93.9207,"timezone":"America/Chicago","areaCode":"319","population":0,"elevation":100,"type":"Standard"},{"zip":"50262","city":"Van Wert","state":"Iowa","stateCode":"IA","county":"Van Wert County","lat":40.8645,"lng":-93.8073,"timezone":"America/Chicago","areaCode":"319","population":0,"elevation":100,"type":"Standard"},{"zip":"50263","city":"Waukee","state":"Iowa","stateCode":"IA","county":"Waukee County","lat":41.593,"lng":-93.8592,"timezone":"America/Chicago","areaCode":"319","population":0,"elevation":100,"type":"Standard"},{"zip":"50264","city":"Weldon","state":"Iowa","stateCode":"IA","county":"Weldon County","lat":40.8739,"lng":-93.7387,"timezone":"America/Chicago","areaCode":"319","population":0,"elevation":100,"type":"Standard"},{"zip":"50265","city":"West Des Moines","state":"Iowa","stateCode":"IA","county":"West Des Moines County","lat":41.5805,"lng":-93.7447,"timezone":"America/Chicago","areaCode":"319","population":0,"elevation":100,"type":"Standard"},{"zip":"50266","city":"West Des Moines","state":"Iowa","stateCode":"IA","county":"West Des Moines County","lat":41.5695,"lng":-93.7994,"timezone":"America/Chicago","areaCode":"319","population":0,"elevation":100,"type":"Standard"},{"zip":"50268","city":"What Cheer","state":"Iowa","stateCode":"IA","county":"What Cheer County","lat":41.3953,"lng":-92.3548,"timezone":"America/Chicago","areaCode":"319","population":0,"elevation":100,"type":"Standard"},{"zip":"50269","city":"Whitten","state":"Iowa","stateCode":"IA","county":"Whitten County","lat":42.2718,"lng":-93.0214,"timezone":"America/Chicago","areaCode":"319","population":0,"elevation":100,"type":"Standard"},{"zip":"50271","city":"Williams","state":"Iowa","stateCode":"IA","county":"Williams County","lat":42.4883,"lng":-93.5449,"timezone":"America/Chicago","areaCode":"319","population":0,"elevation":100,"type":"Standard"},{"zip":"50272","city":"Williamson","state":"Iowa","stateCode":"IA","county":"Williamson County","lat":41.0959,"lng":-93.2559,"timezone":"America/Chicago","areaCode":"319","population":0,"elevation":100,"type":"Standard"},{"zip":"50273","city":"Winterset","state":"Iowa","stateCode":"IA","county":"Winterset County","lat":41.3391,"lng":-94.0088,"timezone":"America/Chicago","areaCode":"319","population":0,"elevation":100,"type":"Standard"},{"zip":"50274","city":"Wiota","state":"Iowa","stateCode":"IA","county":"Wiota County","lat":41.3846,"lng":-94.8405,"timezone":"America/Chicago","areaCode":"319","population":0,"elevation":100,"type":"Standard"},{"zip":"50275","city":"Woodburn","state":"Iowa","stateCode":"IA","county":"Woodburn County","lat":41,"lng":-93.6083,"timezone":"America/Chicago","areaCode":"319","population":0,"elevation":100,"type":"Standard"},{"zip":"50276","city":"Woodward","state":"Iowa","stateCode":"IA","county":"Woodward County","lat":41.8452,"lng":-93.9056,"timezone":"America/Chicago","areaCode":"319","population":0,"elevation":100,"type":"Standard"},{"zip":"50277","city":"Yale","state":"Iowa","stateCode":"IA","county":"Yale County","lat":41.7753,"lng":-94.3503,"timezone":"America/Chicago","areaCode":"319","population":0,"elevation":100,"type":"Standard"},{"zip":"50278","city":"Zearing","state":"Iowa","stateCode":"IA","county":"Zearing County","lat":42.1535,"lng":-93.2928,"timezone":"America/Chicago","areaCode":"319","population":0,"elevation":100,"type":"Standard"},{"zip":"50301","city":"Des Moines","state":"Iowa","stateCode":"IA","county":"Des Moines County","lat":41.6727,"lng":-93.5722,"timezone":"America/Chicago","areaCode":"319","population":0,"elevation":100,"type":"Standard"},{"zip":"50302","city":"Des Moines","state":"Iowa","stateCode":"IA","county":"Des Moines County","lat":41.6727,"lng":-93.5722,"timezone":"America/Chicago","areaCode":"319","population":0,"elevation":100,"type":"Standard"},{"zip":"50303","city":"Des Moines","state":"Iowa","stateCode":"IA","county":"Des Moines County","lat":41.6727,"lng":-93.5722,"timezone":"America/Chicago","areaCode":"319","population":0,"elevation":100,"type":"Standard"},{"zip":"50304","city":"Des Moines","state":"Iowa","stateCode":"IA","county":"Des Moines County","lat":41.6727,"lng":-93.5722,"timezone":"America/Chicago","areaCode":"319","population":0,"elevation":100,"type":"Standard"},{"zip":"50305","city":"Des Moines","state":"Iowa","stateCode":"IA","county":"Des Moines County","lat":41.6727,"lng":-93.5722,"timezone":"America/Chicago","areaCode":"319","population":0,"elevation":100,"type":"Standard"},{"zip":"50306","city":"Des Moines","state":"Iowa","stateCode":"IA","county":"Des Moines County","lat":41.6727,"lng":-93.5722,"timezone":"America/Chicago","areaCode":"319","population":0,"elevation":100,"type":"Standard"},{"zip":"50307","city":"Des Moines","state":"Iowa","stateCode":"IA","county":"Des Moines County","lat":41.6005,"lng":-93.6091,"timezone":"America/Chicago","areaCode":"319","population":0,"elevation":100,"type":"Standard"},{"zip":"50308","city":"Des Moines","state":"Iowa","stateCode":"IA","county":"Des Moines County","lat":41.6727,"lng":-93.5722,"timezone":"America/Chicago","areaCode":"319","population":0,"elevation":100,"type":"Standard"},{"zip":"50309","city":"Des Moines","state":"Iowa","stateCode":"IA","county":"Des Moines County","lat":41.5887,"lng":-93.6212,"timezone":"America/Chicago","areaCode":"319","population":0,"elevation":100,"type":"Standard"},{"zip":"50310","city":"Des Moines","state":"Iowa","stateCode":"IA","county":"Des Moines County","lat":41.6255,"lng":-93.6736,"timezone":"America/Chicago","areaCode":"319","population":0,"elevation":100,"type":"Standard"},{"zip":"50311","city":"Des Moines","state":"Iowa","stateCode":"IA","county":"Des Moines County","lat":41.601,"lng":-93.6729,"timezone":"America/Chicago","areaCode":"319","population":0,"elevation":100,"type":"Standard"},{"zip":"50312","city":"Des Moines","state":"Iowa","stateCode":"IA","county":"Des Moines County","lat":41.5855,"lng":-93.6719,"timezone":"America/Chicago","areaCode":"319","population":0,"elevation":100,"type":"Standard"},{"zip":"50313","city":"Des Moines","state":"Iowa","stateCode":"IA","county":"Des Moines County","lat":41.6381,"lng":-93.6203,"timezone":"America/Chicago","areaCode":"319","population":0,"elevation":100,"type":"Standard"},{"zip":"50314","city":"Des Moines","state":"Iowa","stateCode":"IA","county":"Des Moines County","lat":41.603,"lng":-93.633,"timezone":"America/Chicago","areaCode":"319","population":0,"elevation":100,"type":"Standard"},{"zip":"50315","city":"Des Moines","state":"Iowa","stateCode":"IA","county":"Des Moines County","lat":41.5444,"lng":-93.6192,"timezone":"America/Chicago","areaCode":"319","population":0,"elevation":100,"type":"Standard"},{"zip":"50316","city":"Des Moines","state":"Iowa","stateCode":"IA","county":"Des Moines County","lat":41.6092,"lng":-93.6,"timezone":"America/Chicago","areaCode":"319","population":0,"elevation":100,"type":"Standard"},{"zip":"50317","city":"Des Moines","state":"Iowa","stateCode":"IA","county":"Des Moines County","lat":41.6122,"lng":-93.5296,"timezone":"America/Chicago","areaCode":"319","population":0,"elevation":100,"type":"Standard"},{"zip":"50318","city":"Des Moines","state":"Iowa","stateCode":"IA","county":"Des Moines County","lat":41.6727,"lng":-93.5722,"timezone":"America/Chicago","areaCode":"319","population":0,"elevation":100,"type":"Standard"},{"zip":"50319","city":"Des Moines","state":"Iowa","stateCode":"IA","county":"Des Moines County","lat":41.5921,"lng":-93.604,"timezone":"America/Chicago","areaCode":"319","population":0,"elevation":100,"type":"Standard"},{"zip":"50320","city":"Des Moines","state":"Iowa","stateCode":"IA","county":"Des Moines County","lat":41.5487,"lng":-93.5827,"timezone":"America/Chicago","areaCode":"319","population":0,"elevation":100,"type":"Standard"},{"zip":"50321","city":"Des Moines","state":"Iowa","stateCode":"IA","county":"Des Moines County","lat":41.5476,"lng":-93.6618,"timezone":"America/Chicago","areaCode":"319","population":0,"elevation":100,"type":"Standard"},{"zip":"50322","city":"Urbandale","state":"Iowa","stateCode":"IA","county":"Urbandale County","lat":41.6295,"lng":-93.723,"timezone":"America/Chicago","areaCode":"319","population":0,"elevation":100,"type":"Standard"},{"zip":"50323","city":"Urbandale","state":"Iowa","stateCode":"IA","county":"Urbandale County","lat":41.6294,"lng":-93.7717,"timezone":"America/Chicago","areaCode":"319","population":0,"elevation":100,"type":"Standard"},{"zip":"50324","city":"Windsor Heights","state":"Iowa","stateCode":"IA","county":"Windsor Heights County","lat":41.6032,"lng":-93.7152,"timezone":"America/Chicago","areaCode":"319","population":0,"elevation":100,"type":"Standard"},{"zip":"50325","city":"Clive","state":"Iowa","stateCode":"IA","county":"Clive County","lat":41.6067,"lng":-93.7457,"timezone":"America/Chicago","areaCode":"319","population":0,"elevation":100,"type":"Standard"},{"zip":"50327","city":"Pleasant Hill","state":"Iowa","stateCode":"IA","county":"Pleasant Hill County","lat":41.5839,"lng":-93.5199,"timezone":"America/Chicago","areaCode":"319","population":0,"elevation":100,"type":"Standard"},{"zip":"50328","city":"Des Moines","state":"Iowa","stateCode":"IA","county":"Des Moines County","lat":41.6727,"lng":-93.5722,"timezone":"America/Chicago","areaCode":"319","population":0,"elevation":100,"type":"Standard"},{"zip":"50329","city":"Des Moines","state":"Iowa","stateCode":"IA","county":"Des Moines County","lat":41.6727,"lng":-93.5722,"timezone":"America/Chicago","areaCode":"319","population":0,"elevation":100,"type":"Standard"},{"zip":"50330","city":"Des Moines","state":"Iowa","stateCode":"IA","county":"Des Moines County","lat":41.6727,"lng":-93.5722,"timezone":"America/Chicago","areaCode":"319","population":0,"elevation":100,"type":"Standard"},{"zip":"50331","city":"Des Moines","state":"Iowa","stateCode":"IA","county":"Des Moines County","lat":41.6727,"lng":-93.5722,"timezone":"America/Chicago","areaCode":"319","population":0,"elevation":100,"type":"Standard"},{"zip":"50332","city":"Des Moines","state":"Iowa","stateCode":"IA","county":"Des Moines County","lat":41.6727,"lng":-93.5722,"timezone":"America/Chicago","areaCode":"319","population":0,"elevation":100,"type":"Standard"},{"zip":"50333","city":"Des Moines","state":"Iowa","stateCode":"IA","county":"Des Moines County","lat":41.6727,"lng":-93.5722,"timezone":"America/Chicago","areaCode":"319","population":0,"elevation":100,"type":"Standard"},{"zip":"50334","city":"Des Moines","state":"Iowa","stateCode":"IA","county":"Des Moines County","lat":41.6727,"lng":-93.5722,"timezone":"America/Chicago","areaCode":"319","population":0,"elevation":100,"type":"Standard"},{"zip":"50335","city":"Des Moines","state":"Iowa","stateCode":"IA","county":"Des Moines County","lat":41.6727,"lng":-93.5722,"timezone":"America/Chicago","areaCode":"319","population":0,"elevation":100,"type":"Standard"},{"zip":"50336","city":"Des Moines","state":"Iowa","stateCode":"IA","county":"Des Moines County","lat":41.6727,"lng":-93.5722,"timezone":"America/Chicago","areaCode":"319","population":0,"elevation":100,"type":"Standard"},{"zip":"50339","city":"Des Moines","state":"Iowa","stateCode":"IA","county":"Des Moines County","lat":41.6727,"lng":-93.5722,"timezone":"America/Chicago","areaCode":"319","population":0,"elevation":100,"type":"Standard"},{"zip":"50340","city":"Des Moines","state":"Iowa","stateCode":"IA","county":"Des Moines County","lat":41.6727,"lng":-93.5722,"timezone":"America/Chicago","areaCode":"319","population":0,"elevation":100,"type":"Standard"},{"zip":"50347","city":"Cds Brm","state":"Iowa","stateCode":"IA","county":"Cds Brm County","lat":41.6,"lng":-93.6,"timezone":"America/Chicago","areaCode":"319","population":0,"elevation":100,"type":"Standard"},{"zip":"50359","city":"Des Moines","state":"Iowa","stateCode":"IA","county":"Des Moines County","lat":41.6727,"lng":-93.5722,"timezone":"America/Chicago","areaCode":"319","population":0,"elevation":100,"type":"Standard"},{"zip":"50360","city":"Des Moines","state":"Iowa","stateCode":"IA","county":"Des Moines County","lat":41.6727,"lng":-93.5722,"timezone":"America/Chicago","areaCode":"319","population":0,"elevation":100,"type":"Standard"},{"zip":"50361","city":"Des Moines","state":"Iowa","stateCode":"IA","county":"Des Moines County","lat":41.6727,"lng":-93.5722,"timezone":"America/Chicago","areaCode":"319","population":0,"elevation":100,"type":"Standard"},{"zip":"50362","city":"Des Moines","state":"Iowa","stateCode":"IA","county":"Des Moines County","lat":41.6727,"lng":-93.5722,"timezone":"America/Chicago","areaCode":"319","population":0,"elevation":100,"type":"Standard"},{"zip":"50363","city":"Des Moines","state":"Iowa","stateCode":"IA","county":"Des Moines County","lat":41.6727,"lng":-93.5722,"timezone":"America/Chicago","areaCode":"319","population":0,"elevation":100,"type":"Standard"},{"zip":"50364","city":"Des Moines","state":"Iowa","stateCode":"IA","county":"Des Moines County","lat":41.6727,"lng":-93.5722,"timezone":"America/Chicago","areaCode":"319","population":0,"elevation":100,"type":"Standard"},{"zip":"50367","city":"Des Moines","state":"Iowa","stateCode":"IA","county":"Des Moines County","lat":41.6727,"lng":-93.5722,"timezone":"America/Chicago","areaCode":"319","population":0,"elevation":100,"type":"Standard"},{"zip":"50368","city":"Des Moines","state":"Iowa","stateCode":"IA","county":"Des Moines County","lat":41.6727,"lng":-93.5722,"timezone":"America/Chicago","areaCode":"319","population":0,"elevation":100,"type":"Standard"},{"zip":"50369","city":"Des Moines","state":"Iowa","stateCode":"IA","county":"Des Moines County","lat":41.6727,"lng":-93.5722,"timezone":"America/Chicago","areaCode":"319","population":0,"elevation":100,"type":"Standard"},{"zip":"50380","city":"Des Moines","state":"Iowa","stateCode":"IA","county":"Des Moines County","lat":41.6727,"lng":-93.5722,"timezone":"America/Chicago","areaCode":"319","population":0,"elevation":100,"type":"Standard"},{"zip":"50381","city":"Des Moines","state":"Iowa","stateCode":"IA","county":"Des Moines County","lat":41.6727,"lng":-93.5722,"timezone":"America/Chicago","areaCode":"319","population":0,"elevation":100,"type":"Standard"},{"zip":"50391","city":"Des Moines","state":"Iowa","stateCode":"IA","county":"Des Moines County","lat":41.6727,"lng":-93.5722,"timezone":"America/Chicago","areaCode":"319","population":0,"elevation":100,"type":"Standard"},{"zip":"50392","city":"Des Moines","state":"Iowa","stateCode":"IA","county":"Des Moines County","lat":41.5878,"lng":-93.6274,"timezone":"America/Chicago","areaCode":"319","population":0,"elevation":100,"type":"Standard"},{"zip":"50393","city":"Des Moines","state":"Iowa","stateCode":"IA","county":"Des Moines County","lat":41.6727,"lng":-93.5722,"timezone":"America/Chicago","areaCode":"319","population":0,"elevation":100,"type":"Standard"},{"zip":"50394","city":"Des Moines","state":"Iowa","stateCode":"IA","county":"Des Moines County","lat":41.6727,"lng":-93.5722,"timezone":"America/Chicago","areaCode":"319","population":0,"elevation":100,"type":"Standard"},{"zip":"50395","city":"Des Moines","state":"Iowa","stateCode":"IA","county":"Des Moines County","lat":41.6727,"lng":-93.5722,"timezone":"America/Chicago","areaCode":"319","population":0,"elevation":100,"type":"Standard"},{"zip":"50396","city":"Des Moines","state":"Iowa","stateCode":"IA","county":"Des Moines County","lat":41.6727,"lng":-93.5722,"timezone":"America/Chicago","areaCode":"319","population":0,"elevation":100,"type":"Standard"},{"zip":"50397","city":"Des Moines","state":"Iowa","stateCode":"IA","county":"Des Moines County","lat":41.6,"lng":-93.6,"timezone":"America/Chicago","areaCode":"319","population":0,"elevation":100,"type":"Standard"},{"zip":"50398","city":"Urbandale","state":"Iowa","stateCode":"IA","county":"Urbandale County","lat":41.6267,"lng":-93.7122,"timezone":"America/Chicago","areaCode":"319","population":0,"elevation":100,"type":"Standard"},{"zip":"50401","city":"Mason City","state":"Iowa","stateCode":"IA","county":"Mason City County","lat":43.1499,"lng":-93.1954,"timezone":"America/Chicago","areaCode":"563","population":0,"elevation":100,"type":"Standard"},{"zip":"50402","city":"Mason City","state":"Iowa","stateCode":"IA","county":"Mason City County","lat":43.1536,"lng":-93.201,"timezone":"America/Chicago","areaCode":"563","population":0,"elevation":100,"type":"Standard"},{"zip":"50420","city":"Alexander","state":"Iowa","stateCode":"IA","county":"Alexander County","lat":42.8114,"lng":-93.445,"timezone":"America/Chicago","areaCode":"563","population":0,"elevation":100,"type":"Standard"},{"zip":"50421","city":"Belmond","state":"Iowa","stateCode":"IA","county":"Belmond County","lat":42.8511,"lng":-93.62,"timezone":"America/Chicago","areaCode":"563","population":0,"elevation":100,"type":"Standard"},{"zip":"50423","city":"Britt","state":"Iowa","stateCode":"IA","county":"Britt County","lat":43.1006,"lng":-93.7752,"timezone":"America/Chicago","areaCode":"563","population":0,"elevation":100,"type":"Standard"},{"zip":"50424","city":"Buffalo Center","state":"Iowa","stateCode":"IA","county":"Buffalo Center County","lat":43.3732,"lng":-93.9376,"timezone":"America/Chicago","areaCode":"563","population":0,"elevation":100,"type":"Standard"},{"zip":"50426","city":"Carpenter","state":"Iowa","stateCode":"IA","county":"Carpenter County","lat":43.415,"lng":-93.0149,"timezone":"America/Chicago","areaCode":"563","population":0,"elevation":100,"type":"Standard"},{"zip":"50427","city":"Chapin","state":"Iowa","stateCode":"IA","county":"Chapin County","lat":42.8349,"lng":-93.2226,"timezone":"America/Chicago","areaCode":"563","population":0,"elevation":100,"type":"Standard"},{"zip":"50428","city":"Clear Lake","state":"Iowa","stateCode":"IA","county":"Clear Lake County","lat":43.1406,"lng":-93.385,"timezone":"America/Chicago","areaCode":"563","population":0,"elevation":100,"type":"Standard"},{"zip":"50430","city":"Corwith","state":"Iowa","stateCode":"IA","county":"Corwith County","lat":42.9927,"lng":-93.9575,"timezone":"America/Chicago","areaCode":"563","population":0,"elevation":100,"type":"Standard"},{"zip":"50431","city":"Coulter","state":"Iowa","stateCode":"IA","county":"Coulter County","lat":42.7382,"lng":-93.37,"timezone":"America/Chicago","areaCode":"563","population":0,"elevation":100,"type":"Standard"},{"zip":"50432","city":"Crystal Lake","state":"Iowa","stateCode":"IA","county":"Crystal Lake County","lat":43.2233,"lng":-93.7924,"timezone":"America/Chicago","areaCode":"563","population":0,"elevation":100,"type":"Standard"},{"zip":"50433","city":"Dougherty","state":"Iowa","stateCode":"IA","county":"Dougherty County","lat":42.9222,"lng":-93.0421,"timezone":"America/Chicago","areaCode":"563","population":0,"elevation":100,"type":"Standard"},{"zip":"50434","city":"Fertile","state":"Iowa","stateCode":"IA","county":"Fertile County","lat":43.2644,"lng":-93.4183,"timezone":"America/Chicago","areaCode":"563","population":0,"elevation":100,"type":"Standard"},{"zip":"50435","city":"Floyd","state":"Iowa","stateCode":"IA","county":"Floyd County","lat":43.143,"lng":-92.724,"timezone":"America/Chicago","areaCode":"563","population":0,"elevation":100,"type":"Standard"},{"zip":"50436","city":"Forest City","state":"Iowa","stateCode":"IA","county":"Forest City County","lat":43.2692,"lng":-93.6356,"timezone":"America/Chicago","areaCode":"563","population":0,"elevation":100,"type":"Standard"},{"zip":"50438","city":"Garner","state":"Iowa","stateCode":"IA","county":"Garner County","lat":43.1144,"lng":-93.5944,"timezone":"America/Chicago","areaCode":"563","population":0,"elevation":100,"type":"Standard"},{"zip":"50439","city":"Goodell","state":"Iowa","stateCode":"IA","county":"Goodell County","lat":42.9383,"lng":-93.5824,"timezone":"America/Chicago","areaCode":"563","population":0,"elevation":100,"type":"Standard"},{"zip":"50440","city":"Grafton","state":"Iowa","stateCode":"IA","county":"Grafton County","lat":43.311,"lng":-93.0797,"timezone":"America/Chicago","areaCode":"563","population":0,"elevation":100,"type":"Standard"},{"zip":"50441","city":"Hampton","state":"Iowa","stateCode":"IA","county":"Hampton County","lat":42.7405,"lng":-93.211,"timezone":"America/Chicago","areaCode":"563","population":0,"elevation":100,"type":"Standard"},{"zip":"50444","city":"Hanlontown","state":"Iowa","stateCode":"IA","county":"Hanlontown County","lat":43.2802,"lng":-93.3788,"timezone":"America/Chicago","areaCode":"563","population":0,"elevation":100,"type":"Standard"},{"zip":"50446","city":"Joice","state":"Iowa","stateCode":"IA","county":"Joice County","lat":43.3761,"lng":-93.4454,"timezone":"America/Chicago","areaCode":"563","population":0,"elevation":100,"type":"Standard"},{"zip":"50447","city":"Kanawha","state":"Iowa","stateCode":"IA","county":"Kanawha County","lat":42.9434,"lng":-93.7728,"timezone":"America/Chicago","areaCode":"563","population":0,"elevation":100,"type":"Standard"},{"zip":"50448","city":"Kensett","state":"Iowa","stateCode":"IA","county":"Kensett County","lat":43.3536,"lng":-93.2105,"timezone":"America/Chicago","areaCode":"563","population":0,"elevation":100,"type":"Standard"},{"zip":"50449","city":"Klemme","state":"Iowa","stateCode":"IA","county":"Klemme County","lat":43.0136,"lng":-93.5879,"timezone":"America/Chicago","areaCode":"563","population":0,"elevation":100,"type":"Standard"},{"zip":"50450","city":"Lake Mills","state":"Iowa","stateCode":"IA","county":"Lake Mills County","lat":43.4167,"lng":-93.5336,"timezone":"America/Chicago","areaCode":"563","population":0,"elevation":100,"type":"Standard"},{"zip":"50451","city":"Lakota","state":"Iowa","stateCode":"IA","county":"Lakota County","lat":43.3772,"lng":-94.0938,"timezone":"America/Chicago","areaCode":"563","population":0,"elevation":100,"type":"Standard"},{"zip":"50452","city":"Latimer","state":"Iowa","stateCode":"IA","county":"Latimer County","lat":42.7598,"lng":-93.3518,"timezone":"America/Chicago","areaCode":"563","population":0,"elevation":100,"type":"Standard"},{"zip":"50453","city":"Leland","state":"Iowa","stateCode":"IA","county":"Leland County","lat":43.3425,"lng":-93.6895,"timezone":"America/Chicago","areaCode":"563","population":0,"elevation":100,"type":"Standard"},{"zip":"50454","city":"Little Cedar","state":"Iowa","stateCode":"IA","county":"Little Cedar County","lat":43.3919,"lng":-92.7344,"timezone":"America/Chicago","areaCode":"563","population":0,"elevation":100,"type":"Standard"},{"zip":"50455","city":"Mc Intire","state":"Iowa","stateCode":"IA","county":"Mc Intire County","lat":43.45,"lng":-92.6048,"timezone":"America/Chicago","areaCode":"563","population":0,"elevation":100,"type":"Standard"},{"zip":"50456","city":"Manly","state":"Iowa","stateCode":"IA","county":"Manly County","lat":43.2891,"lng":-93.2018,"timezone":"America/Chicago","areaCode":"563","population":0,"elevation":100,"type":"Standard"},{"zip":"50457","city":"Meservey","state":"Iowa","stateCode":"IA","county":"Meservey County","lat":42.9137,"lng":-93.4773,"timezone":"America/Chicago","areaCode":"563","population":0,"elevation":100,"type":"Standard"},{"zip":"50458","city":"Nora Springs","state":"Iowa","stateCode":"IA","county":"Nora Springs County","lat":43.1479,"lng":-93.0002,"timezone":"America/Chicago","areaCode":"563","population":0,"elevation":100,"type":"Standard"},{"zip":"50459","city":"Northwood","state":"Iowa","stateCode":"IA","county":"Northwood County","lat":43.4506,"lng":-93.2419,"timezone":"America/Chicago","areaCode":"563","population":0,"elevation":100,"type":"Standard"},{"zip":"50460","city":"Orchard","state":"Iowa","stateCode":"IA","county":"Orchard County","lat":43.2355,"lng":-92.72,"timezone":"America/Chicago","areaCode":"563","population":0,"elevation":100,"type":"Standard"},{"zip":"50461","city":"Osage","state":"Iowa","stateCode":"IA","county":"Osage County","lat":43.2872,"lng":-92.8144,"timezone":"America/Chicago","areaCode":"563","population":0,"elevation":100,"type":"Standard"},{"zip":"50464","city":"Plymouth","state":"Iowa","stateCode":"IA","county":"Plymouth County","lat":43.246,"lng":-93.1226,"timezone":"America/Chicago","areaCode":"563","population":0,"elevation":100,"type":"Standard"},{"zip":"50465","city":"Rake","state":"Iowa","stateCode":"IA","county":"Rake County","lat":43.4767,"lng":-93.9171,"timezone":"America/Chicago","areaCode":"563","population":0,"elevation":100,"type":"Standard"},{"zip":"50466","city":"Riceville","state":"Iowa","stateCode":"IA","county":"Riceville County","lat":43.3719,"lng":-92.5554,"timezone":"America/Chicago","areaCode":"563","population":0,"elevation":100,"type":"Standard"},{"zip":"50467","city":"Rock Falls","state":"Iowa","stateCode":"IA","county":"Rock Falls County","lat":43.2066,"lng":-93.0857,"timezone":"America/Chicago","areaCode":"563","population":0,"elevation":100,"type":"Standard"},{"zip":"50468","city":"Rockford","state":"Iowa","stateCode":"IA","county":"Rockford County","lat":43.0573,"lng":-92.952,"timezone":"America/Chicago","areaCode":"563","population":0,"elevation":100,"type":"Standard"},{"zip":"50469","city":"Rockwell","state":"Iowa","stateCode":"IA","county":"Rockwell County","lat":43.0032,"lng":-93.2167,"timezone":"America/Chicago","areaCode":"563","population":0,"elevation":100,"type":"Standard"},{"zip":"50470","city":"Rowan","state":"Iowa","stateCode":"IA","county":"Rowan County","lat":42.7596,"lng":-93.557,"timezone":"America/Chicago","areaCode":"563","population":0,"elevation":100,"type":"Standard"},{"zip":"50471","city":"Rudd","state":"Iowa","stateCode":"IA","county":"Rudd County","lat":43.142,"lng":-92.8885,"timezone":"America/Chicago","areaCode":"563","population":0,"elevation":100,"type":"Standard"},{"zip":"50472","city":"Saint Ansgar","state":"Iowa","stateCode":"IA","county":"Saint Ansgar County","lat":43.4061,"lng":-92.9235,"timezone":"America/Chicago","areaCode":"563","population":0,"elevation":100,"type":"Standard"},{"zip":"50473","city":"Scarville","state":"Iowa","stateCode":"IA","county":"Scarville County","lat":43.4673,"lng":-93.6423,"timezone":"America/Chicago","areaCode":"563","population":0,"elevation":100,"type":"Standard"},{"zip":"50475","city":"Sheffield","state":"Iowa","stateCode":"IA","county":"Sheffield County","lat":42.8779,"lng":-93.2156,"timezone":"America/Chicago","areaCode":"563","population":0,"elevation":100,"type":"Standard"},{"zip":"50476","city":"Stacyville","state":"Iowa","stateCode":"IA","county":"Stacyville County","lat":43.4457,"lng":-92.761,"timezone":"America/Chicago","areaCode":"563","population":0,"elevation":100,"type":"Standard"},{"zip":"50477","city":"Swaledale","state":"Iowa","stateCode":"IA","county":"Swaledale County","lat":42.9622,"lng":-93.3115,"timezone":"America/Chicago","areaCode":"563","population":0,"elevation":100,"type":"Standard"},{"zip":"50478","city":"Thompson","state":"Iowa","stateCode":"IA","county":"Thompson County","lat":43.3875,"lng":-93.7517,"timezone":"America/Chicago","areaCode":"563","population":0,"elevation":100,"type":"Standard"},{"zip":"50479","city":"Thornton","state":"Iowa","stateCode":"IA","county":"Thornton County","lat":42.9684,"lng":-93.4088,"timezone":"America/Chicago","areaCode":"563","population":0,"elevation":100,"type":"Standard"},{"zip":"50480","city":"Titonka","state":"Iowa","stateCode":"IA","county":"Titonka County","lat":43.2456,"lng":-94.0367,"timezone":"America/Chicago","areaCode":"563","population":0,"elevation":100,"type":"Standard"},{"zip":"50481","city":"Toeterville","state":"Iowa","stateCode":"IA","county":"Toeterville County","lat":43.3564,"lng":-92.789,"timezone":"America/Chicago","areaCode":"563","population":0,"elevation":100,"type":"Standard"},{"zip":"50482","city":"Ventura","state":"Iowa","stateCode":"IA","county":"Ventura County","lat":43.1262,"lng":-93.4706,"timezone":"America/Chicago","areaCode":"563","population":0,"elevation":100,"type":"Standard"},{"zip":"50483","city":"Wesley","state":"Iowa","stateCode":"IA","county":"Wesley County","lat":43.0977,"lng":-94.0038,"timezone":"America/Chicago","areaCode":"563","population":0,"elevation":100,"type":"Standard"},{"zip":"50484","city":"Woden","state":"Iowa","stateCode":"IA","county":"Woden County","lat":43.2226,"lng":-93.9109,"timezone":"America/Chicago","areaCode":"563","population":0,"elevation":100,"type":"Standard"},{"zip":"50501","city":"Fort Dodge","state":"Iowa","stateCode":"IA","county":"Fort Dodge County","lat":42.5088,"lng":-94.1807,"timezone":"America/Chicago","areaCode":"712","population":0,"elevation":100,"type":"Standard"},{"zip":"50510","city":"Albert City","state":"Iowa","stateCode":"IA","county":"Albert City County","lat":42.7784,"lng":-94.9824,"timezone":"America/Chicago","areaCode":"712","population":0,"elevation":100,"type":"Standard"},{"zip":"50511","city":"Algona","state":"Iowa","stateCode":"IA","county":"Algona County","lat":43.066,"lng":-94.2306,"timezone":"America/Chicago","areaCode":"712","population":0,"elevation":100,"type":"Standard"},{"zip":"50514","city":"Armstrong","state":"Iowa","stateCode":"IA","county":"Armstrong County","lat":43.4024,"lng":-94.4853,"timezone":"America/Chicago","areaCode":"712","population":0,"elevation":100,"type":"Standard"},{"zip":"50515","city":"Ayrshire","state":"Iowa","stateCode":"IA","county":"Ayrshire County","lat":43.037,"lng":-94.8478,"timezone":"America/Chicago","areaCode":"712","population":0,"elevation":100,"type":"Standard"},{"zip":"50516","city":"Badger","state":"Iowa","stateCode":"IA","county":"Badger County","lat":42.6144,"lng":-94.1461,"timezone":"America/Chicago","areaCode":"712","population":0,"elevation":100,"type":"Standard"},{"zip":"50517","city":"Bancroft","state":"Iowa","stateCode":"IA","county":"Bancroft County","lat":43.2935,"lng":-94.2108,"timezone":"America/Chicago","areaCode":"712","population":0,"elevation":100,"type":"Standard"},{"zip":"50518","city":"Barnum","state":"Iowa","stateCode":"IA","county":"Barnum County","lat":42.5159,"lng":-94.3703,"timezone":"America/Chicago","areaCode":"712","population":0,"elevation":100,"type":"Standard"},{"zip":"50519","city":"Bode","state":"Iowa","stateCode":"IA","county":"Bode County","lat":42.8661,"lng":-94.2781,"timezone":"America/Chicago","areaCode":"712","population":0,"elevation":100,"type":"Standard"},{"zip":"50520","city":"Bradgate","state":"Iowa","stateCode":"IA","county":"Bradgate County","lat":42.7794,"lng":-94.4002,"timezone":"America/Chicago","areaCode":"712","population":0,"elevation":100,"type":"Standard"},{"zip":"50521","city":"Burnside","state":"Iowa","stateCode":"IA","county":"Burnside County","lat":42.3413,"lng":-94.1143,"timezone":"America/Chicago","areaCode":"712","population":0,"elevation":100,"type":"Standard"},{"zip":"50522","city":"Burt","state":"Iowa","stateCode":"IA","county":"Burt County","lat":43.2062,"lng":-94.2122,"timezone":"America/Chicago","areaCode":"712","population":0,"elevation":100,"type":"Standard"},{"zip":"50523","city":"Callender","state":"Iowa","stateCode":"IA","county":"Callender County","lat":42.3494,"lng":-94.282,"timezone":"America/Chicago","areaCode":"712","population":0,"elevation":100,"type":"Standard"},{"zip":"50524","city":"Clare","state":"Iowa","stateCode":"IA","county":"Clare County","lat":42.5954,"lng":-94.308,"timezone":"America/Chicago","areaCode":"712","population":0,"elevation":100,"type":"Standard"},{"zip":"50525","city":"Clarion","state":"Iowa","stateCode":"IA","county":"Clarion County","lat":42.7271,"lng":-93.7277,"timezone":"America/Chicago","areaCode":"712","population":0,"elevation":100,"type":"Standard"},{"zip":"50526","city":"Clarion","state":"Iowa","stateCode":"IA","county":"Clarion County","lat":42.733,"lng":-93.7352,"timezone":"America/Chicago","areaCode":"712","population":0,"elevation":100,"type":"Standard"},{"zip":"50527","city":"Curlew","state":"Iowa","stateCode":"IA","county":"Curlew County","lat":42.9633,"lng":-94.7975,"timezone":"America/Chicago","areaCode":"712","population":0,"elevation":100,"type":"Standard"},{"zip":"50528","city":"Cylinder","state":"Iowa","stateCode":"IA","county":"Cylinder County","lat":43.1507,"lng":-94.5107,"timezone":"America/Chicago","areaCode":"712","population":0,"elevation":100,"type":"Standard"},{"zip":"50529","city":"Dakota City","state":"Iowa","stateCode":"IA","county":"Dakota City County","lat":42.7214,"lng":-94.1993,"timezone":"America/Chicago","areaCode":"712","population":0,"elevation":100,"type":"Standard"},{"zip":"50530","city":"Dayton","state":"Iowa","stateCode":"IA","county":"Dayton County","lat":42.2594,"lng":-94.061,"timezone":"America/Chicago","areaCode":"712","population":0,"elevation":100,"type":"Standard"},{"zip":"50531","city":"Dolliver","state":"Iowa","stateCode":"IA","county":"Dolliver County","lat":43.4664,"lng":-94.6242,"timezone":"America/Chicago","areaCode":"712","population":0,"elevation":100,"type":"Standard"},{"zip":"50532","city":"Duncombe","state":"Iowa","stateCode":"IA","county":"Duncombe County","lat":42.4493,"lng":-94.0592,"timezone":"America/Chicago","areaCode":"712","population":0,"elevation":100,"type":"Standard"},{"zip":"50533","city":"Eagle Grove","state":"Iowa","stateCode":"IA","county":"Eagle Grove County","lat":42.6609,"lng":-93.9049,"timezone":"America/Chicago","areaCode":"712","population":0,"elevation":100,"type":"Standard"},{"zip":"50535","city":"Early","state":"Iowa","stateCode":"IA","county":"Early County","lat":42.4483,"lng":-95.1726,"timezone":"America/Chicago","areaCode":"712","population":0,"elevation":600,"type":"Standard"},{"zip":"50536","city":"Emmetsburg","state":"Iowa","stateCode":"IA","county":"Emmetsburg County","lat":43.1082,"lng":-94.6825,"timezone":"America/Chicago","areaCode":"712","population":0,"elevation":100,"type":"Standard"},{"zip":"50538","city":"Farnhamville","state":"Iowa","stateCode":"IA","county":"Farnhamville County","lat":42.2692,"lng":-94.4226,"timezone":"America/Chicago","areaCode":"712","population":0,"elevation":100,"type":"Standard"},{"zip":"50539","city":"Fenton","state":"Iowa","stateCode":"IA","county":"Fenton County","lat":43.242,"lng":-94.4044,"timezone":"America/Chicago","areaCode":"712","population":0,"elevation":100,"type":"Standard"},{"zip":"50540","city":"Fonda","state":"Iowa","stateCode":"IA","county":"Fonda County","lat":42.6051,"lng":-94.8297,"timezone":"America/Chicago","areaCode":"712","population":0,"elevation":100,"type":"Standard"},{"zip":"50541","city":"Gilmore City","state":"Iowa","stateCode":"IA","county":"Gilmore City County","lat":42.7067,"lng":-94.4108,"timezone":"America/Chicago","areaCode":"712","population":0,"elevation":100,"type":"Standard"},{"zip":"50542","city":"Goldfield","state":"Iowa","stateCode":"IA","county":"Goldfield County","lat":42.7581,"lng":-93.9194,"timezone":"America/Chicago","areaCode":"712","population":0,"elevation":100,"type":"Standard"},{"zip":"50543","city":"Gowrie","state":"Iowa","stateCode":"IA","county":"Gowrie County","lat":42.2767,"lng":-94.2987,"timezone":"America/Chicago","areaCode":"712","population":0,"elevation":100,"type":"Standard"},{"zip":"50544","city":"Harcourt","state":"Iowa","stateCode":"IA","county":"Harcourt County","lat":42.2531,"lng":-94.1961,"timezone":"America/Chicago","areaCode":"712","population":0,"elevation":100,"type":"Standard"},{"zip":"50545","city":"Hardy","state":"Iowa","stateCode":"IA","county":"Hardy County","lat":42.7975,"lng":-94.0799,"timezone":"America/Chicago","areaCode":"712","population":0,"elevation":100,"type":"Standard"},{"zip":"50546","city":"Havelock","state":"Iowa","stateCode":"IA","county":"Havelock County","lat":42.8411,"lng":-94.7252,"timezone":"America/Chicago","areaCode":"712","population":0,"elevation":100,"type":"Standard"},{"zip":"50548","city":"Humboldt","state":"Iowa","stateCode":"IA","county":"Humboldt County","lat":42.7196,"lng":-94.2132,"timezone":"America/Chicago","areaCode":"712","population":0,"elevation":100,"type":"Standard"},{"zip":"50551","city":"Jolley","state":"Iowa","stateCode":"IA","county":"Jolley County","lat":42.4871,"lng":-94.757,"timezone":"America/Chicago","areaCode":"712","population":0,"elevation":100,"type":"Standard"},{"zip":"50552","city":"Knierim","state":"Iowa","stateCode":"IA","county":"Knierim County","lat":42.4555,"lng":-94.4569,"timezone":"America/Chicago","areaCode":"712","population":0,"elevation":100,"type":"Standard"},{"zip":"50554","city":"Laurens","state":"Iowa","stateCode":"IA","county":"Laurens County","lat":42.8409,"lng":-94.8508,"timezone":"America/Chicago","areaCode":"712","population":0,"elevation":100,"type":"Standard"},{"zip":"50556","city":"Ledyard","state":"Iowa","stateCode":"IA","county":"Ledyard County","lat":43.4346,"lng":-94.1503,"timezone":"America/Chicago","areaCode":"712","population":0,"elevation":100,"type":"Standard"},{"zip":"50557","city":"Lehigh","state":"Iowa","stateCode":"IA","county":"Lehigh County","lat":42.3526,"lng":-94.0342,"timezone":"America/Chicago","areaCode":"712","population":0,"elevation":100,"type":"Standard"},{"zip":"50558","city":"Livermore","state":"Iowa","stateCode":"IA","county":"Livermore County","lat":42.8666,"lng":-94.1747,"timezone":"America/Chicago","areaCode":"712","population":0,"elevation":100,"type":"Standard"},{"zip":"50559","city":"Lone Rock","state":"Iowa","stateCode":"IA","county":"Lone Rock County","lat":43.1666,"lng":-94.3586,"timezone":"America/Chicago","areaCode":"712","population":0,"elevation":100,"type":"Standard"},{"zip":"50560","city":"Lu Verne","state":"Iowa","stateCode":"IA","county":"Lu Verne County","lat":42.9868,"lng":-94.0959,"timezone":"America/Chicago","areaCode":"712","population":0,"elevation":100,"type":"Standard"},{"zip":"50561","city":"Lytton","state":"Iowa","stateCode":"IA","county":"Lytton County","lat":42.423,"lng":-94.8597,"timezone":"America/Chicago","areaCode":"712","population":0,"elevation":100,"type":"Standard"},{"zip":"50562","city":"Mallard","state":"Iowa","stateCode":"IA","county":"Mallard County","lat":42.9417,"lng":-94.6746,"timezone":"America/Chicago","areaCode":"712","population":0,"elevation":100,"type":"Standard"},{"zip":"50563","city":"Manson","state":"Iowa","stateCode":"IA","county":"Manson County","lat":42.5285,"lng":-94.5304,"timezone":"America/Chicago","areaCode":"712","population":0,"elevation":100,"type":"Standard"},{"zip":"50565","city":"Marathon","state":"Iowa","stateCode":"IA","county":"Marathon County","lat":42.8612,"lng":-94.9836,"timezone":"America/Chicago","areaCode":"712","population":0,"elevation":100,"type":"Standard"},{"zip":"50566","city":"Moorland","state":"Iowa","stateCode":"IA","county":"Moorland County","lat":42.434,"lng":-94.3199,"timezone":"America/Chicago","areaCode":"712","population":0,"elevation":100,"type":"Standard"},{"zip":"50567","city":"Nemaha","state":"Iowa","stateCode":"IA","county":"Nemaha County","lat":42.518,"lng":-95.0939,"timezone":"America/Chicago","areaCode":"712","population":0,"elevation":600,"type":"Standard"},{"zip":"50568","city":"Newell","state":"Iowa","stateCode":"IA","county":"Newell County","lat":42.6157,"lng":-94.9946,"timezone":"America/Chicago","areaCode":"712","population":0,"elevation":100,"type":"Standard"},{"zip":"50569","city":"Otho","state":"Iowa","stateCode":"IA","county":"Otho County","lat":42.4031,"lng":-94.1388,"timezone":"America/Chicago","areaCode":"712","population":0,"elevation":100,"type":"Standard"},{"zip":"50570","city":"Ottosen","state":"Iowa","stateCode":"IA","county":"Ottosen County","lat":42.8764,"lng":-94.3786,"timezone":"America/Chicago","areaCode":"712","population":0,"elevation":100,"type":"Standard"},{"zip":"50571","city":"Palmer","state":"Iowa","stateCode":"IA","county":"Palmer County","lat":42.6419,"lng":-94.5432,"timezone":"America/Chicago","areaCode":"712","population":0,"elevation":100,"type":"Standard"},{"zip":"50573","city":"Plover","state":"Iowa","stateCode":"IA","county":"Plover County","lat":42.8783,"lng":-94.6205,"timezone":"America/Chicago","areaCode":"712","population":0,"elevation":100,"type":"Standard"},{"zip":"50574","city":"Pocahontas","state":"Iowa","stateCode":"IA","county":"Pocahontas County","lat":42.7296,"lng":-94.6737,"timezone":"America/Chicago","areaCode":"712","population":0,"elevation":100,"type":"Standard"},{"zip":"50575","city":"Pomeroy","state":"Iowa","stateCode":"IA","county":"Pomeroy County","lat":42.5511,"lng":-94.6839,"timezone":"America/Chicago","areaCode":"712","population":0,"elevation":100,"type":"Standard"},{"zip":"50576","city":"Rembrandt","state":"Iowa","stateCode":"IA","county":"Rembrandt County","lat":42.826,"lng":-95.1652,"timezone":"America/Chicago","areaCode":"712","population":0,"elevation":600,"type":"Standard"},{"zip":"50577","city":"Renwick","state":"Iowa","stateCode":"IA","county":"Renwick County","lat":42.8491,"lng":-94.0074,"timezone":"America/Chicago","areaCode":"712","population":0,"elevation":100,"type":"Standard"},{"zip":"50578","city":"Ringsted","state":"Iowa","stateCode":"IA","county":"Ringsted County","lat":43.2977,"lng":-94.5291,"timezone":"America/Chicago","areaCode":"712","population":0,"elevation":100,"type":"Standard"},{"zip":"50579","city":"Rockwell City","state":"Iowa","stateCode":"IA","county":"Rockwell City County","lat":42.3961,"lng":-94.6292,"timezone":"America/Chicago","areaCode":"712","population":0,"elevation":100,"type":"Standard"},{"zip":"50581","city":"Rolfe","state":"Iowa","stateCode":"IA","county":"Rolfe County","lat":42.8082,"lng":-94.5166,"timezone":"America/Chicago","areaCode":"712","population":0,"elevation":100,"type":"Standard"},{"zip":"50582","city":"Rutland","state":"Iowa","stateCode":"IA","county":"Rutland County","lat":42.7635,"lng":-94.2719,"timezone":"America/Chicago","areaCode":"712","population":0,"elevation":100,"type":"Standard"},{"zip":"50583","city":"Sac City","state":"Iowa","stateCode":"IA","county":"Sac City County","lat":42.4262,"lng":-94.9796,"timezone":"America/Chicago","areaCode":"712","population":0,"elevation":100,"type":"Standard"},{"zip":"50585","city":"Sioux Rapids","state":"Iowa","stateCode":"IA","county":"Sioux Rapids County","lat":42.9065,"lng":-95.1388,"timezone":"America/Chicago","areaCode":"712","population":0,"elevation":600,"type":"Standard"},{"zip":"50586","city":"Somers","state":"Iowa","stateCode":"IA","county":"Somers County","lat":42.3561,"lng":-94.4464,"timezone":"America/Chicago","areaCode":"712","population":0,"elevation":100,"type":"Standard"},{"zip":"50588","city":"Storm Lake","state":"Iowa","stateCode":"IA","county":"Storm Lake County","lat":42.6474,"lng":-95.1961,"timezone":"America/Chicago","areaCode":"712","population":0,"elevation":600,"type":"Standard"},{"zip":"50590","city":"Swea City","state":"Iowa","stateCode":"IA","county":"Swea City County","lat":43.4022,"lng":-94.3193,"timezone":"America/Chicago","areaCode":"712","population":0,"elevation":100,"type":"Standard"},{"zip":"50591","city":"Thor","state":"Iowa","stateCode":"IA","county":"Thor County","lat":42.6889,"lng":-94.039,"timezone":"America/Chicago","areaCode":"712","population":0,"elevation":100,"type":"Standard"},{"zip":"50592","city":"Truesdale","state":"Iowa","stateCode":"IA","county":"Truesdale County","lat":42.7262,"lng":-95.1853,"timezone":"America/Chicago","areaCode":"712","population":0,"elevation":600,"type":"Standard"},{"zip":"50593","city":"Varina","state":"Iowa","stateCode":"IA","county":"Varina County","lat":42.6598,"lng":-94.8979,"timezone":"America/Chicago","areaCode":"712","population":0,"elevation":100,"type":"Standard"},{"zip":"50594","city":"Vincent","state":"Iowa","stateCode":"IA","county":"Vincent County","lat":42.5623,"lng":-94.0335,"timezone":"America/Chicago","areaCode":"712","population":0,"elevation":100,"type":"Standard"},{"zip":"50595","city":"Webster City","state":"Iowa","stateCode":"IA","county":"Webster City County","lat":42.4657,"lng":-93.8262,"timezone":"America/Chicago","areaCode":"712","population":0,"elevation":100,"type":"Standard"},{"zip":"50597","city":"West Bend","state":"Iowa","stateCode":"IA","county":"West Bend County","lat":42.9574,"lng":-94.4564,"timezone":"America/Chicago","areaCode":"712","population":0,"elevation":100,"type":"Standard"},{"zip":"50598","city":"Whittemore","state":"Iowa","stateCode":"IA","county":"Whittemore County","lat":43.0619,"lng":-94.4269,"timezone":"America/Chicago","areaCode":"712","population":0,"elevation":100,"type":"Standard"},{"zip":"50599","city":"Woolstock","state":"Iowa","stateCode":"IA","county":"Woolstock County","lat":42.5844,"lng":-93.8216,"timezone":"America/Chicago","areaCode":"712","population":0,"elevation":100,"type":"Standard"},{"zip":"50601","city":"Ackley","state":"Iowa","stateCode":"IA","county":"Ackley County","lat":42.5527,"lng":-93.0608,"timezone":"America/Chicago","areaCode":"712","population":0,"elevation":100,"type":"Standard"},{"zip":"50602","city":"Allison","state":"Iowa","stateCode":"IA","county":"Allison County","lat":42.7615,"lng":-92.783,"timezone":"America/Chicago","areaCode":"712","population":0,"elevation":100,"type":"Standard"},{"zip":"50603","city":"Alta Vista","state":"Iowa","stateCode":"IA","county":"Alta Vista County","lat":43.1482,"lng":-92.4237,"timezone":"America/Chicago","areaCode":"712","population":0,"elevation":100,"type":"Standard"},{"zip":"50604","city":"Aplington","state":"Iowa","stateCode":"IA","county":"Aplington County","lat":42.587,"lng":-92.8751,"timezone":"America/Chicago","areaCode":"712","population":0,"elevation":100,"type":"Standard"},{"zip":"50605","city":"Aredale","state":"Iowa","stateCode":"IA","county":"Aredale County","lat":42.8318,"lng":-93.021,"timezone":"America/Chicago","areaCode":"712","population":0,"elevation":100,"type":"Standard"},{"zip":"50606","city":"Arlington","state":"Iowa","stateCode":"IA","county":"Arlington County","lat":42.7338,"lng":-91.6668,"timezone":"America/Chicago","areaCode":"712","population":0,"elevation":100,"type":"Standard"},{"zip":"50607","city":"Aurora","state":"Iowa","stateCode":"IA","county":"Aurora County","lat":42.6203,"lng":-91.7335,"timezone":"America/Chicago","areaCode":"712","population":0,"elevation":100,"type":"Standard"},{"zip":"50608","city":"Austinville","state":"Iowa","stateCode":"IA","county":"Austinville County","lat":42.5824,"lng":-92.9599,"timezone":"America/Chicago","areaCode":"712","population":0,"elevation":100,"type":"Standard"},{"zip":"50609","city":"Beaman","state":"Iowa","stateCode":"IA","county":"Beaman County","lat":42.2367,"lng":-92.8162,"timezone":"America/Chicago","areaCode":"712","population":0,"elevation":100,"type":"Standard"},{"zip":"50611","city":"Bristow","state":"Iowa","stateCode":"IA","county":"Bristow County","lat":42.7741,"lng":-92.8864,"timezone":"America/Chicago","areaCode":"712","population":0,"elevation":100,"type":"Standard"},{"zip":"50612","city":"Buckingham","state":"Iowa","stateCode":"IA","county":"Buckingham County","lat":42.2552,"lng":-92.4098,"timezone":"America/Chicago","areaCode":"712","population":0,"elevation":100,"type":"Standard"},{"zip":"50613","city":"Cedar Falls","state":"Iowa","stateCode":"IA","county":"Cedar Falls County","lat":42.5241,"lng":-92.4497,"timezone":"America/Chicago","areaCode":"712","population":0,"elevation":100,"type":"Standard"},{"zip":"50614","city":"Cedar Falls","state":"Iowa","stateCode":"IA","county":"Cedar Falls County","lat":42.4698,"lng":-92.3095,"timezone":"America/Chicago","areaCode":"712","population":0,"elevation":100,"type":"Standard"},{"zip":"50616","city":"Charles City","state":"Iowa","stateCode":"IA","county":"Charles City County","lat":43.0683,"lng":-92.6761,"timezone":"America/Chicago","areaCode":"712","population":0,"elevation":100,"type":"Standard"},{"zip":"50619","city":"Clarksville","state":"Iowa","stateCode":"IA","county":"Clarksville County","lat":42.8041,"lng":-92.6588,"timezone":"America/Chicago","areaCode":"712","population":0,"elevation":100,"type":"Standard"},{"zip":"50620","city":"Colwell","state":"Iowa","stateCode":"IA","county":"Colwell County","lat":43.1584,"lng":-92.5905,"timezone":"America/Chicago","areaCode":"712","population":0,"elevation":100,"type":"Standard"},{"zip":"50621","city":"Conrad","state":"Iowa","stateCode":"IA","county":"Conrad County","lat":42.2342,"lng":-92.8865,"timezone":"America/Chicago","areaCode":"712","population":0,"elevation":100,"type":"Standard"},{"zip":"50622","city":"Denver","state":"Iowa","stateCode":"IA","county":"Denver County","lat":42.6731,"lng":-92.3417,"timezone":"America/Chicago","areaCode":"712","population":0,"elevation":100,"type":"Standard"},{"zip":"50623","city":"Dewar","state":"Iowa","stateCode":"IA","county":"Dewar County","lat":42.5253,"lng":-92.2207,"timezone":"America/Chicago","areaCode":"712","population":0,"elevation":100,"type":"Standard"},{"zip":"50624","city":"Dike","state":"Iowa","stateCode":"IA","county":"Dike County","lat":42.473,"lng":-92.6122,"timezone":"America/Chicago","areaCode":"712","population":0,"elevation":100,"type":"Standard"},{"zip":"50625","city":"Dumont","state":"Iowa","stateCode":"IA","county":"Dumont County","lat":42.7368,"lng":-92.9673,"timezone":"America/Chicago","areaCode":"712","population":0,"elevation":100,"type":"Standard"},{"zip":"50626","city":"Dunkerton","state":"Iowa","stateCode":"IA","county":"Dunkerton County","lat":42.578,"lng":-92.1588,"timezone":"America/Chicago","areaCode":"712","population":0,"elevation":100,"type":"Standard"},{"zip":"50627","city":"Eldora","state":"Iowa","stateCode":"IA","county":"Eldora County","lat":42.3572,"lng":-93.1037,"timezone":"America/Chicago","areaCode":"712","population":0,"elevation":100,"type":"Standard"},{"zip":"50628","city":"Elma","state":"Iowa","stateCode":"IA","county":"Elma County","lat":43.2786,"lng":-92.3981,"timezone":"America/Chicago","areaCode":"712","population":0,"elevation":100,"type":"Standard"},{"zip":"50629","city":"Fairbank","state":"Iowa","stateCode":"IA","county":"Fairbank County","lat":42.6162,"lng":-92.0326,"timezone":"America/Chicago","areaCode":"712","population":0,"elevation":100,"type":"Standard"},{"zip":"50630","city":"Fredericksburg","state":"Iowa","stateCode":"IA","county":"Fredericksburg County","lat":42.9593,"lng":-92.1983,"timezone":"America/Chicago","areaCode":"712","population":0,"elevation":100,"type":"Standard"},{"zip":"50631","city":"Frederika","state":"Iowa","stateCode":"IA","county":"Frederika County","lat":42.8827,"lng":-92.3063,"timezone":"America/Chicago","areaCode":"712","population":0,"elevation":100,"type":"Standard"},{"zip":"50632","city":"Garwin","state":"Iowa","stateCode":"IA","county":"Garwin County","lat":42.0872,"lng":-92.6894,"timezone":"America/Chicago","areaCode":"712","population":0,"elevation":100,"type":"Standard"},{"zip":"50633","city":"Geneva","state":"Iowa","stateCode":"IA","county":"Geneva County","lat":42.6755,"lng":-93.1294,"timezone":"America/Chicago","areaCode":"712","population":0,"elevation":100,"type":"Standard"},{"zip":"50634","city":"Gilbertville","state":"Iowa","stateCode":"IA","county":"Gilbertville County","lat":42.4161,"lng":-92.2149,"timezone":"America/Chicago","areaCode":"712","population":0,"elevation":100,"type":"Standard"},{"zip":"50635","city":"Gladbrook","state":"Iowa","stateCode":"IA","county":"Gladbrook County","lat":42.1774,"lng":-92.7141,"timezone":"America/Chicago","areaCode":"712","population":0,"elevation":100,"type":"Standard"},{"zip":"50636","city":"Greene","state":"Iowa","stateCode":"IA","county":"Greene County","lat":42.8958,"lng":-92.8024,"timezone":"America/Chicago","areaCode":"712","population":0,"elevation":100,"type":"Standard"},{"zip":"50638","city":"Grundy Center","state":"Iowa","stateCode":"IA","county":"Grundy Center County","lat":42.3672,"lng":-92.7773,"timezone":"America/Chicago","areaCode":"712","population":0,"elevation":100,"type":"Standard"},{"zip":"50641","city":"Hazleton","state":"Iowa","stateCode":"IA","county":"Hazleton County","lat":42.6076,"lng":-91.9105,"timezone":"America/Chicago","areaCode":"712","population":0,"elevation":100,"type":"Standard"},{"zip":"50642","city":"Holland","state":"Iowa","stateCode":"IA","county":"Holland County","lat":42.4011,"lng":-92.7999,"timezone":"America/Chicago","areaCode":"712","population":0,"elevation":100,"type":"Standard"},{"zip":"50643","city":"Hudson","state":"Iowa","stateCode":"IA","county":"Hudson County","lat":42.3905,"lng":-92.4549,"timezone":"America/Chicago","areaCode":"712","population":0,"elevation":100,"type":"Standard"},{"zip":"50644","city":"Independence","state":"Iowa","stateCode":"IA","county":"Independence County","lat":42.4674,"lng":-91.8803,"timezone":"America/Chicago","areaCode":"712","population":0,"elevation":100,"type":"Standard"},{"zip":"50645","city":"Ionia","state":"Iowa","stateCode":"IA","county":"Ionia County","lat":43.0403,"lng":-92.4865,"timezone":"America/Chicago","areaCode":"712","population":0,"elevation":100,"type":"Standard"},{"zip":"50647","city":"Janesville","state":"Iowa","stateCode":"IA","county":"Janesville County","lat":42.6465,"lng":-92.4791,"timezone":"America/Chicago","areaCode":"712","population":0,"elevation":100,"type":"Standard"},{"zip":"50648","city":"Jesup","state":"Iowa","stateCode":"IA","county":"Jesup County","lat":42.4823,"lng":-92.0456,"timezone":"America/Chicago","areaCode":"712","population":0,"elevation":100,"type":"Standard"},{"zip":"50649","city":"Kesley","state":"Iowa","stateCode":"IA","county":"Kesley County","lat":42.6626,"lng":-92.9112,"timezone":"America/Chicago","areaCode":"712","population":0,"elevation":100,"type":"Standard"},{"zip":"50650","city":"Lamont","state":"Iowa","stateCode":"IA","county":"Lamont County","lat":42.5946,"lng":-91.6701,"timezone":"America/Chicago","areaCode":"712","population":0,"elevation":100,"type":"Standard"},{"zip":"50651","city":"La Porte City","state":"Iowa","stateCode":"IA","county":"La Porte City County","lat":42.3416,"lng":-92.1862,"timezone":"America/Chicago","areaCode":"712","population":0,"elevation":100,"type":"Standard"},{"zip":"50652","city":"Lincoln","state":"Iowa","stateCode":"IA","county":"Lincoln County","lat":42.2643,"lng":-92.693,"timezone":"America/Chicago","areaCode":"712","population":0,"elevation":100,"type":"Standard"},{"zip":"50653","city":"Marble Rock","state":"Iowa","stateCode":"IA","county":"Marble Rock County","lat":42.9645,"lng":-92.8917,"timezone":"America/Chicago","areaCode":"712","population":0,"elevation":100,"type":"Standard"},{"zip":"50654","city":"Masonville","state":"Iowa","stateCode":"IA","county":"Masonville County","lat":42.4794,"lng":-91.5913,"timezone":"America/Chicago","areaCode":"712","population":0,"elevation":100,"type":"Standard"},{"zip":"50655","city":"Maynard","state":"Iowa","stateCode":"IA","county":"Maynard County","lat":42.7752,"lng":-91.8908,"timezone":"America/Chicago","areaCode":"712","population":0,"elevation":100,"type":"Standard"},{"zip":"50657","city":"Morrison","state":"Iowa","stateCode":"IA","county":"Morrison County","lat":42.3433,"lng":-92.6738,"timezone":"America/Chicago","areaCode":"712","population":0,"elevation":100,"type":"Standard"},{"zip":"50658","city":"Nashua","state":"Iowa","stateCode":"IA","county":"Nashua County","lat":42.9528,"lng":-92.5298,"timezone":"America/Chicago","areaCode":"712","population":0,"elevation":100,"type":"Standard"},{"zip":"50659","city":"New Hampton","state":"Iowa","stateCode":"IA","county":"New Hampton County","lat":43.056,"lng":-92.3131,"timezone":"America/Chicago","areaCode":"712","population":0,"elevation":100,"type":"Standard"},{"zip":"50660","city":"New Hartford","state":"Iowa","stateCode":"IA","county":"New Hartford County","lat":42.5831,"lng":-92.6164,"timezone":"America/Chicago","areaCode":"712","population":0,"elevation":100,"type":"Standard"},{"zip":"50661","city":"North Washington","state":"Iowa","stateCode":"IA","county":"North Washington County","lat":43.1174,"lng":-92.4144,"timezone":"America/Chicago","areaCode":"712","population":0,"elevation":100,"type":"Standard"},{"zip":"50662","city":"Oelwein","state":"Iowa","stateCode":"IA","county":"Oelwein County","lat":42.6811,"lng":-91.9131,"timezone":"America/Chicago","areaCode":"712","population":0,"elevation":100,"type":"Standard"},{"zip":"50664","city":"Oran","state":"Iowa","stateCode":"IA","county":"Oran County","lat":42.7012,"lng":-92.0762,"timezone":"America/Chicago","areaCode":"712","population":0,"elevation":100,"type":"Standard"},{"zip":"50665","city":"Parkersburg","state":"Iowa","stateCode":"IA","county":"Parkersburg County","lat":42.5714,"lng":-92.7688,"timezone":"America/Chicago","areaCode":"712","population":0,"elevation":100,"type":"Standard"},{"zip":"50666","city":"Plainfield","state":"Iowa","stateCode":"IA","county":"Plainfield County","lat":42.8503,"lng":-92.5116,"timezone":"America/Chicago","areaCode":"712","population":0,"elevation":100,"type":"Standard"},{"zip":"50667","city":"Raymond","state":"Iowa","stateCode":"IA","county":"Raymond County","lat":42.4672,"lng":-92.2162,"timezone":"America/Chicago","areaCode":"712","population":0,"elevation":100,"type":"Standard"},{"zip":"50668","city":"Readlyn","state":"Iowa","stateCode":"IA","county":"Readlyn County","lat":42.6929,"lng":-92.2154,"timezone":"America/Chicago","areaCode":"712","population":0,"elevation":100,"type":"Standard"},{"zip":"50669","city":"Reinbeck","state":"Iowa","stateCode":"IA","county":"Reinbeck County","lat":42.3131,"lng":-92.5948,"timezone":"America/Chicago","areaCode":"712","population":0,"elevation":100,"type":"Standard"},{"zip":"50670","city":"Shell Rock","state":"Iowa","stateCode":"IA","county":"Shell Rock County","lat":42.7061,"lng":-92.5888,"timezone":"America/Chicago","areaCode":"712","population":0,"elevation":100,"type":"Standard"},{"zip":"50671","city":"Stanley","state":"Iowa","stateCode":"IA","county":"Stanley County","lat":42.6356,"lng":-91.8127,"timezone":"America/Chicago","areaCode":"712","population":0,"elevation":100,"type":"Standard"},{"zip":"50672","city":"Steamboat Rock","state":"Iowa","stateCode":"IA","county":"Steamboat Rock County","lat":42.4178,"lng":-93.0629,"timezone":"America/Chicago","areaCode":"712","population":0,"elevation":100,"type":"Standard"},{"zip":"50673","city":"Stout","state":"Iowa","stateCode":"IA","county":"Stout County","lat":42.5264,"lng":-92.7119,"timezone":"America/Chicago","areaCode":"712","population":0,"elevation":100,"type":"Standard"},{"zip":"50674","city":"Sumner","state":"Iowa","stateCode":"IA","county":"Sumner County","lat":42.8419,"lng":-92.1186,"timezone":"America/Chicago","areaCode":"712","population":0,"elevation":100,"type":"Standard"},{"zip":"50675","city":"Traer","state":"Iowa","stateCode":"IA","county":"Traer County","lat":42.1847,"lng":-92.4827,"timezone":"America/Chicago","areaCode":"712","population":0,"elevation":100,"type":"Standard"},{"zip":"50676","city":"Tripoli","state":"Iowa","stateCode":"IA","county":"Tripoli County","lat":42.8105,"lng":-92.2659,"timezone":"America/Chicago","areaCode":"712","population":0,"elevation":100,"type":"Standard"},{"zip":"50677","city":"Waverly","state":"Iowa","stateCode":"IA","county":"Waverly County","lat":42.7748,"lng":-92.404,"timezone":"America/Chicago","areaCode":"712","population":0,"elevation":100,"type":"Standard"},{"zip":"50680","city":"Wellsburg","state":"Iowa","stateCode":"IA","county":"Wellsburg County","lat":42.4494,"lng":-92.9398,"timezone":"America/Chicago","areaCode":"712","population":0,"elevation":100,"type":"Standard"},{"zip":"50681","city":"Westgate","state":"Iowa","stateCode":"IA","county":"Westgate County","lat":42.7812,"lng":-92.0122,"timezone":"America/Chicago","areaCode":"712","population":0,"elevation":100,"type":"Standard"},{"zip":"50682","city":"Winthrop","state":"Iowa","stateCode":"IA","county":"Winthrop County","lat":42.4912,"lng":-91.7315,"timezone":"America/Chicago","areaCode":"712","population":0,"elevation":100,"type":"Standard"},