[{"zip":"83201","city":"Pocatello","state":"Idaho","stateCode":"ID","county":"Pocatello County","lat":42.8876,"lng":-112.4381,"timezone":"America/Boise","areaCode":"208","population":0,"elevation":1500,"type":"Standard"},{"zip":"83202","city":"Pocatello","state":"Idaho","stateCode":"ID","county":"Pocatello County","lat":42.9357,"lng":-112.4679,"timezone":"America/Boise","areaCode":"208","population":0,"elevation":1500,"type":"Standard"},{"zip":"83203","city":"Fort Hall","state":"Idaho","stateCode":"ID","county":"Fort Hall County","lat":43.0331,"lng":-112.4285,"timezone":"America/Boise","areaCode":"208","population":0,"elevation":1500,"type":"Standard"},{"zip":"83204","city":"Pocatello","state":"Idaho","stateCode":"ID","county":"Pocatello County","lat":42.8465,"lng":-112.4434,"timezone":"America/Boise","areaCode":"208","population":0,"elevation":1500,"type":"Standard"},{"zip":"83205","city":"Pocatello","state":"Idaho","stateCode":"ID","county":"Pocatello County","lat":42.8062,"lng":-112.4103,"timezone":"America/Boise","areaCode":"208","population":0,"elevation":1500,"type":"Standard"},{"zip":"83206","city":"Pocatello","state":"Idaho","stateCode":"ID","county":"Pocatello County","lat":42.8713,"lng":-112.4455,"timezone":"America/Boise","areaCode":"208","population":0,"elevation":1500,"type":"Standard"},{"zip":"83209","city":"Pocatello","state":"Idaho","stateCode":"ID","county":"Pocatello County","lat":42.6395,"lng":-112.3138,"timezone":"America/Boise","areaCode":"208","population":0,"elevation":1500,"type":"Standard"},{"zip":"83210","city":"Aberdeen","state":"Idaho","stateCode":"ID","county":"Aberdeen County","lat":43.0049,"lng":-112.84,"timezone":"America/Boise","areaCode":"208","population":0,"elevation":1500,"type":"Standard"},{"zip":"83211","city":"American Falls","state":"Idaho","stateCode":"ID","county":"American Falls County","lat":42.6352,"lng":-112.9458,"timezone":"America/Denver","areaCode":"208","population":0,"elevation":1500,"type":"Standard"},{"zip":"83212","city":"Arbon","state":"Idaho","stateCode":"ID","county":"Arbon County","lat":42.5026,"lng":-112.5585,"timezone":"America/Boise","areaCode":"208","population":0,"elevation":1500,"type":"Standard"},{"zip":"83213","city":"Arco","state":"Idaho","stateCode":"ID","county":"Arco County","lat":43.6355,"lng":-113.3176,"timezone":"America/Denver","areaCode":"208","population":0,"elevation":1500,"type":"Standard"},{"zip":"83214","city":"Arimo","state":"Idaho","stateCode":"ID","county":"Arimo County","lat":42.56,"lng":-112.1746,"timezone":"America/Boise","areaCode":"208","population":0,"elevation":1500,"type":"Standard"},{"zip":"83215","city":"Atomic City","state":"Idaho","stateCode":"ID","county":"Atomic City County","lat":43.4449,"lng":-112.8128,"timezone":"America/Boise","areaCode":"208","population":0,"elevation":1500,"type":"Standard"},{"zip":"83217","city":"Bancroft","state":"Idaho","stateCode":"ID","county":"Bancroft County","lat":42.7205,"lng":-111.8429,"timezone":"America/Boise","areaCode":"208","population":0,"elevation":1500,"type":"Standard"},{"zip":"83218","city":"Basalt","state":"Idaho","stateCode":"ID","county":"Basalt County","lat":43.3155,"lng":-112.1644,"timezone":"America/Boise","areaCode":"208","population":0,"elevation":1500,"type":"Standard"},{"zip":"83220","city":"Bern","state":"Idaho","stateCode":"ID","county":"Bern County","lat":42.3191,"lng":-111.3926,"timezone":"America/Boise","areaCode":"208","population":0,"elevation":1500,"type":"Standard"},{"zip":"83221","city":"Blackfoot","state":"Idaho","stateCode":"ID","county":"Blackfoot County","lat":43.1943,"lng":-112.3615,"timezone":"America/Boise","areaCode":"208","population":0,"elevation":1500,"type":"Standard"},{"zip":"83223","city":"Bloomington","state":"Idaho","stateCode":"ID","county":"Bloomington County","lat":42.184,"lng":-111.4086,"timezone":"America/Boise","areaCode":"208","population":0,"elevation":1500,"type":"Standard"},{"zip":"83226","city":"Challis","state":"Idaho","stateCode":"ID","county":"Challis County","lat":44.4969,"lng":-114.1946,"timezone":"America/Boise","areaCode":"208","population":0,"elevation":1500,"type":"Standard"},{"zip":"83227","city":"Clayton","state":"Idaho","stateCode":"ID","county":"Clayton County","lat":44.2733,"lng":-114.4102,"timezone":"America/Boise","areaCode":"208","population":0,"elevation":1500,"type":"Standard"},{"zip":"83228","city":"Clifton","state":"Idaho","stateCode":"ID","county":"Clifton County","lat":42.216,"lng":-111.9957,"timezone":"America/Boise","areaCode":"208","population":0,"elevation":1500,"type":"Standard"},{"zip":"83229","city":"Cobalt","state":"Idaho","stateCode":"ID","county":"Cobalt County","lat":45.093,"lng":-114.2317,"timezone":"America/Boise","areaCode":"208","population":0,"elevation":100,"type":"Standard"},{"zip":"83230","city":"Conda","state":"Idaho","stateCode":"ID","county":"Conda County","lat":42.7191,"lng":-111.5967,"timezone":"America/Boise","areaCode":"208","population":0,"elevation":1500,"type":"Standard"},{"zip":"83232","city":"Dayton","state":"Idaho","stateCode":"ID","county":"Dayton County","lat":42.1184,"lng":-111.9858,"timezone":"America/Boise","areaCode":"208","population":0,"elevation":1500,"type":"Standard"},{"zip":"83233","city":"Dingle","state":"Idaho","stateCode":"ID","county":"Dingle County","lat":42.1774,"lng":-111.2174,"timezone":"America/Boise","areaCode":"208","population":0,"elevation":1500,"type":"Standard"},{"zip":"83234","city":"Downey","state":"Idaho","stateCode":"ID","county":"Downey County","lat":42.4181,"lng":-112.109,"timezone":"America/Boise","areaCode":"208","population":0,"elevation":1500,"type":"Standard"},{"zip":"83235","city":"Ellis","state":"Idaho","stateCode":"ID","county":"Ellis County","lat":44.6919,"lng":-114.0484,"timezone":"America/Boise","areaCode":"208","population":0,"elevation":1500,"type":"Standard"},{"zip":"83236","city":"Firth","state":"Idaho","stateCode":"ID","county":"Firth County","lat":43.3021,"lng":-112.1588,"timezone":"America/Boise","areaCode":"208","population":0,"elevation":1500,"type":"Standard"},{"zip":"83237","city":"Franklin","state":"Idaho","stateCode":"ID","county":"Franklin County","lat":42.0288,"lng":-111.7871,"timezone":"America/Boise","areaCode":"208","population":0,"elevation":1500,"type":"Standard"},{"zip":"83238","city":"Geneva","state":"Idaho","stateCode":"ID","county":"Geneva County","lat":42.3136,"lng":-111.0722,"timezone":"America/Boise","areaCode":"208","population":0,"elevation":1500,"type":"Standard"},{"zip":"83239","city":"Georgetown","state":"Idaho","stateCode":"ID","county":"Georgetown County","lat":42.4821,"lng":-111.3708,"timezone":"America/Boise","areaCode":"208","population":0,"elevation":1500,"type":"Standard"},{"zip":"83241","city":"Grace","state":"Idaho","stateCode":"ID","county":"Grace County","lat":42.55,"lng":-111.74,"timezone":"America/Boise","areaCode":"208","population":0,"elevation":1500,"type":"Standard"},{"zip":"83243","city":"Holbrook","state":"Idaho","stateCode":"ID","county":"Holbrook County","lat":42.1619,"lng":-112.6539,"timezone":"America/Boise","areaCode":"208","population":0,"elevation":1500,"type":"Standard"},{"zip":"83244","city":"Howe","state":"Idaho","stateCode":"ID","county":"Howe County","lat":43.9087,"lng":-113.0878,"timezone":"America/Boise","areaCode":"208","population":0,"elevation":1500,"type":"Standard"},{"zip":"83245","city":"Inkom","state":"Idaho","stateCode":"ID","county":"Inkom County","lat":42.7964,"lng":-112.2465,"timezone":"America/Boise","areaCode":"208","population":0,"elevation":1500,"type":"Standard"},{"zip":"83246","city":"Lava Hot Springs","state":"Idaho","stateCode":"ID","county":"Lava Hot Springs County","lat":42.6185,"lng":-112.0176,"timezone":"America/Boise","areaCode":"208","population":0,"elevation":1500,"type":"Standard"},{"zip":"83250","city":"Mccammon","state":"Idaho","stateCode":"ID","county":"Mccammon County","lat":42.6336,"lng":-112.1758,"timezone":"America/Boise","areaCode":"208","population":0,"elevation":1500,"type":"Standard"},{"zip":"83251","city":"Mackay","state":"Idaho","stateCode":"ID","county":"Mackay County","lat":43.9111,"lng":-113.612,"timezone":"America/Boise","areaCode":"208","population":0,"elevation":1500,"type":"Standard"},{"zip":"83252","city":"Malad City","state":"Idaho","stateCode":"ID","county":"Malad City County","lat":42.1808,"lng":-112.262,"timezone":"America/Boise","areaCode":"208","population":0,"elevation":1500,"type":"Standard"},{"zip":"83253","city":"May","state":"Idaho","stateCode":"ID","county":"May County","lat":44.6044,"lng":-113.912,"timezone":"America/Boise","areaCode":"208","population":0,"elevation":1500,"type":"Standard"},{"zip":"83254","city":"Montpelier","state":"Idaho","stateCode":"ID","county":"Montpelier County","lat":42.352,"lng":-111.3195,"timezone":"America/Boise","areaCode":"208","population":0,"elevation":1500,"type":"Standard"},{"zip":"83255","city":"Moore","state":"Idaho","stateCode":"ID","county":"Moore County","lat":43.7296,"lng":-113.4544,"timezone":"America/Boise","areaCode":"208","population":0,"elevation":1500,"type":"Standard"},{"zip":"83256","city":"Moreland","state":"Idaho","stateCode":"ID","county":"Moreland County","lat":43.2226,"lng":-112.4423,"timezone":"America/Boise","areaCode":"208","population":0,"elevation":1500,"type":"Standard"},{"zip":"83261","city":"Paris","state":"Idaho","stateCode":"ID","county":"Paris County","lat":42.2242,"lng":-111.4208,"timezone":"America/Boise","areaCode":"208","population":0,"elevation":1500,"type":"Standard"},{"zip":"83262","city":"Pingree","state":"Idaho","stateCode":"ID","county":"Pingree County","lat":43.1336,"lng":-112.6295,"timezone":"America/Boise","areaCode":"208","population":0,"elevation":1500,"type":"Standard"},{"zip":"83263","city":"Preston","state":"Idaho","stateCode":"ID","county":"Preston County","lat":42.1109,"lng":-111.8565,"timezone":"America/Boise","areaCode":"208","population":0,"elevation":1500,"type":"Standard"},{"zip":"83271","city":"Rockland","state":"Idaho","stateCode":"ID","county":"Rockland County","lat":42.5556,"lng":-112.854,"timezone":"America/Boise","areaCode":"208","population":0,"elevation":1500,"type":"Standard"},{"zip":"83272","city":"Saint Charles","state":"Idaho","stateCode":"ID","county":"Saint Charles County","lat":42.1128,"lng":-111.3897,"timezone":"America/Boise","areaCode":"208","population":0,"elevation":1500,"type":"Standard"},{"zip":"83274","city":"Shelley","state":"Idaho","stateCode":"ID","county":"Shelley County","lat":43.3769,"lng":-112.1075,"timezone":"America/Denver","areaCode":"208","population":0,"elevation":1500,"type":"Standard"},{"zip":"83276","city":"Soda Springs","state":"Idaho","stateCode":"ID","county":"Soda Springs County","lat":42.6718,"lng":-111.5699,"timezone":"America/Boise","areaCode":"208","population":0,"elevation":1500,"type":"Standard"},{"zip":"83277","city":"Springfield","state":"Idaho","stateCode":"ID","county":"Springfield County","lat":43.0803,"lng":-112.673,"timezone":"America/Boise","areaCode":"208","population":0,"elevation":1500,"type":"Standard"},{"zip":"83278","city":"Stanley","state":"Idaho","stateCode":"ID","county":"Stanley County","lat":44.3714,"lng":-114.8561,"timezone":"America/Boise","areaCode":"208","population":0,"elevation":1500,"type":"Standard"},{"zip":"83281","city":"Swanlake","state":"Idaho","stateCode":"ID","county":"Swanlake County","lat":42.3195,"lng":-111.9781,"timezone":"America/Boise","areaCode":"208","population":0,"elevation":1500,"type":"Standard"},{"zip":"83283","city":"Thatcher","state":"Idaho","stateCode":"ID","county":"Thatcher County","lat":42.3794,"lng":-111.6841,"timezone":"America/Boise","areaCode":"208","population":0,"elevation":1500,"type":"Standard"},{"zip":"83285","city":"Wayan","state":"Idaho","stateCode":"ID","county":"Wayan County","lat":43.0269,"lng":-111.2541,"timezone":"America/Denver","areaCode":"208","population":0,"elevation":1500,"type":"Standard"},{"zip":"83286","city":"Weston","state":"Idaho","stateCode":"ID","county":"Weston County","lat":42.0446,"lng":-111.9715,"timezone":"America/Boise","areaCode":"208","population":0,"elevation":1500,"type":"Standard"},{"zip":"83287","city":"Fish Haven","state":"Idaho","stateCode":"ID","county":"Fish Haven County","lat":42.0459,"lng":-111.4633,"timezone":"America/Boise","areaCode":"208","population":0,"elevation":1500,"type":"Standard"},{"zip":"83301","city":"Twin Falls","state":"Idaho","stateCode":"ID","county":"Twin Falls County","lat":42.5565,"lng":-114.4693,"timezone":"America/Boise","areaCode":"208","population":0,"elevation":1500,"type":"Standard"},{"zip":"83302","city":"Rogerson","state":"Idaho","stateCode":"ID","county":"Rogerson County","lat":42.218,"lng":-114.5942,"timezone":"America/Boise","areaCode":"208","population":0,"elevation":1500,"type":"Standard"},{"zip":"83303","city":"Twin Falls","state":"Idaho","stateCode":"ID","county":"Twin Falls County","lat":42.563,"lng":-114.4609,"timezone":"America/Boise","areaCode":"208","population":0,"elevation":1500,"type":"Standard"},{"zip":"83311","city":"Albion","state":"Idaho","stateCode":"ID","county":"Albion County","lat":42.3896,"lng":-113.5567,"timezone":"America/Boise","areaCode":"208","population":0,"elevation":1500,"type":"Standard"},{"zip":"83312","city":"Almo","state":"Idaho","stateCode":"ID","county":"Almo County","lat":42.0846,"lng":-113.6283,"timezone":"America/Boise","areaCode":"208","population":0,"elevation":1500,"type":"Standard"},{"zip":"83313","city":"Bellevue","state":"Idaho","stateCode":"ID","county":"King County","lat":43.4397,"lng":-114.2498,"timezone":"America/Boise","areaCode":"208","population":0,"elevation":1500,"type":"Standard"},{"zip":"83314","city":"Bliss","state":"Idaho","stateCode":"ID","county":"Bliss County","lat":42.9449,"lng":-114.9104,"timezone":"America/Boise","areaCode":"208","population":0,"elevation":1500,"type":"Standard"},{"zip":"83316","city":"Buhl","state":"Idaho","stateCode":"ID","county":"Buhl County","lat":42.6008,"lng":-114.7825,"timezone":"America/Boise","areaCode":"208","population":0,"elevation":1500,"type":"Standard"},{"zip":"83318","city":"Burley","state":"Idaho","stateCode":"ID","county":"Burley County","lat":42.5244,"lng":-113.7931,"timezone":"America/Boise","areaCode":"208","population":0,"elevation":1500,"type":"Standard"},{"zip":"83320","city":"Carey","state":"Idaho","stateCode":"ID","county":"Carey County","lat":43.2744,"lng":-113.8926,"timezone":"America/Boise","areaCode":"208","population":0,"elevation":1500,"type":"Standard"},{"zip":"83321","city":"Castleford","state":"Idaho","stateCode":"ID","county":"Castleford County","lat":42.521,"lng":-114.8734,"timezone":"America/Boise","areaCode":"208","population":0,"elevation":1500,"type":"Standard"},{"zip":"83322","city":"Corral","state":"Idaho","stateCode":"ID","county":"Corral County","lat":43.5282,"lng":-114.7307,"timezone":"America/Boise","areaCode":"208","population":0,"elevation":1500,"type":"Standard"},{"zip":"83323","city":"Declo","state":"Idaho","stateCode":"ID","county":"Declo County","lat":42.5245,"lng":-113.4338,"timezone":"America/Boise","areaCode":"208","population":0,"elevation":1500,"type":"Standard"},{"zip":"83324","city":"Dietrich","state":"Idaho","stateCode":"ID","county":"Dietrich County","lat":42.9125,"lng":-114.2664,"timezone":"America/Boise","areaCode":"208","population":0,"elevation":1500,"type":"Standard"},{"zip":"83325","city":"Eden","state":"Idaho","stateCode":"ID","county":"Eden County","lat":42.5868,"lng":-114.2467,"timezone":"America/Boise","areaCode":"208","population":0,"elevation":1500,"type":"Standard"},{"zip":"83327","city":"Fairfield","state":"Idaho","stateCode":"ID","county":"Fairfield County","lat":43.3675,"lng":-114.7908,"timezone":"America/Boise","areaCode":"208","population":0,"elevation":1500,"type":"Standard"},{"zip":"83328","city":"Filer","state":"Idaho","stateCode":"ID","county":"Filer County","lat":42.5653,"lng":-114.614,"timezone":"America/Boise","areaCode":"208","population":0,"elevation":1500,"type":"Standard"},{"zip":"83330","city":"Gooding","state":"Idaho","stateCode":"ID","county":"Gooding County","lat":42.9373,"lng":-114.712,"timezone":"America/Boise","areaCode":"208","population":0,"elevation":1500,"type":"Standard"},{"zip":"83332","city":"Hagerman","state":"Idaho","stateCode":"ID","county":"Hagerman County","lat":42.8142,"lng":-114.887,"timezone":"America/Denver","areaCode":"208","population":0,"elevation":1500,"type":"Standard"},{"zip":"83333","city":"Hailey","state":"Idaho","stateCode":"ID","county":"Hailey County","lat":43.5239,"lng":-114.3064,"timezone":"America/Boise","areaCode":"208","population":0,"elevation":1500,"type":"Standard"},{"zip":"83334","city":"Hansen","state":"Idaho","stateCode":"ID","county":"Hansen County","lat":42.5249,"lng":-114.2994,"timezone":"America/Denver","areaCode":"208","population":0,"elevation":1500,"type":"Standard"},{"zip":"83335","city":"Hazelton","state":"Idaho","stateCode":"ID","county":"Hazelton County","lat":42.5955,"lng":-114.135,"timezone":"America/Boise","areaCode":"208","population":0,"elevation":1500,"type":"Standard"},{"zip":"83336","city":"Heyburn","state":"Idaho","stateCode":"ID","county":"Heyburn County","lat":42.5599,"lng":-113.7709,"timezone":"America/Boise","areaCode":"208","population":0,"elevation":1500,"type":"Standard"},{"zip":"83337","city":"Hill City","state":"Idaho","stateCode":"ID","county":"Hill City County","lat":43.3005,"lng":-115.0512,"timezone":"America/Boise","areaCode":"208","population":0,"elevation":400,"type":"Standard"},{"zip":"83338","city":"Jerome","state":"Idaho","stateCode":"ID","county":"Jerome County","lat":42.7178,"lng":-114.5012,"timezone":"America/Boise","areaCode":"208","population":0,"elevation":1500,"type":"Standard"},{"zip":"83340","city":"Ketchum","state":"Idaho","stateCode":"ID","county":"Ketchum County","lat":43.6692,"lng":-114.4858,"timezone":"America/Boise","areaCode":"208","population":0,"elevation":1500,"type":"Standard"},{"zip":"83341","city":"Kimberly","state":"Idaho","stateCode":"ID","county":"Kimberly County","lat":42.5287,"lng":-114.3657,"timezone":"America/Boise","areaCode":"208","population":0,"elevation":1500,"type":"Standard"},{"zip":"83342","city":"Malta","state":"Idaho","stateCode":"ID","county":"Malta County","lat":42.2741,"lng":-113.3927,"timezone":"America/Boise","areaCode":"208","population":0,"elevation":1500,"type":"Standard"},{"zip":"83343","city":"Minidoka","state":"Idaho","stateCode":"ID","county":"Minidoka County","lat":42.773,"lng":-113.5098,"timezone":"America/Boise","areaCode":"208","population":0,"elevation":1500,"type":"Standard"},{"zip":"83344","city":"Murtaugh","state":"Idaho","stateCode":"ID","county":"Murtaugh County","lat":42.4776,"lng":-114.1606,"timezone":"America/Boise","areaCode":"208","population":0,"elevation":1500,"type":"Standard"},{"zip":"83346","city":"Oakley","state":"Idaho","stateCode":"ID","county":"Oakley County","lat":42.194,"lng":-113.872,"timezone":"America/Boise","areaCode":"208","population":0,"elevation":1500,"type":"Standard"},{"zip":"83347","city":"Paul","state":"Idaho","stateCode":"ID","county":"Paul County","lat":42.624,"lng":-113.7971,"timezone":"America/Denver","areaCode":"208","population":0,"elevation":1500,"type":"Standard"},{"zip":"83348","city":"Picabo","state":"Idaho","stateCode":"ID","county":"Picabo County","lat":43.3101,"lng":-114.0861,"timezone":"America/Boise","areaCode":"208","population":0,"elevation":1500,"type":"Standard"},{"zip":"83349","city":"Richfield","state":"Idaho","stateCode":"ID","county":"Richfield County","lat":43.0588,"lng":-114.1508,"timezone":"America/Boise","areaCode":"208","population":0,"elevation":1500,"type":"Standard"},{"zip":"83350","city":"Rupert","state":"Idaho","stateCode":"ID","county":"Rupert County","lat":42.6888,"lng":-113.6481,"timezone":"America/Denver","areaCode":"208","population":0,"elevation":1500,"type":"Standard"},{"zip":"83352","city":"Shoshone","state":"Idaho","stateCode":"ID","county":"Shoshone County","lat":42.9474,"lng":-114.3822,"timezone":"America/Boise","areaCode":"208","population":0,"elevation":1500,"type":"Standard"},{"zip":"83353","city":"Sun Valley","state":"Idaho","stateCode":"ID","county":"Sun Valley County","lat":43.6853,"lng":-114.3313,"timezone":"America/Boise","areaCode":"208","population":0,"elevation":1500,"type":"Standard"},{"zip":"83354","city":"Sun Valley","state":"Idaho","stateCode":"ID","county":"Sun Valley County","lat":43.5946,"lng":-114.3226,"timezone":"America/Boise","areaCode":"208","population":0,"elevation":1500,"type":"Standard"},{"zip":"83355","city":"Wendell","state":"Idaho","stateCode":"ID","county":"Wendell County","lat":42.7579,"lng":-114.7154,"timezone":"America/Boise","areaCode":"208","population":0,"elevation":1500,"type":"Standard"},{"zip":"83401","city":"Idaho Falls","state":"Idaho","stateCode":"ID","county":"Idaho Falls County","lat":43.5518,"lng":-111.8919,"timezone":"America/Boise","areaCode":"208","population":0,"elevation":1500,"type":"Standard"},{"zip":"83402","city":"Idaho Falls","state":"Idaho","stateCode":"ID","county":"Idaho Falls County","lat":43.4934,"lng":-112.0578,"timezone":"America/Boise","areaCode":"208","population":0,"elevation":1500,"type":"Standard"},{"zip":"83403","city":"Idaho Falls","state":"Idaho","stateCode":"ID","county":"Idaho Falls County","lat":43.4666,"lng":-112.0341,"timezone":"America/Boise","areaCode":"208","population":0,"elevation":1500,"type":"Standard"},{"zip":"83404","city":"Idaho Falls","state":"Idaho","stateCode":"ID","county":"Idaho Falls County","lat":43.475,"lng":-112.0124,"timezone":"America/Boise","areaCode":"208","population":0,"elevation":1500,"type":"Standard"},{"zip":"83405","city":"Idaho Falls","state":"Idaho","stateCode":"ID","county":"Idaho Falls County","lat":43.4666,"lng":-112.0341,"timezone":"America/Boise","areaCode":"208","population":0,"elevation":1500,"type":"Standard"},{"zip":"83406","city":"Idaho Falls","state":"Idaho","stateCode":"ID","county":"Idaho Falls County","lat":43.4732,"lng":-111.9661,"timezone":"America/Boise","areaCode":"208","population":0,"elevation":1500,"type":"Standard"},{"zip":"83415","city":"Idaho Falls","state":"Idaho","stateCode":"ID","county":"Idaho Falls County","lat":43.4666,"lng":-112.0341,"timezone":"America/Boise","areaCode":"208","population":0,"elevation":1500,"type":"Standard"},{"zip":"83420","city":"Ashton","state":"Idaho","stateCode":"ID","county":"Ashton County","lat":44.0153,"lng":-111.4253,"timezone":"America/Boise","areaCode":"208","population":0,"elevation":1500,"type":"Standard"},{"zip":"83421","city":"Chester","state":"Idaho","stateCode":"ID","county":"Chester County","lat":44.0011,"lng":-111.5351,"timezone":"America/Boise","areaCode":"208","population":0,"elevation":1500,"type":"Standard"},{"zip":"83422","city":"Driggs","state":"Idaho","stateCode":"ID","county":"Driggs County","lat":43.7263,"lng":-111.1199,"timezone":"America/Boise","areaCode":"208","population":0,"elevation":1500,"type":"Standard"},{"zip":"83423","city":"Dubois","state":"Idaho","stateCode":"ID","county":"Dubois County","lat":44.1858,"lng":-112.3259,"timezone":"America/Boise","areaCode":"208","population":0,"elevation":1500,"type":"Standard"},{"zip":"83424","city":"Felt","state":"Idaho","stateCode":"ID","county":"Felt County","lat":43.8724,"lng":-111.1895,"timezone":"America/Boise","areaCode":"208","population":0,"elevation":1500,"type":"Standard"},{"zip":"83425","city":"Hamer","state":"Idaho","stateCode":"ID","county":"Hamer County","lat":43.9308,"lng":-112.1872,"timezone":"America/Boise","areaCode":"208","population":0,"elevation":1500,"type":"Standard"},{"zip":"83427","city":"Iona","state":"Idaho","stateCode":"ID","county":"Iona County","lat":43.5263,"lng":-111.933,"timezone":"America/Boise","areaCode":"208","population":0,"elevation":1500,"type":"Standard"},{"zip":"83428","city":"Irwin","state":"Idaho","stateCode":"ID","county":"Irwin County","lat":43.3861,"lng":-111.2527,"timezone":"America/Boise","areaCode":"208","population":0,"elevation":1500,"type":"Standard"},{"zip":"83429","city":"Island Park","state":"Idaho","stateCode":"ID","county":"Island Park County","lat":44.4466,"lng":-111.3679,"timezone":"America/Boise","areaCode":"208","population":0,"elevation":1500,"type":"Standard"},{"zip":"83431","city":"Lewisville","state":"Idaho","stateCode":"ID","county":"Lewisville County","lat":43.6725,"lng":-112.0189,"timezone":"America/Boise","areaCode":"208","population":0,"elevation":1500,"type":"Standard"},{"zip":"83433","city":"Macks Inn","state":"Idaho","stateCode":"ID","county":"Macks Inn County","lat":44.3192,"lng":-111.6017,"timezone":"America/Boise","areaCode":"208","population":0,"elevation":1500,"type":"Standard"},{"zip":"83434","city":"Menan","state":"Idaho","stateCode":"ID","county":"Menan County","lat":43.7266,"lng":-111.9837,"timezone":"America/Boise","areaCode":"208","population":0,"elevation":1500,"type":"Standard"},{"zip":"83435","city":"Monteview","state":"Idaho","stateCode":"ID","county":"Monteview County","lat":43.9862,"lng":-112.5783,"timezone":"America/Boise","areaCode":"208","population":0,"elevation":1500,"type":"Standard"},{"zip":"83436","city":"Newdale","state":"Idaho","stateCode":"ID","county":"Newdale County","lat":43.8881,"lng":-111.6042,"timezone":"America/Denver","areaCode":"208","population":0,"elevation":1500,"type":"Standard"},{"zip":"83438","city":"Parker","state":"Idaho","stateCode":"ID","county":"Parker County","lat":43.9594,"lng":-111.7577,"timezone":"America/Boise","areaCode":"208","population":0,"elevation":1500,"type":"Standard"},{"zip":"83440","city":"Rexburg","state":"Idaho","stateCode":"ID","county":"Rexburg County","lat":43.81,"lng":-111.789,"timezone":"America/Boise","areaCode":"208","population":0,"elevation":1500,"type":"Standard"},{"zip":"83441","city":"Rexburg","state":"Idaho","stateCode":"ID","county":"Rexburg County","lat":43.7761,"lng":-111.691,"timezone":"America/Boise","areaCode":"208","population":0,"elevation":1500,"type":"Standard"},{"zip":"83442","city":"Rigby","state":"Idaho","stateCode":"ID","county":"Rigby County","lat":43.6715,"lng":-111.9005,"timezone":"America/Boise","areaCode":"208","population":0,"elevation":1500,"type":"Standard"},{"zip":"83443","city":"Ririe","state":"Idaho","stateCode":"ID","county":"Ririe County","lat":43.5197,"lng":-111.5266,"timezone":"America/Denver","areaCode":"208","population":0,"elevation":1500,"type":"Standard"},{"zip":"83444","city":"Roberts","state":"Idaho","stateCode":"ID","county":"Roberts County","lat":43.7116,"lng":-112.1196,"timezone":"America/Boise","areaCode":"208","population":0,"elevation":1500,"type":"Standard"},{"zip":"83445","city":"Saint Anthony","state":"Idaho","stateCode":"ID","county":"Saint Anthony County","lat":43.963,"lng":-111.7036,"timezone":"America/Boise","areaCode":"208","population":0,"elevation":1500,"type":"Standard"},{"zip":"83446","city":"Spencer","state":"Idaho","stateCode":"ID","county":"Spencer County","lat":44.3605,"lng":-112.1869,"timezone":"America/Boise","areaCode":"208","population":0,"elevation":1500,"type":"Standard"},{"zip":"83448","city":"Sugar City","state":"Idaho","stateCode":"ID","county":"Sugar City County","lat":43.8477,"lng":-111.6932,"timezone":"America/Boise","areaCode":"208","population":0,"elevation":1500,"type":"Standard"},{"zip":"83449","city":"Swan Valley","state":"Idaho","stateCode":"ID","county":"Swan Valley County","lat":43.456,"lng":-111.3416,"timezone":"America/Boise","areaCode":"208","population":0,"elevation":1500,"type":"Standard"},{"zip":"83450","city":"Terreton","state":"Idaho","stateCode":"ID","county":"Terreton County","lat":43.8586,"lng":-112.42,"timezone":"America/Boise","areaCode":"208","population":0,"elevation":1500,"type":"Standard"},{"zip":"83451","city":"Teton","state":"Idaho","stateCode":"ID","county":"Teton County","lat":43.8907,"lng":-111.6504,"timezone":"America/Boise","areaCode":"208","population":0,"elevation":1500,"type":"Standard"},{"zip":"83452","city":"Tetonia","state":"Idaho","stateCode":"ID","county":"Tetonia County","lat":43.7814,"lng":-111.2118,"timezone":"America/Boise","areaCode":"208","population":0,"elevation":1500,"type":"Standard"},{"zip":"83454","city":"Ucon","state":"Idaho","stateCode":"ID","county":"Ucon County","lat":43.5936,"lng":-111.9573,"timezone":"America/Boise","areaCode":"208","population":0,"elevation":1500,"type":"Standard"},{"zip":"83455","city":"Victor","state":"Idaho","stateCode":"ID","county":"Victor County","lat":43.6148,"lng":-111.1259,"timezone":"America/Boise","areaCode":"208","population":0,"elevation":1500,"type":"Standard"},{"zip":"83460","city":"Rexburg","state":"Idaho","stateCode":"ID","county":"Rexburg County","lat":43.826,"lng":-111.7897,"timezone":"America/Boise","areaCode":"208","population":0,"elevation":1500,"type":"Standard"},{"zip":"83462","city":"Carmen","state":"Idaho","stateCode":"ID","county":"Carmen County","lat":45.255,"lng":-113.8573,"timezone":"America/Boise","areaCode":"208","population":0,"elevation":100,"type":"Standard"},{"zip":"83463","city":"Gibbonsville","state":"Idaho","stateCode":"ID","county":"Gibbonsville County","lat":45.5704,"lng":-113.9913,"timezone":"America/Boise","areaCode":"208","population":0,"elevation":100,"type":"Standard"},{"zip":"83464","city":"Leadore","state":"Idaho","stateCode":"ID","county":"Leadore County","lat":44.7389,"lng":-113.4926,"timezone":"America/Boise","areaCode":"208","population":0,"elevation":1500,"type":"Standard"},{"zip":"83465","city":"Lemhi","state":"Idaho","stateCode":"ID","county":"Lemhi County","lat":44.8516,"lng":-113.6198,"timezone":"America/Boise","areaCode":"208","population":0,"elevation":1500,"type":"Standard"},{"zip":"83466","city":"North Fork","state":"Idaho","stateCode":"ID","county":"North Fork County","lat":45.4242,"lng":-114.0419,"timezone":"America/Boise","areaCode":"208","population":0,"elevation":100,"type":"Standard"},{"zip":"83467","city":"Salmon","state":"Idaho","stateCode":"ID","county":"Salmon County","lat":45.1571,"lng":-113.8784,"timezone":"America/Boise","areaCode":"208","population":0,"elevation":100,"type":"Standard"},{"zip":"83468","city":"Tendoy","state":"Idaho","stateCode":"ID","county":"Tendoy County","lat":44.9681,"lng":-113.8167,"timezone":"America/Boise","areaCode":"208","population":0,"elevation":1500,"type":"Standard"},{"zip":"83469","city":"Shoup","state":"Idaho","stateCode":"ID","county":"Shoup County","lat":45.3769,"lng":-114.277,"timezone":"America/Boise","areaCode":"208","population":0,"elevation":100,"type":"Standard"},{"zip":"83501","city":"Lewiston","state":"Idaho","stateCode":"ID","county":"Lewiston County","lat":46.3646,"lng":-116.8609,"timezone":"America/Los_Angeles","areaCode":"208","population":0,"elevation":400,"type":"Standard"},{"zip":"83520","city":"Ahsahka","state":"Idaho","stateCode":"ID","county":"Ahsahka County","lat":46.5394,"lng":-116.3233,"timezone":"America/Los_Angeles","areaCode":"208","population":0,"elevation":400,"type":"Standard"},{"zip":"83522","city":"Cottonwood","state":"Idaho","stateCode":"ID","county":"Cottonwood County","lat":46.0448,"lng":-116.3733,"timezone":"America/Los_Angeles","areaCode":"208","population":0,"elevation":400,"type":"Standard"},{"zip":"83523","city":"Craigmont","state":"Idaho","stateCode":"ID","county":"Craigmont County","lat":46.2453,"lng":-116.4677,"timezone":"America/Los_Angeles","areaCode":"208","population":0,"elevation":400,"type":"Standard"},{"zip":"83524","city":"Culdesac","state":"Idaho","stateCode":"ID","county":"Culdesac County","lat":46.378,"lng":-116.6536,"timezone":"America/Los_Angeles","areaCode":"208","population":0,"elevation":400,"type":"Standard"},{"zip":"83525","city":"Elk City","state":"Idaho","stateCode":"ID","county":"Elk City County","lat":45.7896,"lng":-115.5024,"timezone":"America/Los_Angeles","areaCode":"208","population":0,"elevation":400,"type":"Standard"},{"zip":"83526","city":"Ferdinand","state":"Idaho","stateCode":"ID","county":"Ferdinand County","lat":46.1349,"lng":-116.3982,"timezone":"America/Los_Angeles","areaCode":"208","population":0,"elevation":400,"type":"Standard"},{"zip":"83530","city":"Grangeville","state":"Idaho","stateCode":"ID","county":"Grangeville County","lat":45.9272,"lng":-116.1076,"timezone":"America/Los_Angeles","areaCode":"208","population":0,"elevation":400,"type":"Standard"},{"zip":"83531","city":"Fenn","state":"Idaho","stateCode":"ID","county":"Fenn County","lat":45.9632,"lng":-116.2563,"timezone":"America/Los_Angeles","areaCode":"208","population":0,"elevation":400,"type":"Standard"},{"zip":"83533","city":"Greencreek","state":"Idaho","stateCode":"ID","county":"Greencreek County","lat":46.1155,"lng":-116.2724,"timezone":"America/Los_Angeles","areaCode":"208","population":0,"elevation":400,"type":"Standard"},{"zip":"83535","city":"Juliaetta","state":"Idaho","stateCode":"ID","county":"Juliaetta County","lat":46.5754,"lng":-116.7188,"timezone":"America/Los_Angeles","areaCode":"208","population":0,"elevation":400,"type":"Standard"},{"zip":"83536","city":"Kamiah","state":"Idaho","stateCode":"ID","county":"Kamiah County","lat":46.2186,"lng":-116.0347,"timezone":"America/Los_Angeles","areaCode":"208","population":0,"elevation":400,"type":"Standard"},{"zip":"83537","city":"Kendrick","state":"Idaho","stateCode":"ID","county":"Kendrick County","lat":46.6286,"lng":-116.6049,"timezone":"America/Los_Angeles","areaCode":"208","population":0,"elevation":400,"type":"Standard"},{"zip":"83539","city":"Kooskia","state":"Idaho","stateCode":"ID","county":"Kooskia County","lat":46.116,"lng":-115.9459,"timezone":"America/Los_Angeles","areaCode":"208","population":0,"elevation":400,"type":"Standard"},{"zip":"83540","city":"Lapwai","state":"Idaho","stateCode":"ID","county":"Lapwai County","lat":46.4124,"lng":-116.7902,"timezone":"America/Los_Angeles","areaCode":"208","population":0,"elevation":400,"type":"Standard"},{"zip":"83541","city":"Lenore","state":"Idaho","stateCode":"ID","county":"Lenore County","lat":46.5354,"lng":-116.513,"timezone":"America/Los_Angeles","areaCode":"208","population":0,"elevation":400,"type":"Standard"},{"zip":"83542","city":"Lucile","state":"Idaho","stateCode":"ID","county":"Lucile County","lat":45.557,"lng":-116.2669,"timezone":"America/Los_Angeles","areaCode":"208","population":0,"elevation":400,"type":"Standard"},{"zip":"83543","city":"Nezperce","state":"Idaho","stateCode":"ID","county":"Nezperce County","lat":46.2475,"lng":-116.2393,"timezone":"America/Los_Angeles","areaCode":"208","population":0,"elevation":400,"type":"Standard"},{"zip":"83544","city":"Orofino","state":"Idaho","stateCode":"ID","county":"Orofino County","lat":46.4952,"lng":-116.2404,"timezone":"America/Los_Angeles","areaCode":"208","population":0,"elevation":400,"type":"Standard"},{"zip":"83545","city":"Peck","state":"Idaho","stateCode":"ID","county":"Peck County","lat":46.4807,"lng":-116.4114,"timezone":"America/Los_Angeles","areaCode":"208","population":0,"elevation":400,"type":"Standard"},{"zip":"83546","city":"Pierce","state":"Idaho","stateCode":"ID","county":"Pierce County","lat":46.4924,"lng":-115.8071,"timezone":"America/Los_Angeles","areaCode":"208","population":0,"elevation":400,"type":"Standard"},{"zip":"83547","city":"Pollock","state":"Idaho","stateCode":"ID","county":"Pollock County","lat":45.3068,"lng":-116.3517,"timezone":"America/Denver","areaCode":"208","population":0,"elevation":400,"type":"Standard"},{"zip":"83548","city":"Reubens","state":"Idaho","stateCode":"ID","county":"Reubens County","lat":46.3361,"lng":-116.5333,"timezone":"America/Los_Angeles","areaCode":"208","population":0,"elevation":400,"type":"Standard"},{"zip":"83549","city":"Riggins","state":"Idaho","stateCode":"ID","county":"Riggins County","lat":45.397,"lng":-116.3006,"timezone":"America/Los_Angeles","areaCode":"208","population":0,"elevation":400,"type":"Standard"},{"zip":"83552","city":"Stites","state":"Idaho","stateCode":"ID","county":"Stites County","lat":46.002,"lng":-115.9269,"timezone":"America/Los_Angeles","areaCode":"208","population":0,"elevation":400,"type":"Standard"},{"zip":"83553","city":"Weippe","state":"Idaho","stateCode":"ID","county":"Weippe County","lat":46.3807,"lng":-115.9386,"timezone":"America/Los_Angeles","areaCode":"208","population":0,"elevation":400,"type":"Standard"},{"zip":"83554","city":"White Bird","state":"Idaho","stateCode":"ID","county":"White Bird County","lat":45.7521,"lng":-116.2889,"timezone":"America/Los_Angeles","areaCode":"208","population":0,"elevation":400,"type":"Standard"},{"zip":"83555","city":"Winchester","state":"Idaho","stateCode":"ID","county":"Winchester County","lat":46.2383,"lng":-116.6204,"timezone":"America/Los_Angeles","areaCode":"208","population":0,"elevation":400,"type":"Standard"},{"zip":"83601","city":"Atlanta","state":"Idaho","stateCode":"ID","county":"Fulton County","lat":43.8479,"lng":-115.2538,"timezone":"America/Boise","areaCode":"208","population":0,"elevation":400,"type":"Standard"},{"zip":"83602","city":"Banks","state":"Idaho","stateCode":"ID","county":"Banks County","lat":44.0804,"lng":-116.124,"timezone":"America/Boise","areaCode":"208","population":0,"elevation":400,"type":"Standard"},{"zip":"83604","city":"Bruneau","state":"Idaho","stateCode":"ID","county":"Bruneau County","lat":42.614,"lng":-115.8419,"timezone":"America/Boise","areaCode":"208","population":0,"elevation":400,"type":"Standard"},{"zip":"83605","city":"Caldwell","state":"Idaho","stateCode":"ID","county":"Caldwell County","lat":43.6627,"lng":-116.7,"timezone":"America/Boise","areaCode":"208","population":0,"elevation":400,"type":"Standard"},{"zip":"83606","city":"Caldwell","state":"Idaho","stateCode":"ID","county":"Caldwell County","lat":43.7249,"lng":-116.7989,"timezone":"America/Boise","areaCode":"208","population":0,"elevation":400,"type":"Standard"},{"zip":"83607","city":"Caldwell","state":"Idaho","stateCode":"ID","county":"Caldwell County","lat":43.6186,"lng":-116.7501,"timezone":"America/Boise","areaCode":"208","population":0,"elevation":400,"type":"Standard"},{"zip":"83610","city":"Cambridge","state":"Idaho","stateCode":"ID","county":"Cambridge County","lat":44.5922,"lng":-116.6757,"timezone":"America/Boise","areaCode":"208","population":0,"elevation":400,"type":"Standard"},{"zip":"83611","city":"Cascade","state":"Idaho","stateCode":"ID","county":"Cascade County","lat":44.6927,"lng":-115.6417,"timezone":"America/Boise","areaCode":"208","population":0,"elevation":400,"type":"Standard"},{"zip":"83612","city":"Council","state":"Idaho","stateCode":"ID","county":"Council County","lat":44.7628,"lng":-116.4518,"timezone":"America/Boise","areaCode":"208","population":0,"elevation":400,"type":"Standard"},{"zip":"83615","city":"Donnelly","state":"Idaho","stateCode":"ID","county":"Donnelly County","lat":44.6659,"lng":-116.0369,"timezone":"America/Boise","areaCode":"208","population":0,"elevation":400,"type":"Standard"},{"zip":"83616","city":"Eagle","state":"Idaho","stateCode":"ID","county":"Eagle County","lat":43.7069,"lng":-116.362,"timezone":"America/Boise","areaCode":"208","population":0,"elevation":400,"type":"Standard"},{"zip":"83617","city":"Emmett","state":"Idaho","stateCode":"ID","county":"Emmett County","lat":43.9089,"lng":-116.4927,"timezone":"America/Boise","areaCode":"208","population":0,"elevation":400,"type":"Standard"},{"zip":"83619","city":"Fruitland","state":"Idaho","stateCode":"ID","county":"Fruitland County","lat":44.0027,"lng":-116.9143,"timezone":"America/Boise","areaCode":"208","population":0,"elevation":400,"type":"Standard"},{"zip":"83622","city":"Garden Valley","state":"Idaho","stateCode":"ID","county":"Garden Valley County","lat":44.0909,"lng":-115.8243,"timezone":"America/Boise","areaCode":"208","population":0,"elevation":400,"type":"Standard"},{"zip":"83623","city":"Glenns Ferry","state":"Idaho","stateCode":"ID","county":"Glenns Ferry County","lat":42.9622,"lng":-115.316,"timezone":"America/Boise","areaCode":"208","population":0,"elevation":400,"type":"Standard"},{"zip":"83624","city":"Grand View","state":"Idaho","stateCode":"ID","county":"Grand View County","lat":42.9896,"lng":-116.0934,"timezone":"America/Boise","areaCode":"208","population":0,"elevation":400,"type":"Standard"},{"zip":"83626","city":"Greenleaf","state":"Idaho","stateCode":"ID","county":"Greenleaf County","lat":43.669,"lng":-116.8315,"timezone":"America/Boise","areaCode":"208","population":0,"elevation":400,"type":"Standard"},{"zip":"83627","city":"Hammett","state":"Idaho","stateCode":"ID","county":"Hammett County","lat":42.9457,"lng":-115.4662,"timezone":"America/Boise","areaCode":"208","population":0,"elevation":400,"type":"Standard"},{"zip":"83628","city":"Homedale","state":"Idaho","stateCode":"ID","county":"Homedale County","lat":43.6138,"lng":-116.9472,"timezone":"America/Boise","areaCode":"208","population":0,"elevation":400,"type":"Standard"},{"zip":"83629","city":"Horseshoe Bend","state":"Idaho","stateCode":"ID","county":"Horseshoe Bend County","lat":43.9229,"lng":-116.1809,"timezone":"America/Boise","areaCode":"208","population":0,"elevation":400,"type":"Standard"},{"zip":"83630","city":"Huston","state":"Idaho","stateCode":"ID","county":"Huston County","lat":43.6027,"lng":-116.7903,"timezone":"America/Boise","areaCode":"208","population":0,"elevation":400,"type":"Standard"},{"zip":"83631","city":"Idaho City","state":"Idaho","stateCode":"ID","county":"Idaho City County","lat":43.8834,"lng":-115.708,"timezone":"America/Boise","areaCode":"208","population":0,"elevation":400,"type":"Standard"},{"zip":"83632","city":"Indian Valley","state":"Idaho","stateCode":"ID","county":"Indian Valley County","lat":44.5491,"lng":-116.443,"timezone":"America/Boise","areaCode":"208","population":0,"elevation":400,"type":"Standard"},{"zip":"83633","city":"King Hill","state":"Idaho","stateCode":"ID","county":"King Hill County","lat":42.9799,"lng":-115.1899,"timezone":"America/Boise","areaCode":"208","population":0,"elevation":400,"type":"Standard"},{"zip":"83634","city":"Kuna","state":"Idaho","stateCode":"ID","county":"Kuna County","lat":43.487,"lng":-116.3819,"timezone":"America/Boise","areaCode":"208","population":0,"elevation":400,"type":"Standard"},{"zip":"83635","city":"Lake Fork","state":"Idaho","stateCode":"ID","county":"Lake Fork County","lat":44.8327,"lng":-116.0848,"timezone":"America/Boise","areaCode":"208","population":0,"elevation":400,"type":"Standard"},{"zip":"83636","city":"Letha","state":"Idaho","stateCode":"ID","county":"Letha County","lat":43.8963,"lng":-116.6462,"timezone":"America/Boise","areaCode":"208","population":0,"elevation":400,"type":"Standard"},{"zip":"83637","city":"Lowman","state":"Idaho","stateCode":"ID","county":"Lowman County","lat":44.1106,"lng":-115.5285,"timezone":"America/Boise","areaCode":"208","population":0,"elevation":400,"type":"Standard"},{"zip":"83638","city":"Mccall","state":"Idaho","stateCode":"ID","county":"Mccall County","lat":44.8918,"lng":-116.0789,"timezone":"America/Boise","areaCode":"208","population":0,"elevation":400,"type":"Standard"},{"zip":"83639","city":"Marsing","state":"Idaho","stateCode":"ID","county":"Marsing County","lat":43.5399,"lng":-116.824,"timezone":"America/Boise","areaCode":"208","population":0,"elevation":400,"type":"Standard"},{"zip":"83641","city":"Melba","state":"Idaho","stateCode":"ID","county":"Melba County","lat":43.3784,"lng":-116.5489,"timezone":"America/Boise","areaCode":"208","population":0,"elevation":400,"type":"Standard"},{"zip":"83642","city":"Meridian","state":"Idaho","stateCode":"ID","county":"Meridian County","lat":43.615,"lng":-116.3975,"timezone":"America/Boise","areaCode":"208","population":0,"elevation":400,"type":"Standard"},{"zip":"83643","city":"Mesa","state":"Idaho","stateCode":"ID","county":"Mesa County","lat":44.6255,"lng":-116.4493,"timezone":"America/Boise","areaCode":"208","population":0,"elevation":400,"type":"Standard"},{"zip":"83644","city":"Middleton","state":"Idaho","stateCode":"ID","county":"Middleton County","lat":43.7191,"lng":-116.6112,"timezone":"America/Boise","areaCode":"208","population":0,"elevation":400,"type":"Standard"},{"zip":"83645","city":"Midvale","state":"Idaho","stateCode":"ID","county":"Midvale County","lat":44.442,"lng":-116.7038,"timezone":"America/Boise","areaCode":"208","population":0,"elevation":400,"type":"Standard"},{"zip":"83646","city":"Meridian","state":"Idaho","stateCode":"ID","county":"Meridian County","lat":43.6498,"lng":-116.4306,"timezone":"America/Boise","areaCode":"208","population":0,"elevation":400,"type":"Standard"},{"zip":"83647","city":"Mountain Home","state":"Idaho","stateCode":"ID","county":"Mountain Home County","lat":43.1392,"lng":-115.6963,"timezone":"America/Boise","areaCode":"208","population":0,"elevation":400,"type":"Standard"},{"zip":"83648","city":"Mountain Home A F B","state":"Idaho","stateCode":"ID","county":"Mountain Home A F B County","lat":43.7914,"lng":-116.4012,"timezone":"America/Boise","areaCode":"208","population":0,"elevation":400,"type":"Standard"},{"zip":"83650","city":"Murphy","state":"Idaho","stateCode":"ID","county":"Murphy County","lat":42.8481,"lng":-116.6371,"timezone":"America/Boise","areaCode":"208","population":0,"elevation":400,"type":"Standard"},{"zip":"83651","city":"Nampa","state":"Idaho","stateCode":"ID","county":"Nampa County","lat":43.5834,"lng":-116.5848,"timezone":"America/Boise","areaCode":"208","population":0,"elevation":400,"type":"Standard"},{"zip":"83652","city":"Nampa","state":"Idaho","stateCode":"ID","county":"Nampa County","lat":43.7071,"lng":-116.6208,"timezone":"America/Boise","areaCode":"208","population":0,"elevation":400,"type":"Standard"},{"zip":"83653","city":"Nampa","state":"Idaho","stateCode":"ID","county":"Nampa County","lat":43.5851,"lng":-116.753,"timezone":"America/Boise","areaCode":"208","population":0,"elevation":400,"type":"Standard"},{"zip":"83654","city":"New Meadows","state":"Idaho","stateCode":"ID","county":"New Meadows County","lat":44.994,"lng":-116.2874,"timezone":"America/Boise","areaCode":"208","population":0,"elevation":400,"type":"Standard"},{"zip":"83655","city":"New Plymouth","state":"Idaho","stateCode":"ID","county":"New Plymouth County","lat":43.959,"lng":-116.8048,"timezone":"America/Boise","areaCode":"208","population":0,"elevation":400,"type":"Standard"},{"zip":"83656","city":"Notus","state":"Idaho","stateCode":"ID","county":"Notus County","lat":43.7259,"lng":-116.7997,"timezone":"America/Boise","areaCode":"208","population":0,"elevation":400,"type":"Standard"},{"zip":"83657","city":"Ola","state":"Idaho","stateCode":"ID","county":"Ola County","lat":44.2418,"lng":-116.2732,"timezone":"America/Boise","areaCode":"208","population":0,"elevation":400,"type":"Standard"},{"zip":"83660","city":"Parma","state":"Idaho","stateCode":"ID","county":"Parma County","lat":43.7896,"lng":-116.9401,"timezone":"America/Denver","areaCode":"208","population":0,"elevation":400,"type":"Standard"},{"zip":"83661","city":"Payette","state":"Idaho","stateCode":"ID","county":"Payette County","lat":44.0782,"lng":-116.9203,"timezone":"America/Boise","areaCode":"208","population":0,"elevation":400,"type":"Standard"},{"zip":"83666","city":"Placerville","state":"Idaho","stateCode":"ID","county":"Placerville County","lat":43.9633,"lng":-115.9759,"timezone":"America/Boise","areaCode":"208","population":0,"elevation":400,"type":"Standard"},{"zip":"83669","city":"Star","state":"Idaho","stateCode":"ID","county":"Star County","lat":43.7013,"lng":-116.4967,"timezone":"America/Boise","areaCode":"208","population":0,"elevation":400,"type":"Standard"},{"zip":"83670","city":"Sweet","state":"Idaho","stateCode":"ID","county":"Sweet County","lat":43.9948,"lng":-116.3232,"timezone":"America/Boise","areaCode":"208","population":0,"elevation":400,"type":"Standard"},{"zip":"83671","city":"Warren","state":"Idaho","stateCode":"ID","county":"Warren County","lat":45.2641,"lng":-115.6765,"timezone":"America/Los_Angeles","areaCode":"208","population":0,"elevation":400,"type":"Standard"},{"zip":"83672","city":"Weiser","state":"Idaho","stateCode":"ID","county":"Weiser County","lat":44.2522,"lng":-116.9651,"timezone":"America/Boise","areaCode":"208","population":0,"elevation":400,"type":"Standard"},{"zip":"83676","city":"Wilder","state":"Idaho","stateCode":"ID","county":"Wilder County","lat":43.6579,"lng":-116.9122,"timezone":"America/Boise","areaCode":"208","population":0,"elevation":400,"type":"Standard"},{"zip":"83677","city":"Yellow Pine","state":"Idaho","stateCode":"ID","county":"Yellow Pine County","lat":44.9698,"lng":-115.4963,"timezone":"America/Boise","areaCode":"208","population":0,"elevation":400,"type":"Standard"},{"zip":"83680","city":"Meridian","state":"Idaho","stateCode":"ID","county":"Meridian County","lat":43.6121,"lng":-116.3915,"timezone":"America/Boise","areaCode":"208","population":0,"elevation":400,"type":"Standard"},{"zip":"83686","city":"Nampa","state":"Idaho","stateCode":"ID","county":"Nampa County","lat":43.5441,"lng":-116.566,"timezone":"America/Boise","areaCode":"208","population":0,"elevation":400,"type":"Standard"},{"zip":"83687","city":"Nampa","state":"Idaho","stateCode":"ID","county":"Nampa County","lat":43.5937,"lng":-116.536,"timezone":"America/Boise","areaCode":"208","population":0,"elevation":400,"type":"Standard"},{"zip":"83701","city":"Boise","state":"Idaho","stateCode":"ID","county":"Boise County","lat":43.6038,"lng":-116.2729,"timezone":"America/Boise","areaCode":"208","population":0,"elevation":400,"type":"Standard"},{"zip":"83702","city":"Boise","state":"Idaho","stateCode":"ID","county":"Boise County","lat":43.6322,"lng":-116.2052,"timezone":"America/Boise","areaCode":"208","population":0,"elevation":400,"type":"Standard"},{"zip":"83703","city":"Boise","state":"Idaho","stateCode":"ID","county":"Boise County","lat":43.6601,"lng":-116.2524,"timezone":"America/Boise","areaCode":"208","population":0,"elevation":400,"type":"Standard"},{"zip":"83704","city":"Boise","state":"Idaho","stateCode":"ID","county":"Boise County","lat":43.633,"lng":-116.2951,"timezone":"America/Boise","areaCode":"208","population":0,"elevation":400,"type":"Standard"},{"zip":"83705","city":"Boise","state":"Idaho","stateCode":"ID","county":"Boise County","lat":43.5851,"lng":-116.2191,"timezone":"America/Boise","areaCode":"208","population":0,"elevation":400,"type":"Standard"},{"zip":"83706","city":"Boise","state":"Idaho","stateCode":"ID","county":"Boise County","lat":43.5885,"lng":-116.191,"timezone":"America/Boise","areaCode":"208","population":0,"elevation":400,"type":"Standard"},{"zip":"83707","city":"Boise","state":"Idaho","stateCode":"ID","county":"Boise County","lat":43.6135,"lng":-116.2035,"timezone":"America/Boise","areaCode":"208","population":0,"elevation":400,"type":"Standard"},{"zip":"83708","city":"Boise","state":"Idaho","stateCode":"ID","county":"Boise County","lat":43.4599,"lng":-116.244,"timezone":"America/Boise","areaCode":"208","population":0,"elevation":400,"type":"Standard"},{"zip":"83709","city":"Boise","state":"Idaho","stateCode":"ID","county":"Boise County","lat":43.5741,"lng":-116.2941,"timezone":"America/Boise","areaCode":"208","population":0,"elevation":400,"type":"Standard"},{"zip":"83711","city":"Boise","state":"Idaho","stateCode":"ID","county":"Boise County","lat":43.4599,"lng":-116.244,"timezone":"America/Boise","areaCode":"208","population":0,"elevation":400,"type":"Standard"},{"zip":"83712","city":"Boise","state":"Idaho","stateCode":"ID","county":"Boise County","lat":43.6023,"lng":-116.1649,"timezone":"America/Boise","areaCode":"208","population":0,"elevation":400,"type":"Standard"},{"zip":"83713","city":"Boise","state":"Idaho","stateCode":"ID","county":"Boise County","lat":43.634,"lng":-116.3419,"timezone":"America/Boise","areaCode":"208","population":0,"elevation":400,"type":"Standard"},{"zip":"83714","city":"Garden City","state":"Idaho","stateCode":"ID","county":"Garden City County","lat":43.7318,"lng":-116.2797,"timezone":"America/Boise","areaCode":"208","population":0,"elevation":400,"type":"Standard"},{"zip":"83715","city":"Boise","state":"Idaho","stateCode":"ID","county":"Boise County","lat":43.4599,"lng":-116.244,"timezone":"America/Boise","areaCode":"208","population":0,"elevation":400,"type":"Standard"},{"zip":"83716","city":"Boise","state":"Idaho","stateCode":"ID","county":"Boise County","lat":43.5345,"lng":-115.9711,"timezone":"America/Boise","areaCode":"208","population":0,"elevation":400,"type":"Standard"},{"zip":"83717","city":"Boise","state":"Idaho","stateCode":"ID","county":"Boise County","lat":43.4599,"lng":-116.244,"timezone":"America/Boise","areaCode":"208","population":0,"elevation":400,"type":"Standard"},{"zip":"83719","city":"Boise","state":"Idaho","stateCode":"ID","county":"Boise County","lat":43.4599,"lng":-116.244,"timezone":"America/Boise","areaCode":"208","population":0,"elevation":400,"type":"Standard"},{"zip":"83720","city":"Boise","state":"Idaho","stateCode":"ID","county":"Boise County","lat":43.4599,"lng":-116.244,"timezone":"America/Boise","areaCode":"208","population":0,"elevation":400,"type":"Standard"},{"zip":"83721","city":"Boise","state":"Idaho","stateCode":"ID","county":"Boise County","lat":43.61,"lng":-116.2,"timezone":"America/Boise","areaCode":"208","population":0,"elevation":400,"type":"Standard"},{"zip":"83722","city":"Boise","state":"Idaho","stateCode":"ID","county":"Boise County","lat":43.4599,"lng":-116.244,"timezone":"America/Boise","areaCode":"208","population":0,"elevation":400,"type":"Standard"},{"zip":"83724","city":"Boise","state":"Idaho","stateCode":"ID","county":"Boise County","lat":43.6195,"lng":-116.1952,"timezone":"America/Boise","areaCode":"208","population":0,"elevation":400,"type":"Standard"},{"zip":"83725","city":"Boise","state":"Idaho","stateCode":"ID","county":"Boise County","lat":43.4599,"lng":-116.244,"timezone":"America/Boise","areaCode":"208","population":0,"elevation":400,"type":"Standard"},{"zip":"83726","city":"Boise","state":"Idaho","stateCode":"ID","county":"Boise County","lat":43.4599,"lng":-116.244,"timezone":"America/Boise","areaCode":"208","population":0,"elevation":400,"type":"Standard"},{"zip":"83727","city":"Boise","state":"Idaho","stateCode":"ID","county":"Boise County","lat":43.61,"lng":-116.2,"timezone":"America/Boise","areaCode":"208","population":0,"elevation":400,"type":"Standard"},{"zip":"83728","city":"Boise","state":"Idaho","stateCode":"ID","county":"Boise County","lat":43.6135,"lng":-116.2035,"timezone":"America/Boise","areaCode":"208","population":0,"elevation":400,"type":"Standard"},{"zip":"83729","city":"Boise","state":"Idaho","stateCode":"ID","county":"Boise County","lat":43.4599,"lng":-116.244,"timezone":"America/Boise","areaCode":"208","population":0,"elevation":400,"type":"Standard"},{"zip":"83730","city":"Boise","state":"Idaho","stateCode":"ID","county":"Boise County","lat":43.61,"lng":-116.2,"timezone":"America/Boise","areaCode":"208","population":0,"elevation":400,"type":"Standard"},{"zip":"83731","city":"Boise","state":"Idaho","stateCode":"ID","county":"Boise County","lat":43.4599,"lng":-116.244,"timezone":"America/Boise","areaCode":"208","population":0,"elevation":400,"type":"Standard"},{"zip":"83732","city":"Boise","state":"Idaho","stateCode":"ID","county":"Boise County","lat":43.4599,"lng":-116.244,"timezone":"America/Boise","areaCode":"208","population":0,"elevation":400,"type":"Standard"},{"zip":"83733","city":"West One Bank","state":"Idaho","stateCode":"ID","county":"West One Bank County","lat":43.61,"lng":-116.2,"timezone":"America/Boise","areaCode":"208","population":0,"elevation":400,"type":"Standard"},{"zip":"83735","city":"Boise","state":"Idaho","stateCode":"ID","county":"Boise County","lat":43.6135,"lng":-116.2035,"timezone":"America/Boise","areaCode":"208","population":0,"elevation":400,"type":"Standard"},{"zip":"83756","city":"Boise","state":"Idaho","stateCode":"ID","county":"Boise County","lat":43.4599,"lng":-116.244,"timezone":"America/Boise","areaCode":"208","population":0,"elevation":400,"type":"Standard"},{"zip":"83757","city":"Boise","state":"Idaho","stateCode":"ID","county":"Boise County","lat":43.61,"lng":-116.2,"timezone":"America/Boise","areaCode":"208","population":0,"elevation":400,"type":"Standard"},{"zip":"83799","city":"Boise","state":"Idaho","stateCode":"ID","county":"Boise County","lat":43.6135,"lng":-116.2035,"timezone":"America/Boise","areaCode":"208","population":0,"elevation":400,"type":"Standard"},{"zip":"83801","city":"Athol","state":"Idaho","stateCode":"ID","county":"Athol County","lat":47.9267,"lng":-116.7318,"timezone":"America/Los_Angeles","areaCode":"208","population":0,"elevation":400,"type":"Standard"},{"zip":"83802","city":"Avery","state":"Idaho","stateCode":"ID","county":"Avery County","lat":47.2714,"lng":-115.866,"timezone":"America/Los_Angeles","areaCode":"208","population":0,"elevation":400,"type":"Standard"},{"zip":"83803","city":"Bayview","state":"Idaho","stateCode":"ID","county":"Bayview County","lat":47.9822,"lng":-116.5494,"timezone":"America/Los_Angeles","areaCode":"208","population":0,"elevation":400,"type":"Standard"},{"zip":"83804","city":"Blanchard","state":"Idaho","stateCode":"ID","county":"Blanchard County","lat":48.0223,"lng":-116.9909,"timezone":"America/Los_Angeles","areaCode":"208","population":0,"elevation":400,"type":"Standard"},{"zip":"83805","city":"Bonners Ferry","state":"Idaho","stateCode":"ID","county":"Bonners Ferry County","lat":48.7306,"lng":-116.3322,"timezone":"America/Los_Angeles","areaCode":"208","population":0,"elevation":400,"type":"Standard"},{"zip":"83806","city":"Bovill","state":"Idaho","stateCode":"ID","county":"Bovill County","lat":46.8588,"lng":-116.3935,"timezone":"America/Los_Angeles","areaCode":"208","population":0,"elevation":400,"type":"Standard"},{"zip":"83808","city":"Calder","state":"Idaho","stateCode":"ID","county":"Calder County","lat":47.3219,"lng":-116.0703,"timezone":"America/Los_Angeles","areaCode":"208","population":0,"elevation":400,"type":"Standard"},{"zip":"83809","city":"Careywood","state":"Idaho","stateCode":"ID","county":"Careywood County","lat":48.0482,"lng":-116.5939,"timezone":"America/Los_Angeles","areaCode":"208","population":0,"elevation":400,"type":"Standard"},{"zip":"83810","city":"Cataldo","state":"Idaho","stateCode":"ID","county":"Cataldo County","lat":47.5522,"lng":-116.4431,"timezone":"America/Los_Angeles","areaCode":"208","population":0,"elevation":400,"type":"Standard"},{"zip":"83811","city":"Clark Fork","state":"Idaho","stateCode":"ID","county":"Clark Fork County","lat":48.1405,"lng":-116.1699,"timezone":"America/Los_Angeles","areaCode":"208","population":0,"elevation":400,"type":"Standard"},{"zip":"83812","city":"Clarkia","state":"Idaho","stateCode":"ID","county":"Clarkia County","lat":47.0107,"lng":-116.2529,"timezone":"America/Los_Angeles","areaCode":"208","population":0,"elevation":400,"type":"Standard"},{"zip":"83813","city":"Cocolalla","state":"Idaho","stateCode":"ID","county":"Cocolalla County","lat":48.1248,"lng":-116.6571,"timezone":"America/Los_Angeles","areaCode":"208","population":0,"elevation":400,"type":"Standard"},{"zip":"83814","city":"Coeur D Alene","state":"Idaho","stateCode":"ID","county":"Coeur D Alene County","lat":47.6928,"lng":-116.785,"timezone":"America/Los_Angeles","areaCode":"208","population":0,"elevation":400,"type":"Standard"},{"zip":"83815","city":"Coeur D Alene","state":"Idaho","stateCode":"ID","county":"Coeur D Alene County","lat":47.7248,"lng":-116.789,"timezone":"America/Los_Angeles","areaCode":"208","population":0,"elevation":400,"type":"Standard"},{"zip":"83816","city":"Coeur D Alene","state":"Idaho","stateCode":"ID","county":"Coeur D Alene County","lat":47.6777,"lng":-116.7805,"timezone":"America/Los_Angeles","areaCode":"208","population":0,"elevation":400,"type":"Standard"},{"zip":"83821","city":"Coolin","state":"Idaho","stateCode":"ID","county":"Coolin County","lat":48.5228,"lng":-116.8408,"timezone":"America/Los_Angeles","areaCode":"208","population":0,"elevation":400,"type":"Standard"},{"zip":"83822","city":"Oldtown","state":"Idaho","stateCode":"ID","county":"Oldtown County","lat":48.1552,"lng":-116.9781,"timezone":"America/Los_Angeles","areaCode":"208","population":0,"elevation":400,"type":"Standard"},{"zip":"83823","city":"Deary","state":"Idaho","stateCode":"ID","county":"Deary County","lat":46.8061,"lng":-116.5238,"timezone":"America/Los_Angeles","areaCode":"208","population":0,"elevation":400,"type":"Standard"},{"zip":"83824","city":"Desmet","state":"Idaho","stateCode":"ID","county":"Desmet County","lat":47.126,"lng":-116.8937,"timezone":"America/Los_Angeles","areaCode":"208","population":0,"elevation":400,"type":"Standard"},{"zip":"83825","city":"Dover","state":"Idaho","stateCode":"ID","county":"Dover County","lat":48.2516,"lng":-116.611,"timezone":"America/Los_Angeles","areaCode":"208","population":0,"elevation":400,"type":"Standard"},{"zip":"83826","city":"Eastport","state":"Idaho","stateCode":"ID","county":"Eastport County","lat":48.9994,"lng":-116.1813,"timezone":"America/Los_Angeles","areaCode":"208","population":0,"elevation":400,"type":"Standard"},{"zip":"83827","city":"Elk River","state":"Idaho","stateCode":"ID","county":"Elk River County","lat":46.7835,"lng":-116.1799,"timezone":"America/Los_Angeles","areaCode":"208","population":0,"elevation":400,"type":"Standard"},{"zip":"83830","city":"Fernwood","state":"Idaho","stateCode":"ID","county":"Fernwood County","lat":47.116,"lng":-116.3831,"timezone":"America/Los_Angeles","areaCode":"208","population":0,"elevation":400,"type":"Standard"},{"zip":"83832","city":"Genesee","state":"Idaho","stateCode":"ID","county":"Genesee County","lat":46.5714,"lng":-116.929,"timezone":"America/Los_Angeles","areaCode":"208","population":0,"elevation":400,"type":"Standard"},{"zip":"83833","city":"Harrison","state":"Idaho","stateCode":"ID","county":"Harrison County","lat":47.5017,"lng":-116.7446,"timezone":"America/Los_Angeles","areaCode":"208","population":0,"elevation":400,"type":"Standard"},{"zip":"83834","city":"Harvard","state":"Idaho","stateCode":"ID","county":"Harvard County","lat":46.9376,"lng":-116.7025,"timezone":"America/Los_Angeles","areaCode":"208","population":0,"elevation":400,"type":"Standard"},{"zip":"83835","city":"Hayden","state":"Idaho","stateCode":"ID","county":"Hayden County","lat":47.7989,"lng":-116.7423,"timezone":"America/Los_Angeles","areaCode":"208","population":0,"elevation":400,"type":"Standard"},{"zip":"83836","city":"Hope","state":"Idaho","stateCode":"ID","county":"Hope County","lat":48.2444,"lng":-116.2795,"timezone":"America/Los_Angeles","areaCode":"208","population":0,"elevation":400,"type":"Standard"},{"zip":"83837","city":"Kellogg","state":"Idaho","stateCode":"ID","county":"Kellogg County","lat":47.5431,"lng":-116.1253,"timezone":"America/Los_Angeles","areaCode":"208","population":0,"elevation":400,"type":"Standard"},{"zip":"83839","city":"Kingston","state":"Idaho","stateCode":"ID","county":"Kingston County","lat":47.5509,"lng":-116.2887,"timezone":"America/Los_Angeles","areaCode":"208","population":0,"elevation":400,"type":"Standard"},{"zip":"83840","city":"Kootenai","state":"Idaho","stateCode":"ID","county":"Kootenai County","lat":48.3102,"lng":-116.5135,"timezone":"America/Los_Angeles","areaCode":"208","population":0,"elevation":400,"type":"Standard"},{"zip":"83841","city":"Laclede","state":"Idaho","stateCode":"ID","county":"Laclede County","lat":48.1702,"lng":-116.756,"timezone":"America/Los_Angeles","areaCode":"208","population":0,"elevation":400,"type":"Standard"},{"zip":"83842","city":"Medimont","state":"Idaho","stateCode":"ID","county":"Medimont County","lat":47.4625,"lng":-116.5683,"timezone":"America/Los_Angeles","areaCode":"208","population":0,"elevation":400,"type":"Standard"},{"zip":"83843","city":"Moscow","state":"Idaho","stateCode":"ID","county":"Moscow County","lat":46.7309,"lng":-116.9897,"timezone":"America/Los_Angeles","areaCode":"208","population":0,"elevation":400,"type":"Standard"},{"zip":"83844","city":"Moscow","state":"Idaho","stateCode":"ID","county":"Moscow County","lat":46.7324,"lng":-117.0002,"timezone":"America/Los_Angeles","areaCode":"208","population":0,"elevation":400,"type":"Standard"},{"zip":"83845","city":"Moyie Springs","state":"Idaho","stateCode":"ID","county":"Moyie Springs County","lat":48.7464,"lng":-116.1796,"timezone":"America/Los_Angeles","areaCode":"208","population":0,"elevation":400,"type":"Standard"},{"zip":"83846","city":"Mullan","state":"Idaho","stateCode":"ID","county":"Mullan County","lat":47.4709,"lng":-115.7926,"timezone":"America/Los_Angeles","areaCode":"208","population":0,"elevation":400,"type":"Standard"},{"zip":"83847","city":"Naples","state":"Idaho","stateCode":"ID","county":"Naples County","lat":48.6049,"lng":-116.3196,"timezone":"America/Los_Angeles","areaCode":"208","population":0,"elevation":400,"type":"Standard"},{"zip":"83848","city":"Nordman","state":"Idaho","stateCode":"ID","county":"Nordman County","lat":48.6339,"lng":-116.9473,"timezone":"America/Los_Angeles","areaCode":"208","population":0,"elevation":400,"type":"Standard"},{"zip":"83849","city":"Osburn","state":"Idaho","stateCode":"ID","county":"Osburn County","lat":47.5211,"lng":-116.021,"timezone":"America/Los_Angeles","areaCode":"208","population":0,"elevation":400,"type":"Standard"},{"zip":"83850","city":"Pinehurst","state":"Idaho","stateCode":"ID","county":"Pinehurst County","lat":47.5018,"lng":-116.2647,"timezone":"America/Los_Angeles","areaCode":"208","population":0,"elevation":400,"type":"Standard"},{"zip":"83851","city":"Plummer","state":"Idaho","stateCode":"ID","county":"Plummer County","lat":47.3278,"lng":-116.8662,"timezone":"America/Los_Angeles","areaCode":"208","population":0,"elevation":400,"type":"Standard"},{"zip":"83852","city":"Ponderay","state":"Idaho","stateCode":"ID","county":"Ponderay County","lat":48.3055,"lng":-116.5338,"timezone":"America/Los_Angeles","areaCode":"208","population":0,"elevation":400,"type":"Standard"},{"zip":"83853","city":"Porthill","state":"Idaho","stateCode":"ID","county":"Porthill County","lat":48.992,"lng":-116.4775,"timezone":"America/Los_Angeles","areaCode":"208","population":0,"elevation":400,"type":"Standard"},{"zip":"83854","city":"Post Falls","state":"Idaho","stateCode":"ID","county":"Post Falls County","lat":47.7205,"lng":-116.9353,"timezone":"America/Los_Angeles","areaCode":"208","population":0,"elevation":400,"type":"Standard"},{"zip":"83855","city":"Potlatch","state":"Idaho","stateCode":"ID","county":"Potlatch County","lat":46.9448,"lng":-116.9141,"timezone":"America/Los_Angeles","areaCode":"208","population":0,"elevation":400,"type":"Standard"},{"zip":"83856","city":"Priest River","state":"Idaho","stateCode":"ID","county":"Priest River County","lat":48.1664,"lng":-116.9066,"timezone":"America/Los_Angeles","areaCode":"208","population":0,"elevation":400,"type":"Standard"},{"zip":"83857","city":"Princeton","state":"Idaho","stateCode":"ID","county":"Princeton County","lat":46.8996,"lng":-116.8287,"timezone":"America/Los_Angeles","areaCode":"208","population":0,"elevation":400,"type":"Standard"},{"zip":"83858","city":"Rathdrum","state":"Idaho","stateCode":"ID","county":"Rathdrum County","lat":47.8241,"lng":-116.8873,"timezone":"America/Los_Angeles","areaCode":"208","population":0,"elevation":400,"type":"Standard"},{"zip":"83860","city":"Sagle","state":"Idaho","stateCode":"ID","county":"Sagle County","lat":48.2035,"lng":-116.5455,"timezone":"America/Los_Angeles","areaCode":"208","population":0,"elevation":400,"type":"Standard"},{"zip":"83861","city":"Saint Maries","state":"Idaho","stateCode":"ID","county":"Saint Maries County","lat":47.2977,"lng":-116.5681,"timezone":"America/Los_Angeles","areaCode":"208","population":0,"elevation":400,"type":"Standard"},{"zip":"83864","city":"Sandpoint","state":"Idaho","stateCode":"ID","county":"Sandpoint County","lat":48.312,"lng":-116.5332,"timezone":"America/Los_Angeles","areaCode":"208","population":0,"elevation":400,"type":"Standard"},{"zip":"83865","city":"Colburn","state":"Idaho","stateCode":"ID","county":"Colburn County","lat":48.3633,"lng":-116.6256,"timezone":"America/Los_Angeles","areaCode":"208","population":0,"elevation":400,"type":"Standard"},{"zip":"83866","city":"Santa","state":"Idaho","stateCode":"ID","county":"Santa County","lat":47.1544,"lng":-116.431,"timezone":"America/Los_Angeles","areaCode":"208","population":0,"elevation":400,"type":"Standard"},{"zip":"83867","city":"Silverton","state":"Idaho","stateCode":"ID","county":"Silverton County","lat":47.4981,"lng":-115.9657,"timezone":"America/Los_Angeles","areaCode":"208","population":0,"elevation":400,"type":"Standard"},{"zip":"83868","city":"Smelterville","state":"Idaho","stateCode":"ID","county":"Smelterville County","lat":47.5362,"lng":-116.2062,"timezone":"America/Los_Angeles","areaCode":"208","population":0,"elevation":400,"type":"Standard"},{"zip":"83869","city":"Spirit Lake","state":"Idaho","stateCode":"ID","county":"Spirit Lake County","lat":47.9657,"lng":-116.868,"timezone":"America/Los_Angeles","areaCode":"208","population":0,"elevation":400,"type":"Standard"},{"zip":"83870","city":"Tensed","state":"Idaho","stateCode":"ID","county":"Tensed County","lat":47.1707,"lng":-116.9027,"timezone":"America/Los_Angeles","areaCode":"208","population":0,"elevation":400,"type":"Standard"},{"zip":"83871","city":"Troy","state":"Idaho","stateCode":"ID","county":"Troy County","lat":46.7426,"lng":-116.7681,"timezone":"America/Los_Angeles","areaCode":"208","population":0,"elevation":400,"type":"Standard"},{"zip":"83872","city":"Viola","state":"Idaho","stateCode":"ID","county":"Viola County","lat":46.8583,"lng":-116.9732,"timezone":"America/Los_Angeles","areaCode":"208","population":0,"elevation":400,"type":"Standard"},{"zip":"83873","city":"Wallace","state":"Idaho","stateCode":"ID","county":"Wallace County","lat":47.4908,"lng":-115.962,"timezone":"America/Los_Angeles","areaCode":"208","population":0,"elevation":400,"type":"Standard"},{"zip":"83874","city":"Murray","state":"Idaho","stateCode":"ID","county":"Murray County","lat":47.6271,"lng":-115.8585,"timezone":"America/Los_Angeles","areaCode":"208","population":0,"elevation":400,"type":"Standard"},{"zip":"83876","city":"Worley","state":"Idaho","stateCode":"ID","county":"Worley County","lat":47.4292,"lng":-116.9056,"timezone":"America/Los_Angeles","areaCode":"208","population":0,"elevation":400,"type":"Standard"},{"zip":"83877","city":"Post Falls","state":"Idaho","stateCode":"ID","county":"Post Falls County","lat":47.718,"lng":-116.9516,"timezone":"America/Los_Angeles","areaCode":"208","population":0,"elevation":400,"type":"Standard"}]