[{"zip":"20588","city":"Dhs","state":"Maryland","stateCode":"MD","county":"Dhs County","lat":38.7504,"lng":-76.8544,"timezone":"America/New_York","areaCode":"703","population":0,"elevation":100,"type":"Standard"},{"zip":"20601","city":"Waldorf","state":"Maryland","stateCode":"MD","county":"Waldorf County","lat":38.6371,"lng":-76.8778,"timezone":"America/New_York","areaCode":"301","population":0,"elevation":100,"type":"Standard"},{"zip":"20602","city":"Waldorf","state":"Maryland","stateCode":"MD","county":"Waldorf County","lat":38.584,"lng":-76.8942,"timezone":"America/New_York","areaCode":"301","population":0,"elevation":100,"type":"Standard"},{"zip":"20603","city":"Waldorf","state":"Maryland","stateCode":"MD","county":"Waldorf County","lat":38.6294,"lng":-76.9769,"timezone":"America/New_York","areaCode":"301","population":0,"elevation":100,"type":"Standard"},{"zip":"20604","city":"Waldorf","state":"Maryland","stateCode":"MD","county":"Waldorf County","lat":38.5095,"lng":-76.9817,"timezone":"America/New_York","areaCode":"301","population":0,"elevation":100,"type":"Standard"},{"zip":"20606","city":"Abell","state":"Maryland","stateCode":"MD","county":"Abell County","lat":38.2471,"lng":-76.7481,"timezone":"America/New_York","areaCode":"301","population":0,"elevation":100,"type":"Standard"},{"zip":"20607","city":"Accokeek","state":"Maryland","stateCode":"MD","county":"Accokeek County","lat":38.672,"lng":-77.0162,"timezone":"America/New_York","areaCode":"301","population":0,"elevation":100,"type":"Standard"},{"zip":"20608","city":"Aquasco","state":"Maryland","stateCode":"MD","county":"Aquasco County","lat":38.5825,"lng":-76.7149,"timezone":"America/New_York","areaCode":"301","population":0,"elevation":100,"type":"Standard"},{"zip":"20609","city":"Avenue","state":"Maryland","stateCode":"MD","county":"Avenue County","lat":38.2826,"lng":-76.7466,"timezone":"America/New_York","areaCode":"301","population":0,"elevation":100,"type":"Standard"},{"zip":"20610","city":"Barstow","state":"Maryland","stateCode":"MD","county":"Barstow County","lat":38.5254,"lng":-76.6161,"timezone":"America/New_York","areaCode":"301","population":0,"elevation":100,"type":"Standard"},{"zip":"20611","city":"Bel Alton","state":"Maryland","stateCode":"MD","county":"Bel Alton County","lat":38.4731,"lng":-76.9789,"timezone":"America/New_York","areaCode":"301","population":0,"elevation":100,"type":"Standard"},{"zip":"20612","city":"Benedict","state":"Maryland","stateCode":"MD","county":"Benedict County","lat":38.5093,"lng":-76.6797,"timezone":"America/New_York","areaCode":"301","population":0,"elevation":100,"type":"Standard"},{"zip":"20613","city":"Brandywine","state":"Maryland","stateCode":"MD","county":"Brandywine County","lat":38.6922,"lng":-76.832,"timezone":"America/New_York","areaCode":"301","population":0,"elevation":100,"type":"Standard"},{"zip":"20615","city":"Broomes Island","state":"Maryland","stateCode":"MD","county":"Broomes Island County","lat":38.418,"lng":-76.5478,"timezone":"America/New_York","areaCode":"301","population":0,"elevation":100,"type":"Standard"},{"zip":"20616","city":"Bryans Road","state":"Maryland","stateCode":"MD","county":"Bryans Road County","lat":38.6415,"lng":-77.0766,"timezone":"America/New_York","areaCode":"301","population":0,"elevation":100,"type":"Standard"},{"zip":"20617","city":"Bryantown","state":"Maryland","stateCode":"MD","county":"Bryantown County","lat":38.5426,"lng":-76.8465,"timezone":"America/New_York","areaCode":"301","population":0,"elevation":100,"type":"Standard"},{"zip":"20618","city":"Bushwood","state":"Maryland","stateCode":"MD","county":"Bushwood County","lat":38.2844,"lng":-76.7929,"timezone":"America/New_York","areaCode":"301","population":0,"elevation":100,"type":"Standard"},{"zip":"20619","city":"California","state":"Maryland","stateCode":"MD","county":"California County","lat":38.3006,"lng":-76.5312,"timezone":"America/New_York","areaCode":"301","population":0,"elevation":100,"type":"Standard"},{"zip":"20620","city":"Callaway","state":"Maryland","stateCode":"MD","county":"Callaway County","lat":38.2275,"lng":-76.521,"timezone":"America/New_York","areaCode":"301","population":0,"elevation":100,"type":"Standard"},{"zip":"20621","city":"Chaptico","state":"Maryland","stateCode":"MD","county":"Chaptico County","lat":38.351,"lng":-76.7833,"timezone":"America/New_York","areaCode":"301","population":0,"elevation":100,"type":"Standard"},{"zip":"20622","city":"Charlotte Hall","state":"Maryland","stateCode":"MD","county":"Charlotte Hall County","lat":38.475,"lng":-76.8038,"timezone":"America/New_York","areaCode":"301","population":0,"elevation":100,"type":"Standard"},{"zip":"20623","city":"Cheltenham","state":"Maryland","stateCode":"MD","county":"Cheltenham County","lat":38.7531,"lng":-76.8369,"timezone":"America/New_York","areaCode":"301","population":0,"elevation":100,"type":"Standard"},{"zip":"20624","city":"Clements","state":"Maryland","stateCode":"MD","county":"Clements County","lat":38.3407,"lng":-76.7264,"timezone":"America/New_York","areaCode":"301","population":0,"elevation":100,"type":"Standard"},{"zip":"20625","city":"Cobb Island","state":"Maryland","stateCode":"MD","county":"Cobb Island County","lat":38.262,"lng":-76.8502,"timezone":"America/New_York","areaCode":"301","population":0,"elevation":100,"type":"Standard"},{"zip":"20626","city":"Coltons Point","state":"Maryland","stateCode":"MD","county":"Coltons Point County","lat":38.237,"lng":-76.7646,"timezone":"America/New_York","areaCode":"301","population":0,"elevation":100,"type":"Standard"},{"zip":"20627","city":"Compton","state":"Maryland","stateCode":"MD","county":"Compton County","lat":38.2768,"lng":-76.704,"timezone":"America/New_York","areaCode":"301","population":0,"elevation":100,"type":"Standard"},{"zip":"20628","city":"Dameron","state":"Maryland","stateCode":"MD","county":"Dameron County","lat":38.1533,"lng":-76.3575,"timezone":"America/New_York","areaCode":"301","population":0,"elevation":100,"type":"Standard"},{"zip":"20629","city":"Dowell","state":"Maryland","stateCode":"MD","county":"Dowell County","lat":38.3364,"lng":-76.4524,"timezone":"America/New_York","areaCode":"301","population":0,"elevation":100,"type":"Standard"},{"zip":"20630","city":"Drayden","state":"Maryland","stateCode":"MD","county":"Drayden County","lat":38.1719,"lng":-76.4731,"timezone":"America/New_York","areaCode":"301","population":0,"elevation":100,"type":"Standard"},{"zip":"20632","city":"Faulkner","state":"Maryland","stateCode":"MD","county":"Faulkner County","lat":38.4382,"lng":-76.9729,"timezone":"America/New_York","areaCode":"301","population":0,"elevation":100,"type":"Standard"},{"zip":"20634","city":"Great Mills","state":"Maryland","stateCode":"MD","county":"Great Mills County","lat":38.2674,"lng":-76.4954,"timezone":"America/New_York","areaCode":"301","population":0,"elevation":100,"type":"Standard"},{"zip":"20635","city":"Helen","state":"Maryland","stateCode":"MD","county":"Helen County","lat":38.3121,"lng":-76.6077,"timezone":"America/New_York","areaCode":"301","population":0,"elevation":100,"type":"Standard"},{"zip":"20636","city":"Hollywood","state":"Maryland","stateCode":"MD","county":"Los Angeles County","lat":38.3524,"lng":-76.5626,"timezone":"America/New_York","areaCode":"301","population":0,"elevation":100,"type":"Standard"},{"zip":"20637","city":"Hughesville","state":"Maryland","stateCode":"MD","county":"Hughesville County","lat":38.5207,"lng":-76.7817,"timezone":"America/New_York","areaCode":"301","population":0,"elevation":100,"type":"Standard"},{"zip":"20639","city":"Huntingtown","state":"Maryland","stateCode":"MD","county":"Huntingtown County","lat":38.6095,"lng":-76.6003,"timezone":"America/New_York","areaCode":"301","population":0,"elevation":100,"type":"Standard"},{"zip":"20640","city":"Indian Head","state":"Maryland","stateCode":"MD","county":"Indian Head County","lat":38.6001,"lng":-77.1622,"timezone":"America/New_York","areaCode":"301","population":0,"elevation":100,"type":"Standard"},{"zip":"20643","city":"Ironsides","state":"Maryland","stateCode":"MD","county":"Ironsides County","lat":38.5039,"lng":-77.1483,"timezone":"America/New_York","areaCode":"301","population":0,"elevation":100,"type":"Standard"},{"zip":"20645","city":"Issue","state":"Maryland","stateCode":"MD","county":"Issue County","lat":38.2926,"lng":-76.9059,"timezone":"America/New_York","areaCode":"301","population":0,"elevation":100,"type":"Standard"},{"zip":"20646","city":"La Plata","state":"Maryland","stateCode":"MD","county":"La Plata County","lat":38.5257,"lng":-76.9865,"timezone":"America/New_York","areaCode":"301","population":0,"elevation":100,"type":"Standard"},{"zip":"20650","city":"Leonardtown","state":"Maryland","stateCode":"MD","county":"Leonardtown County","lat":38.2774,"lng":-76.638,"timezone":"America/New_York","areaCode":"301","population":0,"elevation":100,"type":"Standard"},{"zip":"20653","city":"Lexington Park","state":"Maryland","stateCode":"MD","county":"Lexington Park County","lat":38.2495,"lng":-76.4529,"timezone":"America/New_York","areaCode":"301","population":0,"elevation":100,"type":"Standard"},{"zip":"20656","city":"Loveville","state":"Maryland","stateCode":"MD","county":"Loveville County","lat":38.3593,"lng":-76.6833,"timezone":"America/New_York","areaCode":"301","population":0,"elevation":100,"type":"Standard"},{"zip":"20657","city":"Lusby","state":"Maryland","stateCode":"MD","county":"Lusby County","lat":38.3661,"lng":-76.4346,"timezone":"America/New_York","areaCode":"301","population":0,"elevation":100,"type":"Standard"},{"zip":"20658","city":"Marbury","state":"Maryland","stateCode":"MD","county":"Marbury County","lat":38.5633,"lng":-77.1596,"timezone":"America/New_York","areaCode":"301","population":0,"elevation":100,"type":"Standard"},{"zip":"20659","city":"Mechanicsville","state":"Maryland","stateCode":"MD","county":"Mechanicsville County","lat":38.4293,"lng":-76.7254,"timezone":"America/New_York","areaCode":"301","population":0,"elevation":100,"type":"Standard"},{"zip":"20660","city":"Morganza","state":"Maryland","stateCode":"MD","county":"Morganza County","lat":38.3754,"lng":-76.6955,"timezone":"America/New_York","areaCode":"301","population":0,"elevation":100,"type":"Standard"},{"zip":"20661","city":"Mount Victoria","state":"Maryland","stateCode":"MD","county":"Mount Victoria County","lat":38.3436,"lng":-76.8846,"timezone":"America/New_York","areaCode":"301","population":0,"elevation":100,"type":"Standard"},{"zip":"20662","city":"Nanjemoy","state":"Maryland","stateCode":"MD","county":"Nanjemoy County","lat":38.4462,"lng":-77.1983,"timezone":"America/New_York","areaCode":"301","population":0,"elevation":100,"type":"Standard"},{"zip":"20664","city":"Newburg","state":"Maryland","stateCode":"MD","county":"Newburg County","lat":38.3298,"lng":-76.9175,"timezone":"America/New_York","areaCode":"301","population":0,"elevation":100,"type":"Standard"},{"zip":"20667","city":"Park Hall","state":"Maryland","stateCode":"MD","county":"Park Hall County","lat":38.2177,"lng":-76.4429,"timezone":"America/New_York","areaCode":"301","population":0,"elevation":100,"type":"Standard"},{"zip":"20670","city":"Patuxent River","state":"Maryland","stateCode":"MD","county":"Patuxent River County","lat":38.2791,"lng":-76.4381,"timezone":"America/New_York","areaCode":"301","population":0,"elevation":100,"type":"Standard"},{"zip":"20674","city":"Piney Point","state":"Maryland","stateCode":"MD","county":"Piney Point County","lat":38.1397,"lng":-76.5047,"timezone":"America/New_York","areaCode":"301","population":0,"elevation":100,"type":"Standard"},{"zip":"20675","city":"Pomfret","state":"Maryland","stateCode":"MD","county":"Pomfret County","lat":38.5855,"lng":-77.0093,"timezone":"America/New_York","areaCode":"301","population":0,"elevation":100,"type":"Standard"},{"zip":"20676","city":"Port Republic","state":"Maryland","stateCode":"MD","county":"Port Republic County","lat":38.4952,"lng":-76.5349,"timezone":"America/New_York","areaCode":"301","population":0,"elevation":100,"type":"Standard"},{"zip":"20677","city":"Port Tobacco","state":"Maryland","stateCode":"MD","county":"Port Tobacco County","lat":38.4994,"lng":-77.0419,"timezone":"America/New_York","areaCode":"301","population":0,"elevation":100,"type":"Standard"},{"zip":"20678","city":"Prince Frederick","state":"Maryland","stateCode":"MD","county":"Prince Frederick County","lat":38.5336,"lng":-76.5955,"timezone":"America/New_York","areaCode":"301","population":0,"elevation":100,"type":"Standard"},{"zip":"20680","city":"Ridge","state":"Maryland","stateCode":"MD","county":"Ridge County","lat":38.1169,"lng":-76.3711,"timezone":"America/New_York","areaCode":"301","population":0,"elevation":100,"type":"Standard"},{"zip":"20682","city":"Rock Point","state":"Maryland","stateCode":"MD","county":"Rock Point County","lat":38.2836,"lng":-76.8481,"timezone":"America/New_York","areaCode":"301","population":0,"elevation":100,"type":"Standard"},{"zip":"20684","city":"Saint Inigoes","state":"Maryland","stateCode":"MD","county":"Saint Inigoes County","lat":38.1441,"lng":-76.4083,"timezone":"America/New_York","areaCode":"301","population":0,"elevation":100,"type":"Standard"},{"zip":"20685","city":"Saint Leonard","state":"Maryland","stateCode":"MD","county":"Saint Leonard County","lat":38.4501,"lng":-76.511,"timezone":"America/New_York","areaCode":"301","population":0,"elevation":100,"type":"Standard"},{"zip":"20686","city":"Saint Marys City","state":"Maryland","stateCode":"MD","county":"Saint Marys City County","lat":38.1871,"lng":-76.4344,"timezone":"America/New_York","areaCode":"301","population":0,"elevation":100,"type":"Standard"},{"zip":"20687","city":"Scotland","state":"Maryland","stateCode":"MD","county":"Scotland County","lat":38.0828,"lng":-76.3477,"timezone":"America/New_York","areaCode":"301","population":0,"elevation":100,"type":"Standard"},{"zip":"20688","city":"Solomons","state":"Maryland","stateCode":"MD","county":"Solomons County","lat":38.3293,"lng":-76.4651,"timezone":"America/New_York","areaCode":"301","population":0,"elevation":100,"type":"Standard"},{"zip":"20689","city":"Sunderland","state":"Maryland","stateCode":"MD","county":"Sunderland County","lat":38.649,"lng":-76.5767,"timezone":"America/New_York","areaCode":"301","population":0,"elevation":100,"type":"Standard"},{"zip":"20690","city":"Tall Timbers","state":"Maryland","stateCode":"MD","county":"Tall Timbers County","lat":38.1653,"lng":-76.5399,"timezone":"America/New_York","areaCode":"301","population":0,"elevation":100,"type":"Standard"},{"zip":"20692","city":"Valley Lee","state":"Maryland","stateCode":"MD","county":"Valley Lee County","lat":38.1899,"lng":-76.5087,"timezone":"America/New_York","areaCode":"301","population":0,"elevation":100,"type":"Standard"},{"zip":"20693","city":"Welcome","state":"Maryland","stateCode":"MD","county":"Welcome County","lat":38.4672,"lng":-77.095,"timezone":"America/New_York","areaCode":"301","population":0,"elevation":100,"type":"Standard"},{"zip":"20695","city":"White Plains","state":"Maryland","stateCode":"MD","county":"White Plains County","lat":38.5974,"lng":-76.9903,"timezone":"America/New_York","areaCode":"301","population":0,"elevation":100,"type":"Standard"},{"zip":"20697","city":"Southern Md Facility","state":"Maryland","stateCode":"MD","county":"Southern Md Facility County","lat":38.8336,"lng":-76.8777,"timezone":"America/New_York","areaCode":"301","population":0,"elevation":100,"type":"Standard"},{"zip":"20701","city":"Annapolis Junction","state":"Maryland","stateCode":"MD","county":"Annapolis Junction County","lat":39.1332,"lng":-76.7988,"timezone":"America/New_York","areaCode":"410","population":0,"elevation":100,"type":"Standard"},{"zip":"20703","city":"Lanham","state":"Maryland","stateCode":"MD","county":"Lanham County","lat":38.8336,"lng":-76.8777,"timezone":"America/New_York","areaCode":"410","population":0,"elevation":100,"type":"Standard"},{"zip":"20704","city":"Beltsville","state":"Maryland","stateCode":"MD","county":"Beltsville County","lat":39.0348,"lng":-76.9075,"timezone":"America/New_York","areaCode":"410","population":0,"elevation":100,"type":"Standard"},{"zip":"20705","city":"Beltsville","state":"Maryland","stateCode":"MD","county":"Beltsville County","lat":39.0455,"lng":-76.9242,"timezone":"America/New_York","areaCode":"410","population":0,"elevation":100,"type":"Standard"},{"zip":"20706","city":"Lanham","state":"Maryland","stateCode":"MD","county":"Lanham County","lat":38.9675,"lng":-76.8551,"timezone":"America/New_York","areaCode":"410","population":0,"elevation":100,"type":"Standard"},{"zip":"20707","city":"Laurel","state":"Maryland","stateCode":"MD","county":"Laurel County","lat":39.1077,"lng":-76.872,"timezone":"America/New_York","areaCode":"410","population":0,"elevation":100,"type":"Standard"},{"zip":"20708","city":"Laurel","state":"Maryland","stateCode":"MD","county":"Laurel County","lat":39.0499,"lng":-76.8345,"timezone":"America/New_York","areaCode":"410","population":0,"elevation":100,"type":"Standard"},{"zip":"20709","city":"Laurel","state":"Maryland","stateCode":"MD","county":"Laurel County","lat":39.0993,"lng":-76.8483,"timezone":"America/New_York","areaCode":"410","population":0,"elevation":100,"type":"Standard"},{"zip":"20710","city":"Bladensburg","state":"Maryland","stateCode":"MD","county":"Bladensburg County","lat":38.9421,"lng":-76.9261,"timezone":"America/New_York","areaCode":"410","population":0,"elevation":100,"type":"Standard"},{"zip":"20711","city":"Lothian","state":"Maryland","stateCode":"MD","county":"Lothian County","lat":38.8029,"lng":-76.6628,"timezone":"America/New_York","areaCode":"410","population":0,"elevation":100,"type":"Standard"},{"zip":"20712","city":"Mount Rainier","state":"Maryland","stateCode":"MD","county":"Mount Rainier County","lat":38.9431,"lng":-76.9652,"timezone":"America/New_York","areaCode":"410","population":0,"elevation":100,"type":"Standard"},{"zip":"20714","city":"North Beach","state":"Maryland","stateCode":"MD","county":"North Beach County","lat":38.7119,"lng":-76.5367,"timezone":"America/New_York","areaCode":"410","population":0,"elevation":100,"type":"Standard"},{"zip":"20715","city":"Bowie","state":"Maryland","stateCode":"MD","county":"Bowie County","lat":38.9797,"lng":-76.7435,"timezone":"America/New_York","areaCode":"410","population":0,"elevation":100,"type":"Standard"},{"zip":"20716","city":"Bowie","state":"Maryland","stateCode":"MD","county":"Bowie County","lat":38.9263,"lng":-76.7098,"timezone":"America/New_York","areaCode":"410","population":0,"elevation":100,"type":"Standard"},{"zip":"20717","city":"Bowie","state":"Maryland","stateCode":"MD","county":"Bowie County","lat":38.8336,"lng":-76.8777,"timezone":"America/New_York","areaCode":"410","population":0,"elevation":100,"type":"Standard"},{"zip":"20718","city":"Bowie","state":"Maryland","stateCode":"MD","county":"Bowie County","lat":38.8336,"lng":-76.8777,"timezone":"America/New_York","areaCode":"410","population":0,"elevation":100,"type":"Standard"},{"zip":"20719","city":"Bowie","state":"Maryland","stateCode":"MD","county":"Bowie County","lat":38.8336,"lng":-76.8777,"timezone":"America/New_York","areaCode":"410","population":0,"elevation":100,"type":"Standard"},{"zip":"20720","city":"Bowie","state":"Maryland","stateCode":"MD","county":"Bowie County","lat":38.9885,"lng":-76.791,"timezone":"America/New_York","areaCode":"410","population":0,"elevation":100,"type":"Standard"},{"zip":"20721","city":"Bowie","state":"Maryland","stateCode":"MD","county":"Bowie County","lat":38.9194,"lng":-76.7871,"timezone":"America/New_York","areaCode":"410","population":0,"elevation":100,"type":"Standard"},{"zip":"20722","city":"Brentwood","state":"Maryland","stateCode":"MD","county":"Brentwood County","lat":38.9407,"lng":-76.9531,"timezone":"America/New_York","areaCode":"410","population":0,"elevation":100,"type":"Standard"},{"zip":"20723","city":"Laurel","state":"Maryland","stateCode":"MD","county":"Laurel County","lat":39.1208,"lng":-76.8435,"timezone":"America/New_York","areaCode":"410","population":0,"elevation":100,"type":"Standard"},{"zip":"20724","city":"Laurel","state":"Maryland","stateCode":"MD","county":"Laurel County","lat":39.0958,"lng":-76.8155,"timezone":"America/New_York","areaCode":"410","population":0,"elevation":100,"type":"Standard"},{"zip":"20725","city":"Laurel","state":"Maryland","stateCode":"MD","county":"Laurel County","lat":39.0993,"lng":-76.8483,"timezone":"America/New_York","areaCode":"410","population":0,"elevation":100,"type":"Standard"},{"zip":"20726","city":"Laurel","state":"Maryland","stateCode":"MD","county":"Laurel County","lat":39.0993,"lng":-76.8483,"timezone":"America/New_York","areaCode":"410","population":0,"elevation":100,"type":"Standard"},{"zip":"20731","city":"Capitol Heights","state":"Maryland","stateCode":"MD","county":"Capitol Heights County","lat":38.8851,"lng":-76.9158,"timezone":"America/New_York","areaCode":"410","population":0,"elevation":100,"type":"Standard"},{"zip":"20732","city":"Chesapeake Beach","state":"Maryland","stateCode":"MD","county":"Chesapeake Beach County","lat":38.6698,"lng":-76.5376,"timezone":"America/New_York","areaCode":"410","population":0,"elevation":100,"type":"Standard"},{"zip":"20733","city":"Churchton","state":"Maryland","stateCode":"MD","county":"Churchton County","lat":38.8018,"lng":-76.5248,"timezone":"America/New_York","areaCode":"410","population":0,"elevation":100,"type":"Standard"},{"zip":"20735","city":"Clinton","state":"Maryland","stateCode":"MD","county":"Clinton County","lat":38.7549,"lng":-76.9026,"timezone":"America/New_York","areaCode":"410","population":0,"elevation":100,"type":"Standard"},{"zip":"20736","city":"Owings","state":"Maryland","stateCode":"MD","county":"Owings County","lat":38.6955,"lng":-76.6061,"timezone":"America/New_York","areaCode":"410","population":0,"elevation":100,"type":"Standard"},{"zip":"20737","city":"Riverdale","state":"Maryland","stateCode":"MD","county":"Riverdale County","lat":38.9601,"lng":-76.9147,"timezone":"America/New_York","areaCode":"410","population":0,"elevation":100,"type":"Standard"},{"zip":"20738","city":"Riverdale","state":"Maryland","stateCode":"MD","county":"Riverdale County","lat":38.8336,"lng":-76.8777,"timezone":"America/New_York","areaCode":"410","population":0,"elevation":100,"type":"Standard"},{"zip":"20740","city":"College Park","state":"Maryland","stateCode":"MD","county":"College Park County","lat":38.9963,"lng":-76.9299,"timezone":"America/New_York","areaCode":"410","population":0,"elevation":100,"type":"Standard"},{"zip":"20741","city":"College Park","state":"Maryland","stateCode":"MD","county":"College Park County","lat":38.8336,"lng":-76.8777,"timezone":"America/New_York","areaCode":"410","population":0,"elevation":100,"type":"Standard"},{"zip":"20742","city":"College Park","state":"Maryland","stateCode":"MD","county":"College Park County","lat":38.9896,"lng":-76.9457,"timezone":"America/New_York","areaCode":"410","population":0,"elevation":100,"type":"Standard"},{"zip":"20743","city":"Capitol Heights","state":"Maryland","stateCode":"MD","county":"Capitol Heights County","lat":38.8897,"lng":-76.8925,"timezone":"America/New_York","areaCode":"410","population":0,"elevation":100,"type":"Standard"},{"zip":"20744","city":"Fort Washington","state":"Maryland","stateCode":"MD","county":"Fort Washington County","lat":38.7587,"lng":-76.9835,"timezone":"America/New_York","areaCode":"410","population":0,"elevation":100,"type":"Standard"},{"zip":"20745","city":"Oxon Hill","state":"Maryland","stateCode":"MD","county":"Oxon Hill County","lat":38.8108,"lng":-76.9898,"timezone":"America/New_York","areaCode":"410","population":0,"elevation":100,"type":"Standard"},{"zip":"20746","city":"Suitland","state":"Maryland","stateCode":"MD","county":"Suitland County","lat":38.8425,"lng":-76.9222,"timezone":"America/New_York","areaCode":"410","population":0,"elevation":100,"type":"Standard"},{"zip":"20747","city":"District Heights","state":"Maryland","stateCode":"MD","county":"District Heights County","lat":38.8539,"lng":-76.8891,"timezone":"America/New_York","areaCode":"410","population":0,"elevation":100,"type":"Standard"},{"zip":"20748","city":"Temple Hills","state":"Maryland","stateCode":"MD","county":"Temple Hills County","lat":38.8222,"lng":-76.9478,"timezone":"America/New_York","areaCode":"410","population":0,"elevation":100,"type":"Standard"},{"zip":"20749","city":"Fort Washington","state":"Maryland","stateCode":"MD","county":"Fort Washington County","lat":38.8336,"lng":-76.8777,"timezone":"America/New_York","areaCode":"410","population":0,"elevation":100,"type":"Standard"},{"zip":"20750","city":"Oxon Hill","state":"Maryland","stateCode":"MD","county":"Oxon Hill County","lat":38.8034,"lng":-76.9897,"timezone":"America/New_York","areaCode":"410","population":0,"elevation":100,"type":"Standard"},{"zip":"20751","city":"Deale","state":"Maryland","stateCode":"MD","county":"Deale County","lat":38.7829,"lng":-76.5515,"timezone":"America/New_York","areaCode":"410","population":0,"elevation":100,"type":"Standard"},{"zip":"20752","city":"Suitland","state":"Maryland","stateCode":"MD","county":"Suitland County","lat":38.8487,"lng":-76.9239,"timezone":"America/New_York","areaCode":"410","population":0,"elevation":100,"type":"Standard"},{"zip":"20753","city":"District Heights","state":"Maryland","stateCode":"MD","county":"District Heights County","lat":38.8336,"lng":-76.8777,"timezone":"America/New_York","areaCode":"410","population":0,"elevation":100,"type":"Standard"},{"zip":"20754","city":"Dunkirk","state":"Maryland","stateCode":"MD","county":"Dunkirk County","lat":38.7408,"lng":-76.6427,"timezone":"America/New_York","areaCode":"410","population":0,"elevation":100,"type":"Standard"},{"zip":"20755","city":"Fort George G Meade","state":"Maryland","stateCode":"MD","county":"Fort George G Meade County","lat":39.1059,"lng":-76.7467,"timezone":"America/New_York","areaCode":"410","population":0,"elevation":100,"type":"Standard"},{"zip":"20757","city":"Temple Hills","state":"Maryland","stateCode":"MD","county":"Temple Hills County","lat":38.814,"lng":-76.9455,"timezone":"America/New_York","areaCode":"410","population":0,"elevation":100,"type":"Standard"},{"zip":"20758","city":"Friendship","state":"Maryland","stateCode":"MD","county":"Friendship County","lat":38.7361,"lng":-76.5835,"timezone":"America/New_York","areaCode":"410","population":0,"elevation":100,"type":"Standard"},{"zip":"20759","city":"Fulton","state":"Maryland","stateCode":"MD","county":"Fulton County","lat":39.1502,"lng":-76.93,"timezone":"America/New_York","areaCode":"410","population":0,"elevation":100,"type":"Standard"},{"zip":"20762","city":"Andrews Air Force Base","state":"Maryland","stateCode":"MD","county":"Andrews Air Force Base County","lat":38.8062,"lng":-76.8756,"timezone":"America/New_York","areaCode":"410","population":0,"elevation":100,"type":"Standard"},{"zip":"20763","city":"Savage","state":"Maryland","stateCode":"MD","county":"Savage County","lat":39.138,"lng":-76.8218,"timezone":"America/New_York","areaCode":"410","population":0,"elevation":100,"type":"Standard"},{"zip":"20764","city":"Shady Side","state":"Maryland","stateCode":"MD","county":"Shady Side County","lat":38.8368,"lng":-76.5109,"timezone":"America/New_York","areaCode":"410","population":0,"elevation":100,"type":"Standard"},{"zip":"20765","city":"Galesville","state":"Maryland","stateCode":"MD","county":"Galesville County","lat":38.8446,"lng":-76.5456,"timezone":"America/New_York","areaCode":"410","population":0,"elevation":100,"type":"Standard"},{"zip":"20768","city":"Greenbelt","state":"Maryland","stateCode":"MD","county":"Greenbelt County","lat":39.0046,"lng":-76.8755,"timezone":"America/New_York","areaCode":"410","population":0,"elevation":100,"type":"Standard"},{"zip":"20769","city":"Glenn Dale","state":"Maryland","stateCode":"MD","county":"Glenn Dale County","lat":38.9766,"lng":-76.8053,"timezone":"America/New_York","areaCode":"410","population":0,"elevation":100,"type":"Standard"},{"zip":"20770","city":"Greenbelt","state":"Maryland","stateCode":"MD","county":"Greenbelt County","lat":38.9996,"lng":-76.884,"timezone":"America/New_York","areaCode":"410","population":0,"elevation":100,"type":"Standard"},{"zip":"20771","city":"Greenbelt","state":"Maryland","stateCode":"MD","county":"Greenbelt County","lat":39.0046,"lng":-76.8755,"timezone":"America/New_York","areaCode":"410","population":0,"elevation":100,"type":"Standard"},{"zip":"20772","city":"Upper Marlboro","state":"Maryland","stateCode":"MD","county":"Upper Marlboro County","lat":38.8377,"lng":-76.798,"timezone":"America/New_York","areaCode":"410","population":0,"elevation":100,"type":"Standard"},{"zip":"20773","city":"Upper Marlboro","state":"Maryland","stateCode":"MD","county":"Upper Marlboro County","lat":38.8159,"lng":-76.7497,"timezone":"America/New_York","areaCode":"410","population":0,"elevation":100,"type":"Standard"},{"zip":"20774","city":"Upper Marlboro","state":"Maryland","stateCode":"MD","county":"Upper Marlboro County","lat":38.8682,"lng":-76.8156,"timezone":"America/New_York","areaCode":"410","population":0,"elevation":100,"type":"Standard"},{"zip":"20775","city":"Upper Marlboro","state":"Maryland","stateCode":"MD","county":"Upper Marlboro County","lat":38.8336,"lng":-76.8777,"timezone":"America/New_York","areaCode":"410","population":0,"elevation":100,"type":"Standard"},{"zip":"20776","city":"Harwood","state":"Maryland","stateCode":"MD","county":"Harwood County","lat":38.8582,"lng":-76.6145,"timezone":"America/New_York","areaCode":"410","population":0,"elevation":100,"type":"Standard"},{"zip":"20777","city":"Highland","state":"Maryland","stateCode":"MD","county":"Highland County","lat":39.1843,"lng":-76.9686,"timezone":"America/New_York","areaCode":"410","population":0,"elevation":100,"type":"Standard"},{"zip":"20778","city":"West River","state":"Maryland","stateCode":"MD","county":"West River County","lat":38.8252,"lng":-76.5391,"timezone":"America/New_York","areaCode":"410","population":0,"elevation":100,"type":"Standard"},{"zip":"20779","city":"Tracys Landing","state":"Maryland","stateCode":"MD","county":"Tracys Landing County","lat":38.7671,"lng":-76.5752,"timezone":"America/New_York","areaCode":"410","population":0,"elevation":100,"type":"Standard"},{"zip":"20781","city":"Hyattsville","state":"Maryland","stateCode":"MD","county":"Hyattsville County","lat":38.9506,"lng":-76.9347,"timezone":"America/New_York","areaCode":"410","population":0,"elevation":100,"type":"Standard"},{"zip":"20782","city":"Hyattsville","state":"Maryland","stateCode":"MD","county":"Hyattsville County","lat":38.9647,"lng":-76.9649,"timezone":"America/New_York","areaCode":"410","population":0,"elevation":100,"type":"Standard"},{"zip":"20783","city":"Hyattsville","state":"Maryland","stateCode":"MD","county":"Hyattsville County","lat":39.0005,"lng":-76.9723,"timezone":"America/New_York","areaCode":"410","population":0,"elevation":100,"type":"Standard"},{"zip":"20784","city":"Hyattsville","state":"Maryland","stateCode":"MD","county":"Hyattsville County","lat":38.9513,"lng":-76.8958,"timezone":"America/New_York","areaCode":"410","population":0,"elevation":100,"type":"Standard"},{"zip":"20785","city":"Hyattsville","state":"Maryland","stateCode":"MD","county":"Hyattsville County","lat":38.9223,"lng":-76.8755,"timezone":"America/New_York","areaCode":"410","population":0,"elevation":100,"type":"Standard"},{"zip":"20787","city":"Hyattsville","state":"Maryland","stateCode":"MD","county":"Hyattsville County","lat":38.9871,"lng":-76.9824,"timezone":"America/New_York","areaCode":"410","population":0,"elevation":100,"type":"Standard"},{"zip":"20788","city":"Hyattsville","state":"Maryland","stateCode":"MD","county":"Hyattsville County","lat":38.9694,"lng":-76.9509,"timezone":"America/New_York","areaCode":"410","population":0,"elevation":100,"type":"Standard"},{"zip":"20790","city":"Capitol Heights","state":"Maryland","stateCode":"MD","county":"Capitol Heights County","lat":38.8336,"lng":-76.8777,"timezone":"America/New_York","areaCode":"410","population":0,"elevation":100,"type":"Standard"},{"zip":"20791","city":"Capitol Heights","state":"Maryland","stateCode":"MD","county":"Capitol Heights County","lat":38.8336,"lng":-76.8777,"timezone":"America/New_York","areaCode":"410","population":0,"elevation":100,"type":"Standard"},{"zip":"20792","city":"Upper Marlboro","state":"Maryland","stateCode":"MD","county":"Upper Marlboro County","lat":38.8158,"lng":-76.75,"timezone":"America/New_York","areaCode":"410","population":0,"elevation":100,"type":"Standard"},{"zip":"20794","city":"Jessup","state":"Maryland","stateCode":"MD","county":"Jessup County","lat":39.1484,"lng":-76.7922,"timezone":"America/New_York","areaCode":"410","population":0,"elevation":100,"type":"Standard"},{"zip":"20797","city":"Southern Md Facility","state":"Maryland","stateCode":"MD","county":"Southern Md Facility County","lat":38.8336,"lng":-76.8777,"timezone":"America/New_York","areaCode":"410","population":0,"elevation":100,"type":"Standard"},{"zip":"20799","city":"Capitol Heights","state":"Maryland","stateCode":"MD","county":"Capitol Heights County","lat":38.8336,"lng":-76.8777,"timezone":"America/New_York","areaCode":"410","population":0,"elevation":100,"type":"Standard"},{"zip":"20810","city":"Bethesda","state":"Maryland","stateCode":"MD","county":"Bethesda County","lat":38.9806,"lng":-77.1008,"timezone":"America/New_York","areaCode":"301","population":0,"elevation":100,"type":"Standard"},{"zip":"20811","city":"Bethesda","state":"Maryland","stateCode":"MD","county":"Bethesda County","lat":38.9806,"lng":-77.1008,"timezone":"America/New_York","areaCode":"301","population":0,"elevation":100,"type":"Standard"},{"zip":"20812","city":"Glen Echo","state":"Maryland","stateCode":"MD","county":"Glen Echo County","lat":38.9693,"lng":-77.1435,"timezone":"America/New_York","areaCode":"301","population":0,"elevation":100,"type":"Standard"},{"zip":"20813","city":"Bethesda","state":"Maryland","stateCode":"MD","county":"Bethesda County","lat":39.144,"lng":-77.2076,"timezone":"America/New_York","areaCode":"301","population":0,"elevation":100,"type":"Standard"},{"zip":"20814","city":"Bethesda","state":"Maryland","stateCode":"MD","county":"Bethesda County","lat":39.0003,"lng":-77.1022,"timezone":"America/New_York","areaCode":"301","population":0,"elevation":100,"type":"Standard"},{"zip":"20815","city":"Chevy Chase","state":"Maryland","stateCode":"MD","county":"Chevy Chase County","lat":38.978,"lng":-77.082,"timezone":"America/New_York","areaCode":"301","population":0,"elevation":100,"type":"Standard"},{"zip":"20816","city":"Bethesda","state":"Maryland","stateCode":"MD","county":"Bethesda County","lat":38.9585,"lng":-77.1153,"timezone":"America/New_York","areaCode":"301","population":0,"elevation":100,"type":"Standard"},{"zip":"20817","city":"Bethesda","state":"Maryland","stateCode":"MD","county":"Bethesda County","lat":38.9896,"lng":-77.1538,"timezone":"America/New_York","areaCode":"301","population":0,"elevation":100,"type":"Standard"},{"zip":"20818","city":"Cabin John","state":"Maryland","stateCode":"MD","county":"Cabin John County","lat":38.9743,"lng":-77.1591,"timezone":"America/New_York","areaCode":"301","population":0,"elevation":100,"type":"Standard"},{"zip":"20824","city":"Bethesda","state":"Maryland","stateCode":"MD","county":"Bethesda County","lat":38.9807,"lng":-77.1003,"timezone":"America/New_York","areaCode":"301","population":0,"elevation":100,"type":"Standard"},{"zip":"20825","city":"Chevy Chase","state":"Maryland","stateCode":"MD","county":"Chevy Chase County","lat":39.0029,"lng":-77.0712,"timezone":"America/New_York","areaCode":"301","population":0,"elevation":100,"type":"Standard"},{"zip":"20827","city":"Bethesda","state":"Maryland","stateCode":"MD","county":"Bethesda County","lat":39.144,"lng":-77.2076,"timezone":"America/New_York","areaCode":"301","population":0,"elevation":100,"type":"Standard"},{"zip":"20830","city":"Olney","state":"Maryland","stateCode":"MD","county":"Olney County","lat":39.1552,"lng":-77.0667,"timezone":"America/New_York","areaCode":"301","population":0,"elevation":100,"type":"Standard"},{"zip":"20832","city":"Olney","state":"Maryland","stateCode":"MD","county":"Olney County","lat":39.1526,"lng":-77.0749,"timezone":"America/New_York","areaCode":"301","population":0,"elevation":100,"type":"Standard"},{"zip":"20833","city":"Brookeville","state":"Maryland","stateCode":"MD","county":"Brookeville County","lat":39.1871,"lng":-77.0603,"timezone":"America/New_York","areaCode":"301","population":0,"elevation":100,"type":"Standard"},{"zip":"20837","city":"Poolesville","state":"Maryland","stateCode":"MD","county":"Poolesville County","lat":39.1386,"lng":-77.4067,"timezone":"America/New_York","areaCode":"301","population":0,"elevation":100,"type":"Standard"},{"zip":"20838","city":"Barnesville","state":"Maryland","stateCode":"MD","county":"Barnesville County","lat":39.2233,"lng":-77.3764,"timezone":"America/New_York","areaCode":"301","population":0,"elevation":100,"type":"Standard"},{"zip":"20839","city":"Beallsville","state":"Maryland","stateCode":"MD","county":"Beallsville County","lat":39.179,"lng":-77.4128,"timezone":"America/New_York","areaCode":"301","population":0,"elevation":100,"type":"Standard"},{"zip":"20841","city":"Boyds","state":"Maryland","stateCode":"MD","county":"Boyds County","lat":39.21,"lng":-77.3167,"timezone":"America/New_York","areaCode":"301","population":0,"elevation":100,"type":"Standard"},{"zip":"20842","city":"Dickerson","state":"Maryland","stateCode":"MD","county":"Dickerson County","lat":39.2126,"lng":-77.4199,"timezone":"America/New_York","areaCode":"301","population":0,"elevation":100,"type":"Standard"},{"zip":"20847","city":"Rockville","state":"Maryland","stateCode":"MD","county":"Rockville County","lat":39.084,"lng":-77.1528,"timezone":"America/New_York","areaCode":"301","population":0,"elevation":100,"type":"Standard"},{"zip":"20848","city":"Rockville","state":"Maryland","stateCode":"MD","county":"Rockville County","lat":39.144,"lng":-77.2076,"timezone":"America/New_York","areaCode":"301","population":0,"elevation":100,"type":"Standard"},{"zip":"20849","city":"Rockville","state":"Maryland","stateCode":"MD","county":"Rockville County","lat":39.084,"lng":-77.1528,"timezone":"America/New_York","areaCode":"301","population":0,"elevation":100,"type":"Standard"},{"zip":"20850","city":"Rockville","state":"Maryland","stateCode":"MD","county":"Rockville County","lat":39.087,"lng":-77.168,"timezone":"America/New_York","areaCode":"301","population":0,"elevation":100,"type":"Standard"},{"zip":"20851","city":"Rockville","state":"Maryland","stateCode":"MD","county":"Rockville County","lat":39.0763,"lng":-77.1234,"timezone":"America/New_York","areaCode":"301","population":0,"elevation":100,"type":"Standard"},{"zip":"20852","city":"Rockville","state":"Maryland","stateCode":"MD","county":"Rockville County","lat":39.0496,"lng":-77.1204,"timezone":"America/New_York","areaCode":"301","population":0,"elevation":100,"type":"Standard"},{"zip":"20853","city":"Rockville","state":"Maryland","stateCode":"MD","county":"Rockville County","lat":39.0887,"lng":-77.095,"timezone":"America/New_York","areaCode":"301","population":0,"elevation":100,"type":"Standard"},{"zip":"20854","city":"Potomac","state":"Maryland","stateCode":"MD","county":"Potomac County","lat":39.0388,"lng":-77.1922,"timezone":"America/New_York","areaCode":"301","population":0,"elevation":100,"type":"Standard"},{"zip":"20855","city":"Derwood","state":"Maryland","stateCode":"MD","county":"Derwood County","lat":39.1345,"lng":-77.1477,"timezone":"America/New_York","areaCode":"301","population":0,"elevation":100,"type":"Standard"},{"zip":"20857","city":"Rockville","state":"Maryland","stateCode":"MD","county":"Rockville County","lat":39.084,"lng":-77.1528,"timezone":"America/New_York","areaCode":"301","population":0,"elevation":100,"type":"Standard"},{"zip":"20859","city":"Potomac","state":"Maryland","stateCode":"MD","county":"Potomac County","lat":39.144,"lng":-77.2076,"timezone":"America/New_York","areaCode":"301","population":0,"elevation":100,"type":"Standard"},{"zip":"20860","city":"Sandy Spring","state":"Maryland","stateCode":"MD","county":"Sandy Spring County","lat":39.1503,"lng":-77.0291,"timezone":"America/New_York","areaCode":"301","population":0,"elevation":100,"type":"Standard"},{"zip":"20861","city":"Ashton","state":"Maryland","stateCode":"MD","county":"Ashton County","lat":39.151,"lng":-76.9924,"timezone":"America/New_York","areaCode":"301","population":0,"elevation":100,"type":"Standard"},{"zip":"20862","city":"Brinklow","state":"Maryland","stateCode":"MD","county":"Brinklow County","lat":39.1838,"lng":-77.0163,"timezone":"America/New_York","areaCode":"301","population":0,"elevation":100,"type":"Standard"},{"zip":"20866","city":"Burtonsville","state":"Maryland","stateCode":"MD","county":"Burtonsville County","lat":39.0922,"lng":-76.9339,"timezone":"America/New_York","areaCode":"301","population":0,"elevation":100,"type":"Standard"},{"zip":"20868","city":"Spencerville","state":"Maryland","stateCode":"MD","county":"Spencerville County","lat":39.1223,"lng":-76.9722,"timezone":"America/New_York","areaCode":"301","population":0,"elevation":100,"type":"Standard"},{"zip":"20871","city":"Clarksburg","state":"Maryland","stateCode":"MD","county":"Clarksburg County","lat":39.2387,"lng":-77.2794,"timezone":"America/New_York","areaCode":"301","population":0,"elevation":100,"type":"Standard"},{"zip":"20872","city":"Damascus","state":"Maryland","stateCode":"MD","county":"Damascus County","lat":39.2761,"lng":-77.2131,"timezone":"America/New_York","areaCode":"301","population":0,"elevation":100,"type":"Standard"},{"zip":"20874","city":"Germantown","state":"Maryland","stateCode":"MD","county":"Germantown County","lat":39.1355,"lng":-77.2822,"timezone":"America/New_York","areaCode":"301","population":0,"elevation":100,"type":"Standard"},{"zip":"20875","city":"Germantown","state":"Maryland","stateCode":"MD","county":"Germantown County","lat":39.144,"lng":-77.2076,"timezone":"America/New_York","areaCode":"301","population":0,"elevation":100,"type":"Standard"},{"zip":"20876","city":"Germantown","state":"Maryland","stateCode":"MD","county":"Germantown County","lat":39.188,"lng":-77.2358,"timezone":"America/New_York","areaCode":"301","population":0,"elevation":100,"type":"Standard"},{"zip":"20877","city":"Gaithersburg","state":"Maryland","stateCode":"MD","county":"Gaithersburg County","lat":39.1419,"lng":-77.189,"timezone":"America/New_York","areaCode":"301","population":0,"elevation":100,"type":"Standard"},{"zip":"20878","city":"Gaithersburg","state":"Maryland","stateCode":"MD","county":"Gaithersburg County","lat":39.1125,"lng":-77.2515,"timezone":"America/New_York","areaCode":"301","population":0,"elevation":100,"type":"Standard"},{"zip":"20879","city":"Gaithersburg","state":"Maryland","stateCode":"MD","county":"Gaithersburg County","lat":39.173,"lng":-77.1855,"timezone":"America/New_York","areaCode":"301","population":0,"elevation":100,"type":"Standard"},{"zip":"20880","city":"Washington Grove","state":"Maryland","stateCode":"MD","county":"Washington Grove County","lat":39.1388,"lng":-77.1726,"timezone":"America/New_York","areaCode":"301","population":0,"elevation":100,"type":"Standard"},{"zip":"20882","city":"Gaithersburg","state":"Maryland","stateCode":"MD","county":"Gaithersburg County","lat":39.2335,"lng":-77.1458,"timezone":"America/New_York","areaCode":"301","population":0,"elevation":100,"type":"Standard"},{"zip":"20883","city":"Gaithersburg","state":"Maryland","stateCode":"MD","county":"Gaithersburg County","lat":39.0883,"lng":-77.1568,"timezone":"America/New_York","areaCode":"301","population":0,"elevation":100,"type":"Standard"},{"zip":"20884","city":"Gaithersburg","state":"Maryland","stateCode":"MD","county":"Gaithersburg County","lat":39.144,"lng":-77.2076,"timezone":"America/New_York","areaCode":"301","population":0,"elevation":100,"type":"Standard"},{"zip":"20885","city":"Gaithersburg","state":"Maryland","stateCode":"MD","county":"Gaithersburg County","lat":39.1874,"lng":-77.2028,"timezone":"America/New_York","areaCode":"301","population":0,"elevation":100,"type":"Standard"},{"zip":"20886","city":"Montgomery Village","state":"Maryland","stateCode":"MD","county":"Montgomery Village County","lat":39.1757,"lng":-77.1873,"timezone":"America/New_York","areaCode":"301","population":0,"elevation":100,"type":"Standard"},{"zip":"20889","city":"Bethesda","state":"Maryland","stateCode":"MD","county":"Bethesda County","lat":39.144,"lng":-77.2076,"timezone":"America/New_York","areaCode":"301","population":0,"elevation":100,"type":"Standard"},{"zip":"20891","city":"Kensington","state":"Maryland","stateCode":"MD","county":"Kensington County","lat":39.0257,"lng":-77.0764,"timezone":"America/New_York","areaCode":"301","population":0,"elevation":100,"type":"Standard"},{"zip":"20892","city":"Bethesda","state":"Maryland","stateCode":"MD","county":"Bethesda County","lat":39.0024,"lng":-77.1034,"timezone":"America/New_York","areaCode":"301","population":0,"elevation":100,"type":"Standard"},{"zip":"20894","city":"Bethesda","state":"Maryland","stateCode":"MD","county":"Bethesda County","lat":39.144,"lng":-77.2076,"timezone":"America/New_York","areaCode":"301","population":0,"elevation":100,"type":"Standard"},{"zip":"20895","city":"Kensington","state":"Maryland","stateCode":"MD","county":"Kensington County","lat":39.0298,"lng":-77.0793,"timezone":"America/New_York","areaCode":"301","population":0,"elevation":100,"type":"Standard"},{"zip":"20896","city":"Garrett Park","state":"Maryland","stateCode":"MD","county":"Garrett Park County","lat":39.0365,"lng":-77.0931,"timezone":"America/New_York","areaCode":"301","population":0,"elevation":100,"type":"Standard"},{"zip":"20897","city":"Suburb Maryland Fac","state":"Maryland","stateCode":"MD","county":"Suburb Maryland Fac County","lat":39.144,"lng":-77.2076,"timezone":"America/New_York","areaCode":"301","population":0,"elevation":100,"type":"Standard"},{"zip":"20898","city":"Gaithersburg","state":"Maryland","stateCode":"MD","county":"Gaithersburg County","lat":39.144,"lng":-77.2076,"timezone":"America/New_York","areaCode":"301","population":0,"elevation":100,"type":"Standard"},{"zip":"20899","city":"Gaithersburg","state":"Maryland","stateCode":"MD","county":"Gaithersburg County","lat":39.1403,"lng":-77.222,"timezone":"America/New_York","areaCode":"301","population":0,"elevation":100,"type":"Standard"},{"zip":"20901","city":"Silver Spring","state":"Maryland","stateCode":"MD","county":"Silver Spring County","lat":39.0191,"lng":-77.0076,"timezone":"America/New_York","areaCode":"301","population":0,"elevation":100,"type":"Standard"},{"zip":"20902","city":"Silver Spring","state":"Maryland","stateCode":"MD","county":"Silver Spring County","lat":39.04,"lng":-77.0444,"timezone":"America/New_York","areaCode":"301","population":0,"elevation":100,"type":"Standard"},{"zip":"20903","city":"Silver Spring","state":"Maryland","stateCode":"MD","county":"Silver Spring County","lat":39.0095,"lng":-76.9846,"timezone":"America/New_York","areaCode":"301","population":0,"elevation":100,"type":"Standard"},{"zip":"20904","city":"Silver Spring","state":"Maryland","stateCode":"MD","county":"Silver Spring County","lat":39.0668,"lng":-76.9969,"timezone":"America/New_York","areaCode":"301","population":0,"elevation":100,"type":"Standard"},{"zip":"20905","city":"Silver Spring","state":"Maryland","stateCode":"MD","county":"Silver Spring County","lat":39.1148,"lng":-77.0059,"timezone":"America/New_York","areaCode":"301","population":0,"elevation":100,"type":"Standard"},{"zip":"20906","city":"Silver Spring","state":"Maryland","stateCode":"MD","county":"Silver Spring County","lat":39.084,"lng":-77.0613,"timezone":"America/New_York","areaCode":"301","population":0,"elevation":100,"type":"Standard"},{"zip":"20907","city":"Silver Spring","state":"Maryland","stateCode":"MD","county":"Silver Spring County","lat":38.9907,"lng":-77.0261,"timezone":"America/New_York","areaCode":"301","population":0,"elevation":100,"type":"Standard"},{"zip":"20908","city":"Silver Spring","state":"Maryland","stateCode":"MD","county":"Silver Spring County","lat":38.9907,"lng":-77.0261,"timezone":"America/New_York","areaCode":"301","population":0,"elevation":100,"type":"Standard"},{"zip":"20910","city":"Silver Spring","state":"Maryland","stateCode":"MD","county":"Silver Spring County","lat":38.9982,"lng":-77.0338,"timezone":"America/New_York","areaCode":"301","population":0,"elevation":100,"type":"Standard"},{"zip":"20911","city":"Silver Spring","state":"Maryland","stateCode":"MD","county":"Silver Spring County","lat":38.9907,"lng":-77.0261,"timezone":"America/New_York","areaCode":"301","population":0,"elevation":100,"type":"Standard"},{"zip":"20912","city":"Takoma Park","state":"Maryland","stateCode":"MD","county":"Takoma Park County","lat":38.9832,"lng":-77.0007,"timezone":"America/New_York","areaCode":"301","population":0,"elevation":100,"type":"Standard"},{"zip":"20913","city":"Takoma Park","state":"Maryland","stateCode":"MD","county":"Takoma Park County","lat":38.9779,"lng":-77.0075,"timezone":"America/New_York","areaCode":"301","population":0,"elevation":100,"type":"Standard"},{"zip":"20914","city":"Silver Spring","state":"Maryland","stateCode":"MD","county":"Silver Spring County","lat":38.9907,"lng":-77.0261,"timezone":"America/New_York","areaCode":"301","population":0,"elevation":100,"type":"Standard"},{"zip":"20915","city":"Silver Spring","state":"Maryland","stateCode":"MD","county":"Silver Spring County","lat":38.9907,"lng":-77.0261,"timezone":"America/New_York","areaCode":"301","population":0,"elevation":100,"type":"Standard"},{"zip":"20916","city":"Silver Spring","state":"Maryland","stateCode":"MD","county":"Silver Spring County","lat":38.9907,"lng":-77.0261,"timezone":"America/New_York","areaCode":"301","population":0,"elevation":100,"type":"Standard"},{"zip":"20918","city":"Silver Spring","state":"Maryland","stateCode":"MD","county":"Silver Spring County","lat":38.9907,"lng":-77.0261,"timezone":"America/New_York","areaCode":"301","population":0,"elevation":100,"type":"Standard"},{"zip":"20993","city":"Silver Spring","state":"Maryland","stateCode":"MD","county":"Silver Spring County","lat":39.0336,"lng":-76.9861,"timezone":"America/New_York","areaCode":"301","population":0,"elevation":100,"type":"Standard"},{"zip":"20997","city":"Silver Spring","state":"Maryland","stateCode":"MD","county":"Silver Spring County","lat":38.9907,"lng":-77.0261,"timezone":"America/New_York","areaCode":"301","population":0,"elevation":100,"type":"Standard"},{"zip":"21001","city":"Aberdeen","state":"Maryland","stateCode":"MD","county":"Aberdeen County","lat":39.5109,"lng":-76.1805,"timezone":"America/New_York","areaCode":"410","population":0,"elevation":100,"type":"Standard"},{"zip":"21005","city":"Aberdeen Proving Ground","state":"Maryland","stateCode":"MD","county":"Aberdeen Proving Ground County","lat":39.4771,"lng":-76.1208,"timezone":"America/New_York","areaCode":"410","population":0,"elevation":100,"type":"Standard"},{"zip":"21009","city":"Abingdon","state":"Maryland","stateCode":"MD","county":"Abingdon County","lat":39.4744,"lng":-76.2997,"timezone":"America/New_York","areaCode":"410","population":0,"elevation":100,"type":"Standard"},{"zip":"21010","city":"Gunpowder","state":"Maryland","stateCode":"MD","county":"Gunpowder County","lat":39.3982,"lng":-76.2743,"timezone":"America/New_York","areaCode":"410","population":0,"elevation":100,"type":"Standard"},{"zip":"21012","city":"Arnold","state":"Maryland","stateCode":"MD","county":"Arnold County","lat":39.0476,"lng":-76.4941,"timezone":"America/New_York","areaCode":"410","population":0,"elevation":100,"type":"Standard"},{"zip":"21013","city":"Baldwin","state":"Maryland","stateCode":"MD","county":"Baldwin County","lat":39.5194,"lng":-76.4927,"timezone":"America/New_York","areaCode":"410","population":0,"elevation":100,"type":"Standard"},{"zip":"21014","city":"Bel Air","state":"Maryland","stateCode":"MD","county":"Bel Air County","lat":39.5394,"lng":-76.3564,"timezone":"America/New_York","areaCode":"410","population":0,"elevation":100,"type":"Standard"},{"zip":"21015","city":"Bel Air","state":"Maryland","stateCode":"MD","county":"Bel Air County","lat":39.5303,"lng":-76.3153,"timezone":"America/New_York","areaCode":"410","population":0,"elevation":100,"type":"Standard"},{"zip":"21017","city":"Belcamp","state":"Maryland","stateCode":"MD","county":"Belcamp County","lat":39.4756,"lng":-76.242,"timezone":"America/New_York","areaCode":"410","population":0,"elevation":100,"type":"Standard"},{"zip":"21018","city":"Benson","state":"Maryland","stateCode":"MD","county":"Benson County","lat":39.5093,"lng":-76.3851,"timezone":"America/New_York","areaCode":"410","population":0,"elevation":100,"type":"Standard"},{"zip":"21020","city":"Boring","state":"Maryland","stateCode":"MD","county":"Boring County","lat":39.5213,"lng":-76.8047,"timezone":"America/New_York","areaCode":"410","population":0,"elevation":100,"type":"Standard"},{"zip":"21022","city":"Brooklandville","state":"Maryland","stateCode":"MD","county":"Brooklandville County","lat":39.3979,"lng":-76.6717,"timezone":"America/New_York","areaCode":"410","population":0,"elevation":100,"type":"Standard"},{"zip":"21023","city":"Butler","state":"Maryland","stateCode":"MD","county":"Butler County","lat":39.533,"lng":-76.7432,"timezone":"America/New_York","areaCode":"410","population":0,"elevation":100,"type":"Standard"},{"zip":"21027","city":"Chase","state":"Maryland","stateCode":"MD","county":"Chase County","lat":39.3634,"lng":-76.3711,"timezone":"America/New_York","areaCode":"410","population":0,"elevation":100,"type":"Standard"},{"zip":"21028","city":"Churchville","state":"Maryland","stateCode":"MD","county":"Churchville County","lat":39.5648,"lng":-76.249,"timezone":"America/New_York","areaCode":"410","population":0,"elevation":100,"type":"Standard"},{"zip":"21029","city":"Clarksville","state":"Maryland","stateCode":"MD","county":"Clarksville County","lat":39.2125,"lng":-76.9515,"timezone":"America/New_York","areaCode":"410","population":0,"elevation":100,"type":"Standard"},{"zip":"21030","city":"Cockeysville","state":"Maryland","stateCode":"MD","county":"Cockeysville County","lat":39.4919,"lng":-76.6677,"timezone":"America/New_York","areaCode":"410","population":0,"elevation":100,"type":"Standard"},{"zip":"21031","city":"Hunt Valley","state":"Maryland","stateCode":"MD","county":"Hunt Valley County","lat":39.4805,"lng":-76.6553,"timezone":"America/New_York","areaCode":"410","population":0,"elevation":100,"type":"Standard"},{"zip":"21032","city":"Crownsville","state":"Maryland","stateCode":"MD","county":"Crownsville County","lat":39.0489,"lng":-76.5935,"timezone":"America/New_York","areaCode":"410","population":0,"elevation":100,"type":"Standard"},{"zip":"21034","city":"Darlington","state":"Maryland","stateCode":"MD","county":"Darlington County","lat":39.654,"lng":-76.2278,"timezone":"America/New_York","areaCode":"410","population":0,"elevation":100,"type":"Standard"},{"zip":"21035","city":"Davidsonville","state":"Maryland","stateCode":"MD","county":"Davidsonville County","lat":38.9374,"lng":-76.6375,"timezone":"America/New_York","areaCode":"410","population":0,"elevation":100,"type":"Standard"},{"zip":"21036","city":"Dayton","state":"Maryland","stateCode":"MD","county":"Dayton County","lat":39.2339,"lng":-76.9968,"timezone":"America/New_York","areaCode":"410","population":0,"elevation":100,"type":"Standard"},{"zip":"21037","city":"Edgewater","state":"Maryland","stateCode":"MD","county":"Edgewater County","lat":38.9149,"lng":-76.5424,"timezone":"America/New_York","areaCode":"410","population":0,"elevation":100,"type":"Standard"},{"zip":"21040","city":"Edgewood","state":"Maryland","stateCode":"MD","county":"Edgewood County","lat":39.4277,"lng":-76.3055,"timezone":"America/New_York","areaCode":"410","population":0,"elevation":100,"type":"Standard"},{"zip":"21041","city":"Ellicott City","state":"Maryland","stateCode":"MD","county":"Ellicott City County","lat":39.2364,"lng":-76.9419,"timezone":"America/New_York","areaCode":"410","population":0,"elevation":100,"type":"Standard"},{"zip":"21042","city":"Ellicott City","state":"Maryland","stateCode":"MD","county":"Ellicott City County","lat":39.2726,"lng":-76.8614,"timezone":"America/New_York","areaCode":"410","population":0,"elevation":100,"type":"Standard"},{"zip":"21043","city":"Ellicott City","state":"Maryland","stateCode":"MD","county":"Ellicott City County","lat":39.2548,"lng":-76.8001,"timezone":"America/New_York","areaCode":"410","population":0,"elevation":100,"type":"Standard"},{"zip":"21044","city":"Columbia","state":"Maryland","stateCode":"MD","county":"Richland County","lat":39.2141,"lng":-76.8788,"timezone":"America/New_York","areaCode":"410","population":0,"elevation":100,"type":"Standard"},{"zip":"21045","city":"Columbia","state":"Maryland","stateCode":"MD","county":"Richland County","lat":39.2051,"lng":-76.8322,"timezone":"America/New_York","areaCode":"410","population":0,"elevation":100,"type":"Standard"},{"zip":"21046","city":"Columbia","state":"Maryland","stateCode":"MD","county":"Richland County","lat":39.1702,"lng":-76.8538,"timezone":"America/New_York","areaCode":"410","population":0,"elevation":100,"type":"Standard"},{"zip":"21047","city":"Fallston","state":"Maryland","stateCode":"MD","county":"Fallston County","lat":39.527,"lng":-76.4328,"timezone":"America/New_York","areaCode":"410","population":0,"elevation":100,"type":"Standard"},{"zip":"21048","city":"Finksburg","state":"Maryland","stateCode":"MD","county":"Finksburg County","lat":39.4991,"lng":-76.9101,"timezone":"America/New_York","areaCode":"410","population":0,"elevation":100,"type":"Standard"},{"zip":"21050","city":"Forest Hill","state":"Maryland","stateCode":"MD","county":"Forest Hill County","lat":39.5755,"lng":-76.4008,"timezone":"America/New_York","areaCode":"410","population":0,"elevation":100,"type":"Standard"},{"zip":"21051","city":"Fork","state":"Maryland","stateCode":"MD","county":"Fork County","lat":39.4731,"lng":-76.4484,"timezone":"America/New_York","areaCode":"410","population":0,"elevation":100,"type":"Standard"},{"zip":"21052","city":"Fort Howard","state":"Maryland","stateCode":"MD","county":"Fort Howard County","lat":39.207,"lng":-76.4456,"timezone":"America/New_York","areaCode":"410","population":0,"elevation":100,"type":"Standard"},{"zip":"21053","city":"Freeland","state":"Maryland","stateCode":"MD","county":"Freeland County","lat":39.694,"lng":-76.7223,"timezone":"America/New_York","areaCode":"410","population":0,"elevation":100,"type":"Standard"},{"zip":"21054","city":"Gambrills","state":"Maryland","stateCode":"MD","county":"Gambrills County","lat":39.0407,"lng":-76.6819,"timezone":"America/New_York","areaCode":"410","population":0,"elevation":100,"type":"Standard"},{"zip":"21056","city":"Gibson Island","state":"Maryland","stateCode":"MD","county":"Gibson Island County","lat":39.0751,"lng":-76.4324,"timezone":"America/New_York","areaCode":"410","population":0,"elevation":100,"type":"Standard"},{"zip":"21057","city":"Glen Arm","state":"Maryland","stateCode":"MD","county":"Glen Arm County","lat":39.4575,"lng":-76.5153,"timezone":"America/New_York","areaCode":"410","population":0,"elevation":100,"type":"Standard"},{"zip":"21060","city":"Glen Burnie","state":"Maryland","stateCode":"MD","county":"Glen Burnie County","lat":39.1702,"lng":-76.5798,"timezone":"America/New_York","areaCode":"410","population":0,"elevation":100,"type":"Standard"},{"zip":"21061","city":"Glen Burnie","state":"Maryland","stateCode":"MD","county":"Glen Burnie County","lat":39.1618,"lng":-76.6297,"timezone":"America/New_York","areaCode":"410","population":0,"elevation":100,"type":"Standard"},{"zip":"21062","city":"Glen Burnie","state":"Maryland","stateCode":"MD","county":"Glen Burnie County","lat":38.9742,"lng":-76.5949,"timezone":"America/New_York","areaCode":"410","population":0,"elevation":100,"type":"Standard"},{"zip":"21065","city":"Hunt Valley","state":"Maryland","stateCode":"MD","county":"Hunt Valley County","lat":39.4883,"lng":-76.6538,"timezone":"America/New_York","areaCode":"410","population":0,"elevation":100,"type":"Standard"},{"zip":"21071","city":"Glyndon","state":"Maryland","stateCode":"MD","county":"Glyndon County","lat":39.477,"lng":-76.815,"timezone":"America/New_York","areaCode":"410","population":0,"elevation":100,"type":"Standard"},{"zip":"21074","city":"Hampstead","state":"Maryland","stateCode":"MD","county":"Hampstead County","lat":39.6146,"lng":-76.8644,"timezone":"America/New_York","areaCode":"410","population":0,"elevation":100,"type":"Standard"},{"zip":"21075","city":"Elkridge","state":"Maryland","stateCode":"MD","county":"Elkridge County","lat":39.2058,"lng":-76.7531,"timezone":"America/New_York","areaCode":"410","population":0,"elevation":100,"type":"Standard"},{"zip":"21076","city":"Hanover","state":"Maryland","stateCode":"MD","county":"Hanover County","lat":39.1551,"lng":-76.7215,"timezone":"America/New_York","areaCode":"410","population":0,"elevation":100,"type":"Standard"},{"zip":"21077","city":"Harmans","state":"Maryland","stateCode":"MD","county":"Harmans County","lat":39.1561,"lng":-76.6977,"timezone":"America/New_York","areaCode":"410","population":0,"elevation":100,"type":"Standard"},{"zip":"21078","city":"Havre De Grace","state":"Maryland","stateCode":"MD","county":"Havre De Grace County","lat":39.5523,"lng":-76.1171,"timezone":"America/New_York","areaCode":"410","population":0,"elevation":100,"type":"Standard"},{"zip":"21082","city":"Hydes","state":"Maryland","stateCode":"MD","county":"Hydes County","lat":39.474,"lng":-76.4695,"timezone":"America/New_York","areaCode":"410","population":0,"elevation":100,"type":"Standard"},{"zip":"21084","city":"Jarrettsville","state":"Maryland","stateCode":"MD","county":"Jarrettsville County","lat":39.6162,"lng":-76.4684,"timezone":"America/New_York","areaCode":"410","population":0,"elevation":100,"type":"Standard"},{"zip":"21085","city":"Joppa","state":"Maryland","stateCode":"MD","county":"Joppa County","lat":39.4242,"lng":-76.3541,"timezone":"America/New_York","areaCode":"410","population":0,"elevation":100,"type":"Standard"},{"zip":"21087","city":"Kingsville","state":"Maryland","stateCode":"MD","county":"Kingsville County","lat":39.4558,"lng":-76.4147,"timezone":"America/New_York","areaCode":"410","population":0,"elevation":100,"type":"Standard"},{"zip":"21088","city":"Lineboro","state":"Maryland","stateCode":"MD","county":"Lineboro County","lat":39.7187,"lng":-76.8439,"timezone":"America/New_York","areaCode":"410","population":0,"elevation":100,"type":"Standard"},{"zip":"21090","city":"Linthicum Heights","state":"Maryland","stateCode":"MD","county":"Linthicum Heights County","lat":39.2092,"lng":-76.6681,"timezone":"America/New_York","areaCode":"410","population":0,"elevation":100,"type":"Standard"},{"zip":"21092","city":"Long Green","state":"Maryland","stateCode":"MD","county":"Long Green County","lat":39.4729,"lng":-76.523,"timezone":"America/New_York","areaCode":"410","population":0,"elevation":100,"type":"Standard"},{"zip":"21093","city":"Lutherville Timonium","state":"Maryland","stateCode":"MD","county":"Lutherville Timonium County","lat":39.4332,"lng":-76.6546,"timezone":"America/New_York","areaCode":"410","population":0,"elevation":100,"type":"Standard"},{"zip":"21094","city":"Lutherville Timonium","state":"Maryland","stateCode":"MD","county":"Lutherville Timonium County","lat":39.439,"lng":-76.5921,"timezone":"America/New_York","areaCode":"410","population":0,"elevation":100,"type":"Standard"},{"zip":"21098","city":"Hanover","state":"Maryland","stateCode":"MD","county":"Hanover County","lat":39.19,"lng":-76.72,"timezone":"America/New_York","areaCode":"410","population":0,"elevation":100,"type":"Standard"},{"zip":"21102","city":"Manchester","state":"Maryland","stateCode":"MD","county":"Manchester County","lat":39.6747,"lng":-76.8941,"timezone":"America/New_York","areaCode":"410","population":0,"elevation":100,"type":"Standard"},{"zip":"21104","city":"Marriottsville","state":"Maryland","stateCode":"MD","county":"Marriottsville County","lat":39.3342,"lng":-76.9132,"timezone":"America/New_York","areaCode":"410","population":0,"elevation":100,"type":"Standard"},{"zip":"21105","city":"Maryland Line","state":"Maryland","stateCode":"MD","county":"Maryland Line County","lat":39.7114,"lng":-76.6595,"timezone":"America/New_York","areaCode":"410","population":0,"elevation":100,"type":"Standard"},{"zip":"21106","city":"Mayo","state":"Maryland","stateCode":"MD","county":"Mayo County","lat":38.8876,"lng":-76.5119,"timezone":"America/New_York","areaCode":"410","population":0,"elevation":100,"type":"Standard"},{"zip":"21108","city":"Millersville","state":"Maryland","stateCode":"MD","county":"Millersville County","lat":39.1041,"lng":-76.619,"timezone":"America/New_York","areaCode":"410","population":0,"elevation":100,"type":"Standard"},{"zip":"21111","city":"Monkton","state":"Maryland","stateCode":"MD","county":"Monkton County","lat":39.5662,"lng":-76.5979,"timezone":"America/New_York","areaCode":"410","population":0,"elevation":100,"type":"Standard"},{"zip":"21113","city":"Odenton","state":"Maryland","stateCode":"MD","county":"Odenton County","lat":39.0762,"lng":-76.6996,"timezone":"America/New_York","areaCode":"410","population":0,"elevation":100,"type":"Standard"},{"zip":"21114","city":"Crofton","state":"Maryland","stateCode":"MD","county":"Crofton County","lat":39.0112,"lng":-76.6802,"timezone":"America/New_York","areaCode":"410","population":0,"elevation":100,"type":"Standard"},{"zip":"21117","city":"Owings Mills","state":"Maryland","stateCode":"MD","county":"Owings Mills County","lat":39.4269,"lng":-76.7769,"timezone":"America/New_York","areaCode":"410","population":0,"elevation":100,"type":"Standard"},{"zip":"21120","city":"Parkton","state":"Maryland","stateCode":"MD","county":"Parkton County","lat":39.6422,"lng":-76.6737,"timezone":"America/New_York","areaCode":"410","population":0,"elevation":100,"type":"Standard"},{"zip":"21122","city":"Pasadena","state":"Maryland","stateCode":"MD","county":"Los Angeles County","lat":39.1206,"lng":-76.495,"timezone":"America/New_York","areaCode":"410","population":0,"elevation":100,"type":"Standard"},{"zip":"21123","city":"Pasadena","state":"Maryland","stateCode":"MD","county":"Los Angeles County","lat":38.9742,"lng":-76.5949,"timezone":"America/New_York","areaCode":"410","population":0,"elevation":100,"type":"Standard"},{"zip":"21128","city":"Perry Hall","state":"Maryland","stateCode":"MD","county":"Perry Hall County","lat":39.401,"lng":-76.451,"timezone":"America/New_York","areaCode":"410","population":0,"elevation":100,"type":"Standard"},{"zip":"21130","city":"Perryman","state":"Maryland","stateCode":"MD","county":"Perryman County","lat":39.4716,"lng":-76.2117,"timezone":"America/New_York","areaCode":"410","population":0,"elevation":100,"type":"Standard"},{"zip":"21131","city":"Phoenix","state":"Maryland","stateCode":"MD","county":"Maricopa County","lat":39.4833,"lng":-76.5776,"timezone":"America/New_York","areaCode":"410","population":0,"elevation":100,"type":"Standard"},{"zip":"21132","city":"Pylesville","state":"Maryland","stateCode":"MD","county":"Pylesville County","lat":39.6959,"lng":-76.4113,"timezone":"America/New_York","areaCode":"410","population":0,"elevation":100,"type":"Standard"},{"zip":"21133","city":"Randallstown","state":"Maryland","stateCode":"MD","county":"Randallstown County","lat":39.3746,"lng":-76.8002,"timezone":"America/New_York","areaCode":"410","population":0,"elevation":100,"type":"Standard"},{"zip":"21136","city":"Reisterstown","state":"Maryland","stateCode":"MD","county":"Reisterstown County","lat":39.46,"lng":-76.8135,"timezone":"America/New_York","areaCode":"410","population":0,"elevation":100,"type":"Standard"},{"zip":"21139","city":"Riderwood","state":"Maryland","stateCode":"MD","county":"Riderwood County","lat":39.4093,"lng":-76.6486,"timezone":"America/New_York","areaCode":"410","population":0,"elevation":100,"type":"Standard"},{"zip":"21140","city":"Riva","state":"Maryland","stateCode":"MD","county":"Riva County","lat":38.9504,"lng":-76.5854,"timezone":"America/New_York","areaCode":"410","population":0,"elevation":100,"type":"Standard"},{"zip":"21144","city":"Severn","state":"Maryland","stateCode":"MD","county":"Severn County","lat":39.1275,"lng":-76.698,"timezone":"America/New_York","areaCode":"410","population":0,"elevation":100,"type":"Standard"},{"zip":"21146","city":"Severna Park","state":"Maryland","stateCode":"MD","county":"Severna Park County","lat":39.0811,"lng":-76.5577,"timezone":"America/New_York","areaCode":"410","population":0,"elevation":100,"type":"Standard"},{"zip":"21150","city":"Simpsonville","state":"Maryland","stateCode":"MD","county":"Simpsonville County","lat":39.2364,"lng":-76.9419,"timezone":"America/New_York","areaCode":"410","population":0,"elevation":100,"type":"Standard"},{"zip":"21152","city":"Sparks Glencoe","state":"Maryland","stateCode":"MD","county":"Sparks Glencoe County","lat":39.5483,"lng":-76.6819,"timezone":"America/New_York","areaCode":"410","population":0,"elevation":100,"type":"Standard"},{"zip":"21153","city":"Stevenson","state":"Maryland","stateCode":"MD","county":"Stevenson County","lat":39.4104,"lng":-76.713,"timezone":"America/New_York","areaCode":"410","population":0,"elevation":100,"type":"Standard"},{"zip":"21154","city":"Street","state":"Maryland","stateCode":"MD","county":"Street County","lat":39.6574,"lng":-76.3713,"timezone":"America/New_York","areaCode":"410","population":0,"elevation":100,"type":"Standard"},{"zip":"21155","city":"Upperco","state":"Maryland","stateCode":"MD","county":"Upperco County","lat":39.5676,"lng":-76.7972,"timezone":"America/New_York","areaCode":"410","population":0,"elevation":100,"type":"Standard"},{"zip":"21156","city":"Upper Falls","state":"Maryland","stateCode":"MD","county":"Upper Falls County","lat":39.4372,"lng":-76.3966,"timezone":"America/New_York","areaCode":"410","population":0,"elevation":100,"type":"Standard"},{"zip":"21157","city":"Westminster","state":"Maryland","stateCode":"MD","county":"Westminster County","lat":39.5642,"lng":-76.9807,"timezone":"America/New_York","areaCode":"410","population":0,"elevation":100,"type":"Standard"},{"zip":"21158","city":"Westminster","state":"Maryland","stateCode":"MD","county":"Westminster County","lat":39.607,"lng":-77.0294,"timezone":"America/New_York","areaCode":"410","population":0,"elevation":100,"type":"Standard"},{"zip":"21160","city":"Whiteford","state":"Maryland","stateCode":"MD","county":"Whiteford County","lat":39.7077,"lng":-76.316,"timezone":"America/New_York","areaCode":"410","population":0,"elevation":100,"type":"Standard"},{"zip":"21161","city":"White Hall","state":"Maryland","stateCode":"MD","county":"White Hall County","lat":39.6618,"lng":-76.5666,"timezone":"America/New_York","areaCode":"410","population":0,"elevation":100,"type":"Standard"},{"zip":"21162","city":"White Marsh","state":"Maryland","stateCode":"MD","county":"White Marsh County","lat":39.3923,"lng":-76.4132,"timezone":"America/New_York","areaCode":"410","population":0,"elevation":100,"type":"Standard"},{"zip":"21163","city":"Woodstock","state":"Maryland","stateCode":"MD","county":"Woodstock County","lat":39.3498,"lng":-76.8456,"timezone":"America/New_York","areaCode":"410","population":0,"elevation":100,"type":"Standard"},{"zip":"21201","city":"Baltimore","state":"Maryland","stateCode":"MD","county":"Baltimore City","lat":39.2946,"lng":-76.6252,"timezone":"America/New_York","areaCode":"301","population":0,"elevation":100,"type":"Standard"},{"zip":"21202","city":"Baltimore","state":"Maryland","stateCode":"MD","county":"Baltimore City","lat":39.2998,"lng":-76.6075,"timezone":"America/New_York","areaCode":"301","population":0,"elevation":100,"type":"Standard"},{"zip":"21203","city":"Baltimore","state":"Maryland","stateCode":"MD","county":"Baltimore City","lat":39.2847,"lng":-76.6205,"timezone":"America/New_York","areaCode":"301","population":0,"elevation":100,"type":"Standard"},{"zip":"21204","city":"Towson","state":"Maryland","stateCode":"MD","county":"Towson County","lat":39.4072,"lng":-76.6038,"timezone":"America/New_York","areaCode":"301","population":0,"elevation":100,"type":"Standard"},{"zip":"21205","city":"Baltimore","state":"Maryland","stateCode":"MD","county":"Baltimore City","lat":39.3009,"lng":-76.5799,"timezone":"America/New_York","areaCode":"301","population":0,"elevation":100,"type":"Standard"},{"zip":"21206","city":"Baltimore","state":"Maryland","stateCode":"MD","county":"Baltimore City","lat":39.3365,"lng":-76.5411,"timezone":"America/New_York","areaCode":"301","population":0,"elevation":100,"type":"Standard"},{"zip":"21207","city":"Gwynn Oak","state":"Maryland","stateCode":"MD","county":"Gwynn Oak County","lat":39.3296,"lng":-76.7341,"timezone":"America/New_York","areaCode":"301","population":0,"elevation":100,"type":"Standard"},{"zip":"21208","city":"Pikesville","state":"Maryland","stateCode":"MD","county":"Pikesville County","lat":39.3764,"lng":-76.729,"timezone":"America/New_York","areaCode":"301","population":0,"elevation":100,"type":"Standard"},{"zip":"21209","city":"Baltimore","state":"Maryland","stateCode":"MD","county":"Baltimore City","lat":39.3716,"lng":-76.6744,"timezone":"America/New_York","areaCode":"301","population":0,"elevation":100,"type":"Standard"},{"zip":"21210","city":"Baltimore","state":"Maryland","stateCode":"MD","county":"Baltimore City","lat":39.3507,"lng":-76.6321,"timezone":"America/New_York","areaCode":"301","population":0,"elevation":100,"type":"Standard"},{"zip":"21211","city":"Baltimore","state":"Maryland","stateCode":"MD","county":"Baltimore City","lat":39.3316,"lng":-76.6336,"timezone":"America/New_York","areaCode":"301","population":0,"elevation":100,"type":"Standard"},{"zip":"21212","city":"Baltimore","state":"Maryland","stateCode":"MD","county":"Baltimore City","lat":39.3626,"lng":-76.61,"timezone":"America/New_York","areaCode":"301","population":0,"elevation":100,"type":"Standard"},{"zip":"21213","city":"Baltimore","state":"Maryland","stateCode":"MD","county":"Baltimore City","lat":39.3127,"lng":-76.581,"timezone":"America/New_York","areaCode":"301","population":0,"elevation":100,"type":"Standard"},{"zip":"21214","city":"Baltimore","state":"Maryland","stateCode":"MD","county":"Baltimore City","lat":39.3521,"lng":-76.5644,"timezone":"America/New_York","areaCode":"301","population":0,"elevation":100,"type":"Standard"},{"zip":"21215","city":"Baltimore","state":"Maryland","stateCode":"MD","county":"Baltimore City","lat":39.3446,"lng":-76.6794,"timezone":"America/New_York","areaCode":"301","population":0,"elevation":100,"type":"Standard"},{"zip":"21216","city":"Baltimore","state":"Maryland","stateCode":"MD","county":"Baltimore City","lat":39.3093,"lng":-76.6699,"timezone":"America/New_York","areaCode":"301","population":0,"elevation":100,"type":"Standard"},{"zip":"21217","city":"Baltimore","state":"Maryland","stateCode":"MD","county":"Baltimore City","lat":39.3064,"lng":-76.6393,"timezone":"America/New_York","areaCode":"301","population":0,"elevation":100,"type":"Standard"},{"zip":"21218","city":"Baltimore","state":"Maryland","stateCode":"MD","county":"Baltimore City","lat":39.3265,"lng":-76.6048,"timezone":"America/New_York","areaCode":"301","population":0,"elevation":100,"type":"Standard"},{"zip":"21219","city":"Sparrows Point","state":"Maryland","stateCode":"MD","county":"Sparrows Point County","lat":39.2296,"lng":-76.4455,"timezone":"America/New_York","areaCode":"301","population":0,"elevation":100,"type":"Standard"},{"zip":"21220","city":"Middle River","state":"Maryland","stateCode":"MD","county":"Middle River County","lat":39.3401,"lng":-76.4153,"timezone":"America/New_York","areaCode":"301","population":0,"elevation":100,"type":"Standard"},{"zip":"21221","city":"Essex","state":"Maryland","stateCode":"MD","county":"Essex County","lat":39.3086,"lng":-76.4533,"timezone":"America/New_York","areaCode":"301","population":0,"elevation":100,"type":"Standard"},{"zip":"21222","city":"Dundalk","state":"Maryland","stateCode":"MD","county":"Dundalk County","lat":39.2655,"lng":-76.4935,"timezone":"America/New_York","areaCode":"301","population":0,"elevation":100,"type":"Standard"},{"zip":"21223","city":"Baltimore","state":"Maryland","stateCode":"MD","county":"Baltimore City","lat":39.287,"lng":-76.6476,"timezone":"America/New_York","areaCode":"301","population":0,"elevation":100,"type":"Standard"},{"zip":"21224","city":"Baltimore","state":"Maryland","stateCode":"MD","county":"Baltimore City","lat":39.2876,"lng":-76.5568,"timezone":"America/New_York","areaCode":"301","population":0,"elevation":100,"type":"Standard"},{"zip":"21225","city":"Brooklyn","state":"Maryland","stateCode":"MD","county":"Kings County","lat":39.2259,"lng":-76.6153,"timezone":"America/New_York","areaCode":"301","population":0,"elevation":100,"type":"Standard"},{"zip":"21226","city":"Curtis Bay","state":"Maryland","stateCode":"MD","county":"Curtis Bay County","lat":39.2109,"lng":-76.5597,"timezone":"America/New_York","areaCode":"301","population":0,"elevation":100,"type":"Standard"},{"zip":"21227","city":"Halethorpe","state":"Maryland","stateCode":"MD","county":"Halethorpe County","lat":39.2309,"lng":-76.6969,"timezone":"America/New_York","areaCode":"301","population":0,"elevation":100,"type":"Standard"},{"zip":"21228","city":"Catonsville","state":"Maryland","stateCode":"MD","county":"Catonsville County","lat":39.2782,"lng":-76.7401,"timezone":"America/New_York","areaCode":"301","population":0,"elevation":100,"type":"Standard"},{"zip":"21229","city":"Baltimore","state":"Maryland","stateCode":"MD","county":"Baltimore City","lat":39.2856,"lng":-76.6899,"timezone":"America/New_York","areaCode":"301","population":0,"elevation":100,"type":"Standard"},{"zip":"21230","city":"Baltimore","state":"Maryland","stateCode":"MD","county":"Baltimore City","lat":39.2645,"lng":-76.6224,"timezone":"America/New_York","areaCode":"301","population":0,"elevation":100,"type":"Standard"},{"zip":"21231","city":"Baltimore","state":"Maryland","stateCode":"MD","county":"Baltimore City","lat":39.2892,"lng":-76.59,"timezone":"America/New_York","areaCode":"301","population":0,"elevation":100,"type":"Standard"},{"zip":"21233","city":"Baltimore","state":"Maryland","stateCode":"MD","county":"Baltimore City","lat":39.2847,"lng":-76.6205,"timezone":"America/New_York","areaCode":"301","population":0,"elevation":100,"type":"Standard"},{"zip":"21234","city":"Parkville","state":"Maryland","stateCode":"MD","county":"Parkville County","lat":39.3876,"lng":-76.5418,"timezone":"America/New_York","areaCode":"301","population":0,"elevation":100,"type":"Standard"},{"zip":"21235","city":"Baltimore","state":"Maryland","stateCode":"MD","county":"Baltimore City","lat":39.2847,"lng":-76.6205,"timezone":"America/New_York","areaCode":"301","population":0,"elevation":100,"type":"Standard"},{"zip":"21236","city":"Nottingham","state":"Maryland","stateCode":"MD","county":"Nottingham County","lat":39.3914,"lng":-76.4871,"timezone":"America/New_York","areaCode":"301","population":0,"elevation":100,"type":"Standard"},{"zip":"21237","city":"Rosedale","state":"Maryland","stateCode":"MD","county":"Rosedale County","lat":39.3361,"lng":-76.5014,"timezone":"America/New_York","areaCode":"301","population":0,"elevation":100,"type":"Standard"},{"zip":"21239","city":"Baltimore","state":"Maryland","stateCode":"MD","county":"Baltimore City","lat":39.361,"lng":-76.5891,"timezone":"America/New_York","areaCode":"301","population":0,"elevation":100,"type":"Standard"},{"zip":"21240","city":"Baltimore","state":"Maryland","stateCode":"MD","county":"Baltimore City","lat":39.1753,"lng":-76.6732,"timezone":"America/New_York","areaCode":"301","population":0,"elevation":100,"type":"Standard"},{"zip":"21241","city":"Baltimore","state":"Maryland","stateCode":"MD","county":"Baltimore City","lat":39.2847,"lng":-76.6205,"timezone":"America/New_York","areaCode":"301","population":0,"elevation":100,"type":"Standard"},{"zip":"21244","city":"Windsor Mill","state":"Maryland","stateCode":"MD","county":"Windsor Mill County","lat":39.3331,"lng":-76.7849,"timezone":"America/New_York","areaCode":"301","population":0,"elevation":100,"type":"Standard"},{"zip":"21250","city":"Baltimore","state":"Maryland","stateCode":"MD","county":"Baltimore City","lat":39.2582,"lng":-76.7131,"timezone":"America/New_York","areaCode":"301","population":0,"elevation":100,"type":"Standard"},{"zip":"21251","city":"Baltimore","state":"Maryland","stateCode":"MD","county":"Baltimore City","lat":39.439,"lng":-76.5921,"timezone":"America/New_York","areaCode":"301","population":0,"elevation":100,"type":"Standard"},{"zip":"21252","city":"Towson","state":"Maryland","stateCode":"MD","county":"Towson County","lat":39.4015,"lng":-76.6019,"timezone":"America/New_York","areaCode":"301","population":0,"elevation":100,"type":"Standard"},{"zip":"21260","city":"Baltimore","state":"Maryland","stateCode":"MD","county":"Baltimore City","lat":39.35,"lng":-76.7,"timezone":"America/New_York","areaCode":"301","population":0,"elevation":100,"type":"Standard"},{"zip":"21261","city":"Essex","state":"Maryland","stateCode":"MD","county":"Essex County","lat":39.3,"lng":-76.45,"timezone":"America/New_York","areaCode":"301","population":0,"elevation":100,"type":"Standard"},{"zip":"21263","city":"Baltimore","state":"Maryland","stateCode":"MD","county":"Baltimore City","lat":39.2847,"lng":-76.6205,"timezone":"America/New_York","areaCode":"301","population":0,"elevation":100,"type":"Standard"},{"zip":"21264","city":"Baltimore","state":"Maryland","stateCode":"MD","county":"Baltimore City","lat":39.2847,"lng":-76.6205,"timezone":"America/New_York","areaCode":"301","population":0,"elevation":100,"type":"Standard"},{"zip":"21265","city":"Baltimore","state":"Maryland","stateCode":"MD","county":"Baltimore City","lat":39.29,"lng":-76.6,"timezone":"America/New_York","areaCode":"301","population":0,"elevation":100,"type":"Standard"},{"zip":"21268","city":"Baltimore","state":"Maryland","stateCode":"MD","county":"Baltimore City","lat":39.21,"lng":-76.72,"timezone":"America/New_York","areaCode":"301","population":0,"elevation":100,"type":"Standard"},{"zip":"21270","city":"Baltimore","state":"Maryland","stateCode":"MD","county":"Baltimore City","lat":39.2847,"lng":-76.6205,"timezone":"America/New_York","areaCode":"301","population":0,"elevation":100,"type":"Standard"},{"zip":"21273","city":"Baltimore","state":"Maryland","stateCode":"MD","county":"Baltimore City","lat":39.2847,"lng":-76.6205,"timezone":"America/New_York","areaCode":"301","population":0,"elevation":100,"type":"Standard"},{"zip":"21274","city":"Baltimore","state":"Maryland","stateCode":"MD","county":"Baltimore City","lat":39.29,"lng":-76.6,"timezone":"America/New_York","areaCode":"301","population":0,"elevation":100,"type":"Standard"},{"zip":"21275","city":"Baltimore","state":"Maryland","stateCode":"MD","county":"Baltimore City","lat":39.2847,"lng":-76.6205,"timezone":"America/New_York","areaCode":"301","population":0,"elevation":100,"type":"Standard"},{"zip":"21278","city":"Baltimore","state":"Maryland","stateCode":"MD","county":"Baltimore City","lat":39.2847,"lng":-76.6205,"timezone":"America/New_York","areaCode":"301","population":0,"elevation":100,"type":"Standard"},{"zip":"21279","city":"Baltimore","state":"Maryland","stateCode":"MD","county":"Baltimore City","lat":39.2847,"lng":-76.6205,"timezone":"America/New_York","areaCode":"301","population":0,"elevation":100,"type":"Standard"},{"zip":"21280","city":"Baltimore","state":"Maryland","stateCode":"MD","county":"Baltimore City","lat":39.2847,"lng":-76.6205,"timezone":"America/New_York","areaCode":"301","population":0,"elevation":100,"type":"Standard"},{"zip":"21281","city":"Baltimore","state":"Maryland","stateCode":"MD","county":"Baltimore City","lat":39.2847,"lng":-76.6205,"timezone":"America/New_York","areaCode":"301","population":0,"elevation":100,"type":"Standard"},{"zip":"21282","city":"Baltimore","state":"Maryland","stateCode":"MD","county":"Baltimore City","lat":39.3743,"lng":-76.7225,"timezone":"America/New_York","areaCode":"301","population":0,"elevation":100,"type":"Standard"},{"zip":"21283","city":"Baltimore","state":"Maryland","stateCode":"MD","county":"Baltimore City","lat":39.29,"lng":-76.61,"timezone":"America/New_York","areaCode":"301","population":0,"elevation":100,"type":"Standard"},{"zip":"21284","city":"Baltimore","state":"Maryland","stateCode":"MD","county":"Baltimore City","lat":39.4015,"lng":-76.6019,"timezone":"America/New_York","areaCode":"301","population":0,"elevation":100,"type":"Standard"},{"zip":"21285","city":"Baltimore","state":"Maryland","stateCode":"MD","county":"Baltimore City","lat":39.4015,"lng":-76.6019,"timezone":"America/New_York","areaCode":"301","population":0,"elevation":100,"type":"Standard"},{"zip":"21286","city":"Towson","state":"Maryland","stateCode":"MD","county":"Towson County","lat":39.4143,"lng":-76.5761,"timezone":"America/New_York","areaCode":"301","population":0,"elevation":100,"type":"Standard"},{"zip":"21287","city":"Baltimore","state":"Maryland","stateCode":"MD","county":"Baltimore City","lat":39.2975,"lng":-76.5927,"timezone":"America/New_York","areaCode":"301","population":0,"elevation":100,"type":"Standard"},{"zip":"21288","city":"Baltimore","state":"Maryland","stateCode":"MD","county":"Baltimore City","lat":39.2847,"lng":-76.6205,"timezone":"America/New_York","areaCode":"301","population":0,"elevation":100,"type":"Standard"},{"zip":"21289","city":"Baltimore","state":"Maryland","stateCode":"MD","county":"Baltimore City","lat":39.2847,"lng":-76.6205,"timezone":"America/New_York","areaCode":"301","population":0,"elevation":100,"type":"Standard"},{"zip":"21290","city":"Baltimore","state":"Maryland","stateCode":"MD","county":"Baltimore City","lat":39.2933,"lng":-76.6238,"timezone":"America/New_York","areaCode":"301","population":0,"elevation":100,"type":"Standard"},{"zip":"21297","city":"Baltimore","state":"Maryland","stateCode":"MD","county":"Baltimore City","lat":39.2847,"lng":-76.6205,"timezone":"America/New_York","areaCode":"301","population":0,"elevation":100,"type":"Standard"},{"zip":"21298","city":"Baltimore","state":"Maryland","stateCode":"MD","county":"Baltimore City","lat":39.2847,"lng":-76.6205,"timezone":"America/New_York","areaCode":"301","population":0,"elevation":100,"type":"Standard"},{"zip":"21401","city":"Annapolis","state":"Maryland","stateCode":"MD","county":"Annapolis County","lat":38.9898,"lng":-76.5501,"timezone":"America/New_York","areaCode":"410","population":0,"elevation":100,"type":"Standard"},{"zip":"21402","city":"Annapolis","state":"Maryland","stateCode":"MD","county":"Annapolis County","lat":38.9871,"lng":-76.4715,"timezone":"America/New_York","areaCode":"410","population":0,"elevation":100,"type":"Standard"},{"zip":"21403","city":"Annapolis","state":"Maryland","stateCode":"MD","county":"Annapolis County","lat":38.9524,"lng":-76.491,"timezone":"America/New_York","areaCode":"410","population":0,"elevation":100,"type":"Standard"},{"zip":"21404","city":"Annapolis","state":"Maryland","stateCode":"MD","county":"Annapolis County","lat":38.9784,"lng":-76.4922,"timezone":"America/New_York","areaCode":"410","population":0,"elevation":100,"type":"Standard"},{"zip":"21405","city":"Annapolis","state":"Maryland","stateCode":"MD","county":"Annapolis County","lat":39.0305,"lng":-76.5515,"timezone":"America/New_York","areaCode":"410","population":0,"elevation":100,"type":"Standard"},{"zip":"21409","city":"Annapolis","state":"Maryland","stateCode":"MD","county":"Annapolis County","lat":39.0416,"lng":-76.4377,"timezone":"America/New_York","areaCode":"410","population":0,"elevation":100,"type":"Standard"},{"zip":"21411","city":"Annapolis","state":"Maryland","stateCode":"MD","county":"Annapolis County","lat":38.9742,"lng":-76.5949,"timezone":"America/New_York","areaCode":"410","population":0,"elevation":100,"type":"Standard"},{"zip":"21412","city":"Annapolis","state":"Maryland","stateCode":"MD","county":"Annapolis County","lat":38.9742,"lng":-76.5949,"timezone":"America/New_York","areaCode":"410","population":0,"elevation":100,"type":"Standard"},{"zip":"21501","city":"Cumberland","state":"Maryland","stateCode":"MD","county":"Cumberland County","lat":39.6529,"lng":-78.7625,"timezone":"America/New_York","areaCode":"301","population":0,"elevation":100,"type":"Standard"},{"zip":"21502","city":"Cumberland","state":"Maryland","stateCode":"MD","county":"Cumberland County","lat":39.5992,"lng":-78.8444,"timezone":"America/New_York","areaCode":"301","population":0,"elevation":100,"type":"Standard"},{"zip":"21503","city":"Cumberland","state":"Maryland","stateCode":"MD","county":"Cumberland County","lat":39.6529,"lng":-78.7625,"timezone":"America/New_York","areaCode":"301","population":0,"elevation":100,"type":"Standard"},{"zip":"21504","city":"Cumberland","state":"Maryland","stateCode":"MD","county":"Cumberland County","lat":39.5807,"lng":-78.6906,"timezone":"America/New_York","areaCode":"301","population":0,"elevation":100,"type":"Standard"},{"zip":"21505","city":"Cumberland","state":"Maryland","stateCode":"MD","county":"Cumberland County","lat":39.594,"lng":-78.8434,"timezone":"America/New_York","areaCode":"301","population":0,"elevation":100,"type":"Standard"},{"zip":"21520","city":"Accident","state":"Maryland","stateCode":"MD","county":"Accident County","lat":39.6355,"lng":-79.3085,"timezone":"America/New_York","areaCode":"301","population":0,"elevation":100,"type":"Standard"},{"zip":"21521","city":"Barton","state":"Maryland","stateCode":"MD","county":"Barton County","lat":39.5331,"lng":-79.0281,"timezone":"America/New_York","areaCode":"301","population":0,"elevation":100,"type":"Standard"},{"zip":"21522","city":"Bittinger","state":"Maryland","stateCode":"MD","county":"Bittinger County","lat":39.6023,"lng":-79.2234,"timezone":"America/New_York","areaCode":"301","population":0,"elevation":100,"type":"Standard"},{"zip":"21523","city":"Bloomington","state":"Maryland","stateCode":"MD","county":"Bloomington County","lat":39.4861,"lng":-79.083,"timezone":"America/New_York","areaCode":"301","population":0,"elevation":100,"type":"Standard"},{"zip":"21524","city":"Corriganville","state":"Maryland","stateCode":"MD","county":"Corriganville County","lat":39.6967,"lng":-78.8031,"timezone":"America/New_York","areaCode":"301","population":0,"elevation":100,"type":"Standard"},{"zip":"21528","city":"Eckhart Mines","state":"Maryland","stateCode":"MD","county":"Eckhart Mines County","lat":39.6528,"lng":-78.9014,"timezone":"America/New_York","areaCode":"301","population":0,"elevation":100,"type":"Standard"},{"zip":"21529","city":"Ellerslie","state":"Maryland","stateCode":"MD","county":"Ellerslie County","lat":39.7083,"lng":-78.7774,"timezone":"America/New_York","areaCode":"301","population":0,"elevation":100,"type":"Standard"},{"zip":"21530","city":"Flintstone","state":"Maryland","stateCode":"MD","county":"Flintstone County","lat":39.6993,"lng":-78.5739,"timezone":"America/New_York","areaCode":"301","population":0,"elevation":100,"type":"Standard"},{"zip":"21531","city":"Friendsville","state":"Maryland","stateCode":"MD","county":"Friendsville County","lat":39.6665,"lng":-79.4219,"timezone":"America/New_York","areaCode":"301","population":0,"elevation":100,"type":"Standard"},{"zip":"21532","city":"Frostburg","state":"Maryland","stateCode":"MD","county":"Frostburg County","lat":39.6494,"lng":-78.9306,"timezone":"America/New_York","areaCode":"301","population":0,"elevation":100,"type":"Standard"},{"zip":"21536","city":"Grantsville","state":"Maryland","stateCode":"MD","county":"Grantsville County","lat":39.6551,"lng":-79.1241,"timezone":"America/New_York","areaCode":"301","population":0,"elevation":100,"type":"Standard"},{"zip":"21538","city":"Kitzmiller","state":"Maryland","stateCode":"MD","county":"Kitzmiller County","lat":39.4169,"lng":-79.2222,"timezone":"America/New_York","areaCode":"301","population":0,"elevation":100,"type":"Standard"},{"zip":"21539","city":"Lonaconing","state":"Maryland","stateCode":"MD","county":"Lonaconing County","lat":39.5757,"lng":-78.9915,"timezone":"America/New_York","areaCode":"301","population":0,"elevation":100,"type":"Standard"},{"zip":"21540","city":"Luke","state":"Maryland","stateCode":"MD","county":"Luke County","lat":39.4774,"lng":-79.0594,"timezone":"America/New_York","areaCode":"301","population":0,"elevation":100,"type":"Standard"},{"zip":"21541","city":"Mc Henry","state":"Maryland","stateCode":"MD","county":"Mc Henry County","lat":39.5656,"lng":-79.3823,"timezone":"America/New_York","areaCode":"301","population":0,"elevation":100,"type":"Standard"},{"zip":"21542","city":"Midland","state":"Maryland","stateCode":"MD","county":"Midland County","lat":39.5901,"lng":-78.9497,"timezone":"America/New_York","areaCode":"301","population":0,"elevation":100,"type":"Standard"},{"zip":"21543","city":"Midlothian","state":"Maryland","stateCode":"MD","county":"Midlothian County","lat":39.6343,"lng":-78.95,"timezone":"America/New_York","areaCode":"301","population":0,"elevation":100,"type":"Standard"},{"zip":"21545","city":"Mount Savage","state":"Maryland","stateCode":"MD","county":"Mount Savage County","lat":39.6991,"lng":-78.8739,"timezone":"America/New_York","areaCode":"301","population":0,"elevation":100,"type":"Standard"},{"zip":"21550","city":"Oakland","state":"Maryland","stateCode":"MD","county":"Alameda County","lat":39.4339,"lng":-79.3167,"timezone":"America/New_York","areaCode":"301","population":0,"elevation":100,"type":"Standard"},{"zip":"21555","city":"Oldtown","state":"Maryland","stateCode":"MD","county":"Oldtown County","lat":39.5846,"lng":-78.6044,"timezone":"America/New_York","areaCode":"301","population":0,"elevation":100,"type":"Standard"},{"zip":"21556","city":"Pinto","state":"Maryland","stateCode":"MD","county":"Pinto County","lat":39.5725,"lng":-78.844,"timezone":"America/New_York","areaCode":"301","population":0,"elevation":100,"type":"Standard"},{"zip":"21557","city":"Rawlings","state":"Maryland","stateCode":"MD","county":"Rawlings County","lat":39.5214,"lng":-78.9062,"timezone":"America/New_York","areaCode":"301","population":0,"elevation":100,"type":"Standard"},{"zip":"21560","city":"Spring Gap","state":"Maryland","stateCode":"MD","county":"Spring Gap County","lat":39.5654,"lng":-78.7164,"timezone":"America/New_York","areaCode":"301","population":0,"elevation":100,"type":"Standard"},{"zip":"21561","city":"Swanton","state":"Maryland","stateCode":"MD","county":"Swanton County","lat":39.4764,"lng":-79.2402,"timezone":"America/New_York","areaCode":"301","population":0,"elevation":100,"type":"Standard"},{"zip":"21562","city":"Westernport","state":"Maryland","stateCode":"MD","county":"Westernport County","lat":39.4905,"lng":-79.014,"timezone":"America/New_York","areaCode":"301","population":0,"elevation":100,"type":"Standard"},{"zip":"21601","city":"Easton","state":"Maryland","stateCode":"MD","county":"Easton County","lat":38.7768,"lng":-76.0758,"timezone":"America/New_York","areaCode":"301","population":0,"elevation":100,"type":"Standard"},{"zip":"21606","city":"Easton","state":"Maryland","stateCode":"MD","county":"Easton County","lat":38.77,"lng":-76.07,"timezone":"America/New_York","areaCode":"301","population":0,"elevation":100,"type":"Standard"},{"zip":"21607","city":"Barclay","state":"Maryland","stateCode":"MD","county":"Barclay County","lat":39.1299,"lng":-75.8601,"timezone":"America/New_York","areaCode":"301","population":0,"elevation":100,"type":"Standard"},{"zip":"21609","city":"Bethlehem","state":"Maryland","stateCode":"MD","county":"Bethlehem County","lat":38.7406,"lng":-75.9587,"timezone":"America/New_York","areaCode":"301","population":0,"elevation":100,"type":"Standard"},{"zip":"21610","city":"Betterton","state":"Maryland","stateCode":"MD","county":"Betterton County","lat":39.3655,"lng":-76.0639,"timezone":"America/New_York","areaCode":"301","population":0,"elevation":100,"type":"Standard"},{"zip":"21612","city":"Bozman","state":"Maryland","stateCode":"MD","county":"Bozman County","lat":38.7515,"lng":-76.2764,"timezone":"America/New_York","areaCode":"301","population":0,"elevation":100,"type":"Standard"},{"zip":"21613","city":"Cambridge","state":"Maryland","stateCode":"MD","county":"Cambridge County","lat":38.5643,"lng":-76.0874,"timezone":"America/New_York","areaCode":"301","population":0,"elevation":100,"type":"Standard"},{"zip":"21617","city":"Centreville","state":"Maryland","stateCode":"MD","county":"Centreville County","lat":39.0564,"lng":-76.045,"timezone":"America/New_York","areaCode":"301","population":0,"elevation":100,"type":"Standard"},{"zip":"21619","city":"Chester","state":"Maryland","stateCode":"MD","county":"Chester County","lat":38.9583,"lng":-76.2842,"timezone":"America/New_York","areaCode":"301","population":0,"elevation":100,"type":"Standard"},{"zip":"21620","city":"Chestertown","state":"Maryland","stateCode":"MD","county":"Chestertown County","lat":39.2125,"lng":-76.0802,"timezone":"America/New_York","areaCode":"301","population":0,"elevation":100,"type":"Standard"},{"zip":"21622","city":"Church Creek","state":"Maryland","stateCode":"MD","county":"Church Creek County","lat":38.4278,"lng":-76.1696,"timezone":"America/New_York","areaCode":"301","population":0,"elevation":100,"type":"Standard"},{"zip":"21623","city":"Church Hill","state":"Maryland","stateCode":"MD","county":"Church Hill County","lat":39.146,"lng":-75.988,"timezone":"America/New_York","areaCode":"301","population":0,"elevation":100,"type":"Standard"},{"zip":"21624","city":"Claiborne","state":"Maryland","stateCode":"MD","county":"Claiborne County","lat":38.8368,"lng":-76.2714,"timezone":"America/New_York","areaCode":"301","population":0,"elevation":100,"type":"Standard"},{"zip":"21625","city":"Cordova","state":"Maryland","stateCode":"MD","county":"Cordova County","lat":38.8704,"lng":-76.0029,"timezone":"America/New_York","areaCode":"301","population":0,"elevation":100,"type":"Standard"},{"zip":"21626","city":"Crapo","state":"Maryland","stateCode":"MD","county":"Crapo County","lat":38.3295,"lng":-76.1142,"timezone":"America/New_York","areaCode":"301","population":0,"elevation":100,"type":"Standard"},{"zip":"21627","city":"Crocheron","state":"Maryland","stateCode":"MD","county":"Crocheron County","lat":38.2426,"lng":-76.0531,"timezone":"America/New_York","areaCode":"301","population":0,"elevation":100,"type":"Standard"},{"zip":"21628","city":"Crumpton","state":"Maryland","stateCode":"MD","county":"Crumpton County","lat":39.233,"lng":-75.9195,"timezone":"America/New_York","areaCode":"301","population":0,"elevation":100,"type":"Standard"},{"zip":"21629","city":"Denton","state":"Maryland","stateCode":"MD","county":"Denton County","lat":38.8595,"lng":-75.8357,"timezone":"America/New_York","areaCode":"301","population":0,"elevation":100,"type":"Standard"},{"zip":"21631","city":"East New Market","state":"Maryland","stateCode":"MD","county":"East New Market County","lat":38.5921,"lng":-75.9568,"timezone":"America/New_York","areaCode":"301","population":0,"elevation":100,"type":"Standard"},{"zip":"21632","city":"Federalsburg","state":"Maryland","stateCode":"MD","county":"Federalsburg County","lat":38.7147,"lng":-75.7754,"timezone":"America/New_York","areaCode":"301","population":0,"elevation":100,"type":"Standard"},