[{"zip":"27006","city":"Advance","state":"North Carolina","stateCode":"NC","county":"Advance County","lat":36.0065,"lng":-80.4463,"timezone":"America/New_York","areaCode":"336","population":0,"elevation":100,"type":"Standard"},{"zip":"27007","city":"Ararat","state":"North Carolina","stateCode":"NC","county":"Ararat County","lat":36.3859,"lng":-80.5895,"timezone":"America/New_York","areaCode":"336","population":0,"elevation":100,"type":"Standard"},{"zip":"27009","city":"Belews Creek","state":"North Carolina","stateCode":"NC","county":"Belews Creek County","lat":36.2269,"lng":-80.093,"timezone":"America/New_York","areaCode":"336","population":0,"elevation":100,"type":"Standard"},{"zip":"27010","city":"Bethania","state":"North Carolina","stateCode":"NC","county":"Bethania County","lat":36.183,"lng":-80.3387,"timezone":"America/New_York","areaCode":"336","population":0,"elevation":100,"type":"Standard"},{"zip":"27011","city":"Boonville","state":"North Carolina","stateCode":"NC","county":"Boonville County","lat":36.234,"lng":-80.6357,"timezone":"America/New_York","areaCode":"336","population":0,"elevation":100,"type":"Standard"},{"zip":"27012","city":"Clemmons","state":"North Carolina","stateCode":"NC","county":"Clemmons County","lat":36.0341,"lng":-80.3962,"timezone":"America/New_York","areaCode":"336","population":0,"elevation":100,"type":"Standard"},{"zip":"27013","city":"Cleveland","state":"North Carolina","stateCode":"NC","county":"Cuyahoga County","lat":35.7374,"lng":-80.7113,"timezone":"America/New_York","areaCode":"336","population":0,"elevation":100,"type":"Standard"},{"zip":"27014","city":"Cooleemee","state":"North Carolina","stateCode":"NC","county":"Cooleemee County","lat":35.8104,"lng":-80.5559,"timezone":"America/New_York","areaCode":"336","population":0,"elevation":100,"type":"Standard"},{"zip":"27016","city":"Danbury","state":"North Carolina","stateCode":"NC","county":"Danbury County","lat":36.4559,"lng":-80.2194,"timezone":"America/New_York","areaCode":"336","population":0,"elevation":100,"type":"Standard"},{"zip":"27017","city":"Dobson","state":"North Carolina","stateCode":"NC","county":"Dobson County","lat":36.3698,"lng":-80.7101,"timezone":"America/New_York","areaCode":"336","population":0,"elevation":100,"type":"Standard"},{"zip":"27018","city":"East Bend","state":"North Carolina","stateCode":"NC","county":"East Bend County","lat":36.2032,"lng":-80.5284,"timezone":"America/New_York","areaCode":"336","population":0,"elevation":100,"type":"Standard"},{"zip":"27019","city":"Germanton","state":"North Carolina","stateCode":"NC","county":"Germanton County","lat":36.2725,"lng":-80.2254,"timezone":"America/New_York","areaCode":"336","population":0,"elevation":100,"type":"Standard"},{"zip":"27020","city":"Hamptonville","state":"North Carolina","stateCode":"NC","county":"Hamptonville County","lat":36.1242,"lng":-80.8137,"timezone":"America/New_York","areaCode":"336","population":0,"elevation":100,"type":"Standard"},{"zip":"27021","city":"King","state":"North Carolina","stateCode":"NC","county":"King County","lat":36.295,"lng":-80.356,"timezone":"America/New_York","areaCode":"336","population":0,"elevation":100,"type":"Standard"},{"zip":"27022","city":"Lawsonville","state":"North Carolina","stateCode":"NC","county":"Lawsonville County","lat":36.5132,"lng":-80.2103,"timezone":"America/New_York","areaCode":"336","population":0,"elevation":100,"type":"Standard"},{"zip":"27023","city":"Lewisville","state":"North Carolina","stateCode":"NC","county":"Lewisville County","lat":36.0967,"lng":-80.4206,"timezone":"America/New_York","areaCode":"336","population":0,"elevation":100,"type":"Standard"},{"zip":"27024","city":"Lowgap","state":"North Carolina","stateCode":"NC","county":"Lowgap County","lat":36.503,"lng":-80.7889,"timezone":"America/New_York","areaCode":"336","population":0,"elevation":100,"type":"Standard"},{"zip":"27025","city":"Madison","state":"North Carolina","stateCode":"NC","county":"Madison County","lat":36.3695,"lng":-79.9654,"timezone":"America/New_York","areaCode":"336","population":0,"elevation":100,"type":"Standard"},{"zip":"27027","city":"Mayodan","state":"North Carolina","stateCode":"NC","county":"Mayodan County","lat":36.4277,"lng":-79.9567,"timezone":"America/New_York","areaCode":"336","population":0,"elevation":100,"type":"Standard"},{"zip":"27028","city":"Mocksville","state":"North Carolina","stateCode":"NC","county":"Mocksville County","lat":35.922,"lng":-80.537,"timezone":"America/New_York","areaCode":"336","population":0,"elevation":100,"type":"Standard"},{"zip":"27030","city":"Mount Airy","state":"North Carolina","stateCode":"NC","county":"Mount Airy County","lat":36.5007,"lng":-80.6119,"timezone":"America/New_York","areaCode":"336","population":0,"elevation":100,"type":"Standard"},{"zip":"27031","city":"White Plains","state":"North Carolina","stateCode":"NC","county":"White Plains County","lat":36.3994,"lng":-80.7081,"timezone":"America/New_York","areaCode":"336","population":0,"elevation":100,"type":"Standard"},{"zip":"27040","city":"Pfafftown","state":"North Carolina","stateCode":"NC","county":"Pfafftown County","lat":36.1669,"lng":-80.3798,"timezone":"America/New_York","areaCode":"336","population":0,"elevation":100,"type":"Standard"},{"zip":"27041","city":"Pilot Mountain","state":"North Carolina","stateCode":"NC","county":"Pilot Mountain County","lat":36.4109,"lng":-80.4921,"timezone":"America/New_York","areaCode":"336","population":0,"elevation":100,"type":"Standard"},{"zip":"27042","city":"Pine Hall","state":"North Carolina","stateCode":"NC","county":"Pine Hall County","lat":36.3482,"lng":-80.0495,"timezone":"America/New_York","areaCode":"336","population":0,"elevation":100,"type":"Standard"},{"zip":"27043","city":"Pinnacle","state":"North Carolina","stateCode":"NC","county":"Pinnacle County","lat":36.3339,"lng":-80.4391,"timezone":"America/New_York","areaCode":"336","population":0,"elevation":100,"type":"Standard"},{"zip":"27045","city":"Rural Hall","state":"North Carolina","stateCode":"NC","county":"Rural Hall County","lat":36.2293,"lng":-80.2936,"timezone":"America/New_York","areaCode":"336","population":0,"elevation":100,"type":"Standard"},{"zip":"27046","city":"Sandy Ridge","state":"North Carolina","stateCode":"NC","county":"Sandy Ridge County","lat":36.49,"lng":-80.0859,"timezone":"America/New_York","areaCode":"336","population":0,"elevation":100,"type":"Standard"},{"zip":"27047","city":"Siloam","state":"North Carolina","stateCode":"NC","county":"Siloam County","lat":36.3002,"lng":-80.5772,"timezone":"America/New_York","areaCode":"336","population":0,"elevation":100,"type":"Standard"},{"zip":"27048","city":"Stoneville","state":"North Carolina","stateCode":"NC","county":"Stoneville County","lat":36.4705,"lng":-79.9013,"timezone":"America/New_York","areaCode":"336","population":0,"elevation":100,"type":"Standard"},{"zip":"27049","city":"Toast","state":"North Carolina","stateCode":"NC","county":"Toast County","lat":36.5004,"lng":-80.6265,"timezone":"America/New_York","areaCode":"336","population":0,"elevation":100,"type":"Standard"},{"zip":"27050","city":"Tobaccoville","state":"North Carolina","stateCode":"NC","county":"Tobaccoville County","lat":36.2336,"lng":-80.3915,"timezone":"America/New_York","areaCode":"336","population":0,"elevation":100,"type":"Standard"},{"zip":"27051","city":"Walkertown","state":"North Carolina","stateCode":"NC","county":"Walkertown County","lat":36.18,"lng":-80.1629,"timezone":"America/New_York","areaCode":"336","population":0,"elevation":100,"type":"Standard"},{"zip":"27052","city":"Walnut Cove","state":"North Carolina","stateCode":"NC","county":"Walnut Cove County","lat":36.3189,"lng":-80.1484,"timezone":"America/New_York","areaCode":"336","population":0,"elevation":100,"type":"Standard"},{"zip":"27053","city":"Westfield","state":"North Carolina","stateCode":"NC","county":"Westfield County","lat":36.4674,"lng":-80.3677,"timezone":"America/New_York","areaCode":"336","population":0,"elevation":100,"type":"Standard"},{"zip":"27054","city":"Woodleaf","state":"North Carolina","stateCode":"NC","county":"Woodleaf County","lat":35.7901,"lng":-80.6051,"timezone":"America/New_York","areaCode":"336","population":0,"elevation":100,"type":"Standard"},{"zip":"27055","city":"Yadkinville","state":"North Carolina","stateCode":"NC","county":"Yadkinville County","lat":36.1277,"lng":-80.653,"timezone":"America/New_York","areaCode":"336","population":0,"elevation":100,"type":"Standard"},{"zip":"27094","city":"Rural Hall","state":"North Carolina","stateCode":"NC","county":"Rural Hall County","lat":36.2404,"lng":-80.2934,"timezone":"America/New_York","areaCode":"336","population":0,"elevation":100,"type":"Standard"},{"zip":"27098","city":"Rural Hall","state":"North Carolina","stateCode":"NC","county":"Rural Hall County","lat":36.2404,"lng":-80.2934,"timezone":"America/New_York","areaCode":"336","population":0,"elevation":100,"type":"Standard"},{"zip":"27099","city":"Rural Hall","state":"North Carolina","stateCode":"NC","county":"Rural Hall County","lat":36.2404,"lng":-80.2934,"timezone":"America/New_York","areaCode":"336","population":0,"elevation":100,"type":"Standard"},{"zip":"27101","city":"Winston Salem","state":"North Carolina","stateCode":"NC","county":"Winston Salem County","lat":36.1024,"lng":-80.2228,"timezone":"America/New_York","areaCode":"336","population":0,"elevation":100,"type":"Standard"},{"zip":"27102","city":"Winston Salem","state":"North Carolina","stateCode":"NC","county":"Winston Salem County","lat":36.0323,"lng":-80.3962,"timezone":"America/New_York","areaCode":"336","population":0,"elevation":100,"type":"Standard"},{"zip":"27103","city":"Winston Salem","state":"North Carolina","stateCode":"NC","county":"Winston Salem County","lat":36.0671,"lng":-80.3025,"timezone":"America/New_York","areaCode":"336","population":0,"elevation":100,"type":"Standard"},{"zip":"27104","city":"Winston Salem","state":"North Carolina","stateCode":"NC","county":"Winston Salem County","lat":36.092,"lng":-80.3224,"timezone":"America/New_York","areaCode":"336","population":0,"elevation":100,"type":"Standard"},{"zip":"27105","city":"Winston Salem","state":"North Carolina","stateCode":"NC","county":"Winston Salem County","lat":36.144,"lng":-80.2376,"timezone":"America/New_York","areaCode":"336","population":0,"elevation":100,"type":"Standard"},{"zip":"27106","city":"Winston Salem","state":"North Carolina","stateCode":"NC","county":"Winston Salem County","lat":36.1428,"lng":-80.3069,"timezone":"America/New_York","areaCode":"336","population":0,"elevation":100,"type":"Standard"},{"zip":"27107","city":"Winston Salem","state":"North Carolina","stateCode":"NC","county":"Winston Salem County","lat":36.0403,"lng":-80.1933,"timezone":"America/New_York","areaCode":"336","population":0,"elevation":100,"type":"Standard"},{"zip":"27108","city":"Winston Salem","state":"North Carolina","stateCode":"NC","county":"Winston Salem County","lat":36.0275,"lng":-80.2073,"timezone":"America/New_York","areaCode":"336","population":0,"elevation":100,"type":"Standard"},{"zip":"27109","city":"Winston Salem","state":"North Carolina","stateCode":"NC","county":"Winston Salem County","lat":36.0275,"lng":-80.2073,"timezone":"America/New_York","areaCode":"336","population":0,"elevation":100,"type":"Standard"},{"zip":"27110","city":"Winston Salem","state":"North Carolina","stateCode":"NC","county":"Winston Salem County","lat":36.0275,"lng":-80.2073,"timezone":"America/New_York","areaCode":"336","population":0,"elevation":100,"type":"Standard"},{"zip":"27111","city":"Winston Salem","state":"North Carolina","stateCode":"NC","county":"Winston Salem County","lat":36.0999,"lng":-80.2442,"timezone":"America/New_York","areaCode":"336","population":0,"elevation":100,"type":"Standard"},{"zip":"27113","city":"Winston Salem","state":"North Carolina","stateCode":"NC","county":"Winston Salem County","lat":36.0999,"lng":-80.2442,"timezone":"America/New_York","areaCode":"336","population":0,"elevation":100,"type":"Standard"},{"zip":"27114","city":"Winston Salem","state":"North Carolina","stateCode":"NC","county":"Winston Salem County","lat":36.0999,"lng":-80.2442,"timezone":"America/New_York","areaCode":"336","population":0,"elevation":100,"type":"Standard"},{"zip":"27115","city":"Winston Salem","state":"North Carolina","stateCode":"NC","county":"Winston Salem County","lat":36.0999,"lng":-80.2442,"timezone":"America/New_York","areaCode":"336","population":0,"elevation":100,"type":"Standard"},{"zip":"27116","city":"Winston Salem","state":"North Carolina","stateCode":"NC","county":"Winston Salem County","lat":36.0999,"lng":-80.2442,"timezone":"America/New_York","areaCode":"336","population":0,"elevation":100,"type":"Standard"},{"zip":"27117","city":"Winston Salem","state":"North Carolina","stateCode":"NC","county":"Winston Salem County","lat":36.0275,"lng":-80.2073,"timezone":"America/New_York","areaCode":"336","population":0,"elevation":100,"type":"Standard"},{"zip":"27120","city":"Winston Salem","state":"North Carolina","stateCode":"NC","county":"Winston Salem County","lat":36.0999,"lng":-80.2442,"timezone":"America/New_York","areaCode":"336","population":0,"elevation":100,"type":"Standard"},{"zip":"27127","city":"Winston Salem","state":"North Carolina","stateCode":"NC","county":"Winston Salem County","lat":36.0425,"lng":-80.2609,"timezone":"America/New_York","areaCode":"336","population":0,"elevation":100,"type":"Standard"},{"zip":"27130","city":"Winston Salem","state":"North Carolina","stateCode":"NC","county":"Winston Salem County","lat":36.0275,"lng":-80.2073,"timezone":"America/New_York","areaCode":"336","population":0,"elevation":100,"type":"Standard"},{"zip":"27150","city":"Winston Salem","state":"North Carolina","stateCode":"NC","county":"Winston Salem County","lat":36.0275,"lng":-80.2073,"timezone":"America/New_York","areaCode":"336","population":0,"elevation":100,"type":"Standard"},{"zip":"27151","city":"Wachovia Master Chrg","state":"North Carolina","stateCode":"NC","county":"Wachovia Master Chrg County","lat":36.11,"lng":-80.24,"timezone":"America/New_York","areaCode":"336","population":0,"elevation":100,"type":"Standard"},{"zip":"27152","city":"Winston Salem","state":"North Carolina","stateCode":"NC","county":"Winston Salem County","lat":36.0275,"lng":-80.2073,"timezone":"America/New_York","areaCode":"336","population":0,"elevation":100,"type":"Standard"},{"zip":"27155","city":"Winston Salem","state":"North Carolina","stateCode":"NC","county":"Winston Salem County","lat":36.0275,"lng":-80.2073,"timezone":"America/New_York","areaCode":"336","population":0,"elevation":100,"type":"Standard"},{"zip":"27156","city":"Piedmont Aviation","state":"North Carolina","stateCode":"NC","county":"Piedmont Aviation County","lat":36.14,"lng":-80.22,"timezone":"America/New_York","areaCode":"336","population":0,"elevation":100,"type":"Standard"},{"zip":"27157","city":"Winston Salem","state":"North Carolina","stateCode":"NC","county":"Winston Salem County","lat":36.0275,"lng":-80.2073,"timezone":"America/New_York","areaCode":"336","population":0,"elevation":100,"type":"Standard"},{"zip":"27198","city":"Winston Salem","state":"North Carolina","stateCode":"NC","county":"Winston Salem County","lat":36.0275,"lng":-80.2073,"timezone":"America/New_York","areaCode":"336","population":0,"elevation":100,"type":"Standard"},{"zip":"27199","city":"Winston Salem","state":"North Carolina","stateCode":"NC","county":"Winston Salem County","lat":36.0999,"lng":-80.2442,"timezone":"America/New_York","areaCode":"336","population":0,"elevation":100,"type":"Standard"},{"zip":"27201","city":"Alamance","state":"North Carolina","stateCode":"NC","county":"Alamance County","lat":36.0318,"lng":-79.4856,"timezone":"America/New_York","areaCode":"336","population":0,"elevation":100,"type":"Standard"},{"zip":"27202","city":"Altamahaw","state":"North Carolina","stateCode":"NC","county":"Altamahaw County","lat":36.1855,"lng":-79.5055,"timezone":"America/New_York","areaCode":"336","population":0,"elevation":100,"type":"Standard"},{"zip":"27203","city":"Asheboro","state":"North Carolina","stateCode":"NC","county":"Asheboro County","lat":35.7323,"lng":-79.7893,"timezone":"America/New_York","areaCode":"336","population":0,"elevation":100,"type":"Standard"},{"zip":"27204","city":"Asheboro","state":"North Carolina","stateCode":"NC","county":"Asheboro County","lat":35.7883,"lng":-79.7206,"timezone":"America/New_York","areaCode":"336","population":0,"elevation":100,"type":"Standard"},{"zip":"27205","city":"Asheboro","state":"North Carolina","stateCode":"NC","county":"Asheboro County","lat":35.6396,"lng":-79.8509,"timezone":"America/New_York","areaCode":"336","population":0,"elevation":100,"type":"Standard"},{"zip":"27207","city":"Bear Creek","state":"North Carolina","stateCode":"NC","county":"Bear Creek County","lat":35.6129,"lng":-79.3726,"timezone":"America/New_York","areaCode":"336","population":0,"elevation":100,"type":"Standard"},{"zip":"27208","city":"Bennett","state":"North Carolina","stateCode":"NC","county":"Bennett County","lat":35.5673,"lng":-79.5225,"timezone":"America/New_York","areaCode":"336","population":0,"elevation":100,"type":"Standard"},{"zip":"27209","city":"Biscoe","state":"North Carolina","stateCode":"NC","county":"Biscoe County","lat":35.3599,"lng":-79.7798,"timezone":"America/New_York","areaCode":"336","population":0,"elevation":100,"type":"Standard"},{"zip":"27212","city":"Blanch","state":"North Carolina","stateCode":"NC","county":"Blanch County","lat":36.4664,"lng":-79.2755,"timezone":"America/New_York","areaCode":"336","population":0,"elevation":100,"type":"Standard"},{"zip":"27213","city":"Bonlee","state":"North Carolina","stateCode":"NC","county":"Bonlee County","lat":35.6482,"lng":-79.4149,"timezone":"America/New_York","areaCode":"336","population":0,"elevation":100,"type":"Standard"},{"zip":"27214","city":"Browns Summit","state":"North Carolina","stateCode":"NC","county":"Browns Summit County","lat":36.2019,"lng":-79.7101,"timezone":"America/New_York","areaCode":"336","population":0,"elevation":100,"type":"Standard"},{"zip":"27215","city":"Burlington","state":"North Carolina","stateCode":"NC","county":"Burlington County","lat":36.0318,"lng":-79.4889,"timezone":"America/New_York","areaCode":"336","population":0,"elevation":100,"type":"Standard"},{"zip":"27216","city":"Burlington","state":"North Carolina","stateCode":"NC","county":"Burlington County","lat":36.0475,"lng":-79.4797,"timezone":"America/New_York","areaCode":"336","population":0,"elevation":100,"type":"Standard"},{"zip":"27217","city":"Burlington","state":"North Carolina","stateCode":"NC","county":"Burlington County","lat":36.1288,"lng":-79.4114,"timezone":"America/New_York","areaCode":"336","population":0,"elevation":100,"type":"Standard"},{"zip":"27220","city":"Burlington","state":"North Carolina","stateCode":"NC","county":"Burlington County","lat":36.02,"lng":-79.48,"timezone":"America/New_York","areaCode":"336","population":0,"elevation":100,"type":"Standard"},{"zip":"27228","city":"Bynum","state":"North Carolina","stateCode":"NC","county":"Bynum County","lat":35.7835,"lng":-79.1298,"timezone":"America/New_York","areaCode":"336","population":0,"elevation":100,"type":"Standard"},{"zip":"27229","city":"Candor","state":"North Carolina","stateCode":"NC","county":"Candor County","lat":35.2234,"lng":-79.7876,"timezone":"America/New_York","areaCode":"336","population":0,"elevation":100,"type":"Standard"},{"zip":"27230","city":"Cedar Falls","state":"North Carolina","stateCode":"NC","county":"Cedar Falls County","lat":35.8028,"lng":-79.8797,"timezone":"America/New_York","areaCode":"336","population":0,"elevation":100,"type":"Standard"},{"zip":"27231","city":"Cedar Grove","state":"North Carolina","stateCode":"NC","county":"Cedar Grove County","lat":36.202,"lng":-79.1666,"timezone":"America/New_York","areaCode":"336","population":0,"elevation":100,"type":"Standard"},{"zip":"27233","city":"Climax","state":"North Carolina","stateCode":"NC","county":"Climax County","lat":35.9345,"lng":-79.7019,"timezone":"America/New_York","areaCode":"336","population":0,"elevation":100,"type":"Standard"},{"zip":"27235","city":"Colfax","state":"North Carolina","stateCode":"NC","county":"Colfax County","lat":36.1003,"lng":-80.0103,"timezone":"America/New_York","areaCode":"336","population":0,"elevation":100,"type":"Standard"},{"zip":"27237","city":"Cumnock","state":"North Carolina","stateCode":"NC","county":"Cumnock County","lat":35.4676,"lng":-79.1653,"timezone":"America/New_York","areaCode":"336","population":0,"elevation":100,"type":"Standard"},{"zip":"27239","city":"Denton","state":"North Carolina","stateCode":"NC","county":"Denton County","lat":35.6196,"lng":-80.0959,"timezone":"America/New_York","areaCode":"336","population":0,"elevation":100,"type":"Standard"},{"zip":"27242","city":"Eagle Springs","state":"North Carolina","stateCode":"NC","county":"Eagle Springs County","lat":35.336,"lng":-79.631,"timezone":"America/New_York","areaCode":"336","population":0,"elevation":100,"type":"Standard"},{"zip":"27243","city":"Efland","state":"North Carolina","stateCode":"NC","county":"Efland County","lat":36.0912,"lng":-79.1884,"timezone":"America/New_York","areaCode":"336","population":0,"elevation":100,"type":"Standard"},{"zip":"27244","city":"Elon","state":"North Carolina","stateCode":"NC","county":"Elon County","lat":36.1029,"lng":-79.5067,"timezone":"America/New_York","areaCode":"336","population":0,"elevation":100,"type":"Standard"},{"zip":"27247","city":"Ether","state":"North Carolina","stateCode":"NC","county":"Ether County","lat":35.4514,"lng":-79.7834,"timezone":"America/New_York","areaCode":"336","population":0,"elevation":100,"type":"Standard"},{"zip":"27248","city":"Franklinville","state":"North Carolina","stateCode":"NC","county":"Franklinville County","lat":35.7917,"lng":-79.7132,"timezone":"America/New_York","areaCode":"336","population":0,"elevation":100,"type":"Standard"},{"zip":"27249","city":"Gibsonville","state":"North Carolina","stateCode":"NC","county":"Gibsonville County","lat":36.1183,"lng":-79.5685,"timezone":"America/New_York","areaCode":"336","population":0,"elevation":100,"type":"Standard"},{"zip":"27252","city":"Goldston","state":"North Carolina","stateCode":"NC","county":"Goldston County","lat":35.5643,"lng":-79.3385,"timezone":"America/New_York","areaCode":"336","population":0,"elevation":100,"type":"Standard"},{"zip":"27253","city":"Graham","state":"North Carolina","stateCode":"NC","county":"Graham County","lat":36.031,"lng":-79.3814,"timezone":"America/New_York","areaCode":"336","population":0,"elevation":100,"type":"Standard"},{"zip":"27256","city":"Gulf","state":"North Carolina","stateCode":"NC","county":"Gulf County","lat":35.5604,"lng":-79.2817,"timezone":"America/New_York","areaCode":"336","population":0,"elevation":100,"type":"Standard"},{"zip":"27258","city":"Haw River","state":"North Carolina","stateCode":"NC","county":"Haw River County","lat":36.0915,"lng":-79.3642,"timezone":"America/New_York","areaCode":"336","population":0,"elevation":100,"type":"Standard"},{"zip":"27259","city":"Highfalls","state":"North Carolina","stateCode":"NC","county":"Highfalls County","lat":35.4921,"lng":-79.479,"timezone":"America/New_York","areaCode":"336","population":0,"elevation":100,"type":"Standard"},{"zip":"27260","city":"High Point","state":"North Carolina","stateCode":"NC","county":"High Point County","lat":35.954,"lng":-79.9884,"timezone":"America/New_York","areaCode":"336","population":0,"elevation":100,"type":"Standard"},{"zip":"27261","city":"High Point","state":"North Carolina","stateCode":"NC","county":"High Point County","lat":36.0807,"lng":-80.0244,"timezone":"America/New_York","areaCode":"336","population":0,"elevation":100,"type":"Standard"},{"zip":"27262","city":"High Point","state":"North Carolina","stateCode":"NC","county":"High Point County","lat":35.9734,"lng":-80.0107,"timezone":"America/New_York","areaCode":"336","population":0,"elevation":100,"type":"Standard"},{"zip":"27263","city":"High Point","state":"North Carolina","stateCode":"NC","county":"High Point County","lat":35.9359,"lng":-79.9395,"timezone":"America/New_York","areaCode":"336","population":0,"elevation":100,"type":"Standard"},{"zip":"27264","city":"High Point","state":"North Carolina","stateCode":"NC","county":"High Point County","lat":36.0807,"lng":-80.0244,"timezone":"America/New_York","areaCode":"336","population":0,"elevation":100,"type":"Standard"},{"zip":"27265","city":"High Point","state":"North Carolina","stateCode":"NC","county":"High Point County","lat":36.0036,"lng":-80.0036,"timezone":"America/New_York","areaCode":"336","population":0,"elevation":100,"type":"Standard"},{"zip":"27268","city":"High Point","state":"North Carolina","stateCode":"NC","county":"High Point County","lat":35.9698,"lng":-79.9936,"timezone":"America/New_York","areaCode":"336","population":0,"elevation":100,"type":"Standard"},{"zip":"27278","city":"Hillsborough","state":"North Carolina","stateCode":"NC","county":"Hillsborough County","lat":36.0756,"lng":-79.0914,"timezone":"America/New_York","areaCode":"336","population":0,"elevation":100,"type":"Standard"},{"zip":"27281","city":"Jackson Springs","state":"North Carolina","stateCode":"NC","county":"Jackson Springs County","lat":35.2259,"lng":-79.6685,"timezone":"America/New_York","areaCode":"336","population":0,"elevation":100,"type":"Standard"},{"zip":"27282","city":"Jamestown","state":"North Carolina","stateCode":"NC","county":"Jamestown County","lat":35.999,"lng":-79.9293,"timezone":"America/New_York","areaCode":"336","population":0,"elevation":100,"type":"Standard"},{"zip":"27283","city":"Julian","state":"North Carolina","stateCode":"NC","county":"Julian County","lat":35.9543,"lng":-79.6386,"timezone":"America/New_York","areaCode":"336","population":0,"elevation":100,"type":"Standard"},{"zip":"27284","city":"Kernersville","state":"North Carolina","stateCode":"NC","county":"Kernersville County","lat":36.1165,"lng":-80.0831,"timezone":"America/New_York","areaCode":"336","population":0,"elevation":100,"type":"Standard"},{"zip":"27285","city":"Kernersville","state":"North Carolina","stateCode":"NC","county":"Kernersville County","lat":36.1199,"lng":-80.0737,"timezone":"America/New_York","areaCode":"336","population":0,"elevation":100,"type":"Standard"},{"zip":"27288","city":"Eden","state":"North Carolina","stateCode":"NC","county":"Eden County","lat":36.5,"lng":-79.759,"timezone":"America/New_York","areaCode":"336","population":0,"elevation":100,"type":"Standard"},{"zip":"27289","city":"Eden","state":"North Carolina","stateCode":"NC","county":"Eden County","lat":36.3921,"lng":-79.7731,"timezone":"America/New_York","areaCode":"336","population":0,"elevation":100,"type":"Standard"},{"zip":"27291","city":"Leasburg","state":"North Carolina","stateCode":"NC","county":"Leasburg County","lat":36.4151,"lng":-79.1942,"timezone":"America/New_York","areaCode":"336","population":0,"elevation":100,"type":"Standard"},{"zip":"27292","city":"Lexington","state":"North Carolina","stateCode":"NC","county":"Lexington County","lat":35.8231,"lng":-80.262,"timezone":"America/New_York","areaCode":"336","population":0,"elevation":100,"type":"Standard"},{"zip":"27293","city":"Lexington","state":"North Carolina","stateCode":"NC","county":"Lexington County","lat":35.8829,"lng":-80.276,"timezone":"America/New_York","areaCode":"336","population":0,"elevation":100,"type":"Standard"},{"zip":"27294","city":"Lexington","state":"North Carolina","stateCode":"NC","county":"Lexington County","lat":35.824,"lng":-80.2534,"timezone":"America/New_York","areaCode":"336","population":0,"elevation":100,"type":"Standard"},{"zip":"27295","city":"Lexington","state":"North Carolina","stateCode":"NC","county":"Lexington County","lat":35.8684,"lng":-80.315,"timezone":"America/New_York","areaCode":"336","population":0,"elevation":100,"type":"Standard"},{"zip":"27298","city":"Liberty","state":"North Carolina","stateCode":"NC","county":"Liberty County","lat":35.8729,"lng":-79.5821,"timezone":"America/New_York","areaCode":"336","population":0,"elevation":100,"type":"Standard"},{"zip":"27299","city":"Linwood","state":"North Carolina","stateCode":"NC","county":"Linwood County","lat":35.7562,"lng":-80.3749,"timezone":"America/New_York","areaCode":"336","population":0,"elevation":100,"type":"Standard"},{"zip":"27301","city":"Mc Leansville","state":"North Carolina","stateCode":"NC","county":"Mc Leansville County","lat":36.1163,"lng":-79.6684,"timezone":"America/New_York","areaCode":"336","population":0,"elevation":100,"type":"Standard"},{"zip":"27302","city":"Mebane","state":"North Carolina","stateCode":"NC","county":"Mebane County","lat":36.0979,"lng":-79.2719,"timezone":"America/New_York","areaCode":"336","population":0,"elevation":100,"type":"Standard"},{"zip":"27305","city":"Milton","state":"North Carolina","stateCode":"NC","county":"Milton County","lat":36.5158,"lng":-79.2087,"timezone":"America/New_York","areaCode":"336","population":0,"elevation":100,"type":"Standard"},{"zip":"27306","city":"Mount Gilead","state":"North Carolina","stateCode":"NC","county":"Mount Gilead County","lat":35.2274,"lng":-79.9871,"timezone":"America/New_York","areaCode":"336","population":0,"elevation":100,"type":"Standard"},{"zip":"27310","city":"Oak Ridge","state":"North Carolina","stateCode":"NC","county":"Oak Ridge County","lat":36.1673,"lng":-79.9804,"timezone":"America/New_York","areaCode":"336","population":0,"elevation":100,"type":"Standard"},{"zip":"27311","city":"Pelham","state":"North Carolina","stateCode":"NC","county":"Pelham County","lat":36.4899,"lng":-79.4736,"timezone":"America/New_York","areaCode":"336","population":0,"elevation":100,"type":"Standard"},{"zip":"27312","city":"Pittsboro","state":"North Carolina","stateCode":"NC","county":"Pittsboro County","lat":35.7694,"lng":-79.1755,"timezone":"America/New_York","areaCode":"336","population":0,"elevation":100,"type":"Standard"},{"zip":"27313","city":"Pleasant Garden","state":"North Carolina","stateCode":"NC","county":"Pleasant Garden County","lat":35.9522,"lng":-79.7549,"timezone":"America/New_York","areaCode":"336","population":0,"elevation":100,"type":"Standard"},{"zip":"27314","city":"Prospect Hill","state":"North Carolina","stateCode":"NC","county":"Prospect Hill County","lat":36.2932,"lng":-79.2156,"timezone":"America/New_York","areaCode":"336","population":0,"elevation":100,"type":"Standard"},{"zip":"27315","city":"Providence","state":"North Carolina","stateCode":"NC","county":"Providence County","lat":36.4873,"lng":-79.4041,"timezone":"America/New_York","areaCode":"336","population":0,"elevation":100,"type":"Standard"},{"zip":"27316","city":"Ramseur","state":"North Carolina","stateCode":"NC","county":"Ramseur County","lat":35.7143,"lng":-79.6469,"timezone":"America/New_York","areaCode":"336","population":0,"elevation":100,"type":"Standard"},{"zip":"27317","city":"Randleman","state":"North Carolina","stateCode":"NC","county":"Randleman County","lat":35.8488,"lng":-79.8018,"timezone":"America/New_York","areaCode":"336","population":0,"elevation":100,"type":"Standard"},{"zip":"27320","city":"Reidsville","state":"North Carolina","stateCode":"NC","county":"Reidsville County","lat":36.3432,"lng":-79.6642,"timezone":"America/New_York","areaCode":"336","population":0,"elevation":100,"type":"Standard"},{"zip":"27321","city":"Burlington House","state":"North Carolina","stateCode":"NC","county":"Burlington House County","lat":36.35,"lng":-79.66,"timezone":"America/New_York","areaCode":"336","population":0,"elevation":100,"type":"Standard"},{"zip":"27322","city":"Reidsville","state":"North Carolina","stateCode":"NC","county":"Reidsville County","lat":36.35,"lng":-79.66,"timezone":"America/New_York","areaCode":"336","population":0,"elevation":100,"type":"Standard"},{"zip":"27323","city":"Reidsville","state":"North Carolina","stateCode":"NC","county":"Reidsville County","lat":36.3921,"lng":-79.7731,"timezone":"America/New_York","areaCode":"336","population":0,"elevation":100,"type":"Standard"},{"zip":"27325","city":"Robbins","state":"North Carolina","stateCode":"NC","county":"Robbins County","lat":35.4528,"lng":-79.582,"timezone":"America/New_York","areaCode":"336","population":0,"elevation":100,"type":"Standard"},{"zip":"27326","city":"Ruffin","state":"North Carolina","stateCode":"NC","county":"Ruffin County","lat":36.4428,"lng":-79.5606,"timezone":"America/New_York","areaCode":"336","population":0,"elevation":100,"type":"Standard"},{"zip":"27330","city":"Sanford","state":"North Carolina","stateCode":"NC","county":"Sanford County","lat":35.4698,"lng":-79.1717,"timezone":"America/New_York","areaCode":"336","population":0,"elevation":100,"type":"Standard"},{"zip":"27331","city":"Sanford","state":"North Carolina","stateCode":"NC","county":"Sanford County","lat":35.4799,"lng":-79.1803,"timezone":"America/New_York","areaCode":"336","population":0,"elevation":100,"type":"Standard"},{"zip":"27332","city":"Sanford","state":"North Carolina","stateCode":"NC","county":"Sanford County","lat":35.4469,"lng":-79.138,"timezone":"America/New_York","areaCode":"336","population":0,"elevation":100,"type":"Standard"},{"zip":"27340","city":"Saxapahaw","state":"North Carolina","stateCode":"NC","county":"Saxapahaw County","lat":35.9488,"lng":-79.3297,"timezone":"America/New_York","areaCode":"336","population":0,"elevation":100,"type":"Standard"},{"zip":"27341","city":"Seagrove","state":"North Carolina","stateCode":"NC","county":"Seagrove County","lat":35.5283,"lng":-79.6979,"timezone":"America/New_York","areaCode":"336","population":0,"elevation":100,"type":"Standard"},{"zip":"27342","city":"Sedalia","state":"North Carolina","stateCode":"NC","county":"Sedalia County","lat":36.0756,"lng":-79.6206,"timezone":"America/New_York","areaCode":"336","population":0,"elevation":100,"type":"Standard"},{"zip":"27343","city":"Semora","state":"North Carolina","stateCode":"NC","county":"Semora County","lat":36.5114,"lng":-79.0942,"timezone":"America/New_York","areaCode":"336","population":0,"elevation":100,"type":"Standard"},{"zip":"27344","city":"Siler City","state":"North Carolina","stateCode":"NC","county":"Siler City County","lat":35.7354,"lng":-79.4566,"timezone":"America/New_York","areaCode":"336","population":0,"elevation":100,"type":"Standard"},{"zip":"27349","city":"Snow Camp","state":"North Carolina","stateCode":"NC","county":"Snow Camp County","lat":35.9066,"lng":-79.4279,"timezone":"America/New_York","areaCode":"336","population":0,"elevation":100,"type":"Standard"},{"zip":"27350","city":"Sophia","state":"North Carolina","stateCode":"NC","county":"Sophia County","lat":35.8298,"lng":-79.8986,"timezone":"America/New_York","areaCode":"336","population":0,"elevation":100,"type":"Standard"},{"zip":"27351","city":"Southmont","state":"North Carolina","stateCode":"NC","county":"Southmont County","lat":35.6605,"lng":-80.2836,"timezone":"America/New_York","areaCode":"336","population":0,"elevation":100,"type":"Standard"},{"zip":"27355","city":"Staley","state":"North Carolina","stateCode":"NC","county":"Staley County","lat":35.796,"lng":-79.5514,"timezone":"America/New_York","areaCode":"336","population":0,"elevation":100,"type":"Standard"},{"zip":"27356","city":"Star","state":"North Carolina","stateCode":"NC","county":"Star County","lat":35.4211,"lng":-79.7826,"timezone":"America/New_York","areaCode":"336","population":0,"elevation":100,"type":"Standard"},{"zip":"27357","city":"Stokesdale","state":"North Carolina","stateCode":"NC","county":"Stokesdale County","lat":36.2552,"lng":-79.9705,"timezone":"America/New_York","areaCode":"336","population":0,"elevation":100,"type":"Standard"},{"zip":"27358","city":"Summerfield","state":"North Carolina","stateCode":"NC","county":"Summerfield County","lat":36.2245,"lng":-79.8901,"timezone":"America/New_York","areaCode":"336","population":0,"elevation":100,"type":"Standard"},{"zip":"27359","city":"Swepsonville","state":"North Carolina","stateCode":"NC","county":"Swepsonville County","lat":36.0214,"lng":-79.3574,"timezone":"America/New_York","areaCode":"336","population":0,"elevation":100,"type":"Standard"},{"zip":"27360","city":"Thomasville","state":"North Carolina","stateCode":"NC","county":"Thomasville County","lat":35.8713,"lng":-80.0913,"timezone":"America/New_York","areaCode":"336","population":0,"elevation":100,"type":"Standard"},{"zip":"27361","city":"Thomasville","state":"North Carolina","stateCode":"NC","county":"Thomasville County","lat":35.8829,"lng":-80.276,"timezone":"America/New_York","areaCode":"336","population":0,"elevation":100,"type":"Standard"},{"zip":"27370","city":"Trinity","state":"North Carolina","stateCode":"NC","county":"Trinity County","lat":35.8429,"lng":-79.9902,"timezone":"America/New_York","areaCode":"336","population":0,"elevation":100,"type":"Standard"},{"zip":"27371","city":"Troy","state":"North Carolina","stateCode":"NC","county":"Troy County","lat":35.3777,"lng":-79.9093,"timezone":"America/New_York","areaCode":"336","population":0,"elevation":100,"type":"Standard"},{"zip":"27373","city":"Wallburg","state":"North Carolina","stateCode":"NC","county":"Wallburg County","lat":36.0101,"lng":-80.1392,"timezone":"America/New_York","areaCode":"336","population":0,"elevation":100,"type":"Standard"},{"zip":"27374","city":"Welcome","state":"North Carolina","stateCode":"NC","county":"Welcome County","lat":35.9029,"lng":-80.257,"timezone":"America/New_York","areaCode":"336","population":0,"elevation":100,"type":"Standard"},{"zip":"27375","city":"Wentworth","state":"North Carolina","stateCode":"NC","county":"Wentworth County","lat":36.3921,"lng":-79.7731,"timezone":"America/New_York","areaCode":"336","population":0,"elevation":100,"type":"Standard"},{"zip":"27376","city":"West End","state":"North Carolina","stateCode":"NC","county":"West End County","lat":35.2512,"lng":-79.536,"timezone":"America/New_York","areaCode":"336","population":0,"elevation":100,"type":"Standard"},{"zip":"27377","city":"Whitsett","state":"North Carolina","stateCode":"NC","county":"Whitsett County","lat":36.033,"lng":-79.5972,"timezone":"America/New_York","areaCode":"336","population":0,"elevation":100,"type":"Standard"},{"zip":"27379","city":"Yanceyville","state":"North Carolina","stateCode":"NC","county":"Yanceyville County","lat":36.3907,"lng":-79.3465,"timezone":"America/New_York","areaCode":"336","population":0,"elevation":100,"type":"Standard"},{"zip":"27395","city":"Greensboro","state":"North Carolina","stateCode":"NC","county":"Greensboro County","lat":36.07,"lng":-79.79,"timezone":"America/New_York","areaCode":"336","population":0,"elevation":100,"type":"Standard"},{"zip":"27401","city":"Greensboro","state":"North Carolina","stateCode":"NC","county":"Greensboro County","lat":36.0697,"lng":-79.7682,"timezone":"America/New_York","areaCode":"336","population":0,"elevation":100,"type":"Standard"},{"zip":"27402","city":"Greensboro","state":"North Carolina","stateCode":"NC","county":"Greensboro County","lat":36.0726,"lng":-79.792,"timezone":"America/New_York","areaCode":"336","population":0,"elevation":100,"type":"Standard"},{"zip":"27403","city":"Greensboro","state":"North Carolina","stateCode":"NC","county":"Greensboro County","lat":36.0641,"lng":-79.8202,"timezone":"America/New_York","areaCode":"336","population":0,"elevation":100,"type":"Standard"},{"zip":"27404","city":"Greensboro","state":"North Carolina","stateCode":"NC","county":"Greensboro County","lat":36.0726,"lng":-79.792,"timezone":"America/New_York","areaCode":"336","population":0,"elevation":100,"type":"Standard"},{"zip":"27405","city":"Greensboro","state":"North Carolina","stateCode":"NC","county":"Greensboro County","lat":36.1214,"lng":-79.7733,"timezone":"America/New_York","areaCode":"336","population":0,"elevation":100,"type":"Standard"},{"zip":"27406","city":"Greensboro","state":"North Carolina","stateCode":"NC","county":"Greensboro County","lat":36.022,"lng":-79.7821,"timezone":"America/New_York","areaCode":"336","population":0,"elevation":100,"type":"Standard"},{"zip":"27407","city":"Greensboro","state":"North Carolina","stateCode":"NC","county":"Greensboro County","lat":36.0334,"lng":-79.8626,"timezone":"America/New_York","areaCode":"336","population":0,"elevation":100,"type":"Standard"},{"zip":"27408","city":"Greensboro","state":"North Carolina","stateCode":"NC","county":"Greensboro County","lat":36.1064,"lng":-79.8165,"timezone":"America/New_York","areaCode":"336","population":0,"elevation":100,"type":"Standard"},{"zip":"27409","city":"Greensboro","state":"North Carolina","stateCode":"NC","county":"Greensboro County","lat":36.0777,"lng":-79.9086,"timezone":"America/New_York","areaCode":"336","population":0,"elevation":100,"type":"Standard"},{"zip":"27410","city":"Greensboro","state":"North Carolina","stateCode":"NC","county":"Greensboro County","lat":36.1032,"lng":-79.8794,"timezone":"America/New_York","areaCode":"336","population":0,"elevation":100,"type":"Standard"},{"zip":"27411","city":"Greensboro","state":"North Carolina","stateCode":"NC","county":"Greensboro County","lat":36.0726,"lng":-79.792,"timezone":"America/New_York","areaCode":"336","population":0,"elevation":100,"type":"Standard"},{"zip":"27412","city":"Greensboro","state":"North Carolina","stateCode":"NC","county":"Greensboro County","lat":36.0661,"lng":-79.8067,"timezone":"America/New_York","areaCode":"336","population":0,"elevation":100,"type":"Standard"},{"zip":"27413","city":"Greensboro","state":"North Carolina","stateCode":"NC","county":"Greensboro County","lat":36.0726,"lng":-79.792,"timezone":"America/New_York","areaCode":"336","population":0,"elevation":100,"type":"Standard"},{"zip":"27415","city":"Greensboro","state":"North Carolina","stateCode":"NC","county":"Greensboro County","lat":36.0726,"lng":-79.792,"timezone":"America/New_York","areaCode":"336","population":0,"elevation":100,"type":"Standard"},{"zip":"27416","city":"Greensboro","state":"North Carolina","stateCode":"NC","county":"Greensboro County","lat":36.0726,"lng":-79.792,"timezone":"America/New_York","areaCode":"336","population":0,"elevation":100,"type":"Standard"},{"zip":"27417","city":"Greensboro","state":"North Carolina","stateCode":"NC","county":"Greensboro County","lat":36.0726,"lng":-79.792,"timezone":"America/New_York","areaCode":"336","population":0,"elevation":100,"type":"Standard"},{"zip":"27419","city":"Greensboro","state":"North Carolina","stateCode":"NC","county":"Greensboro County","lat":36.0726,"lng":-79.792,"timezone":"America/New_York","areaCode":"336","population":0,"elevation":100,"type":"Standard"},{"zip":"27420","city":"Greensboro","state":"North Carolina","stateCode":"NC","county":"Greensboro County","lat":36.113,"lng":-79.7759,"timezone":"America/New_York","areaCode":"336","population":0,"elevation":100,"type":"Standard"},{"zip":"27425","city":"Greensboro","state":"North Carolina","stateCode":"NC","county":"Greensboro County","lat":36.0726,"lng":-79.792,"timezone":"America/New_York","areaCode":"336","population":0,"elevation":100,"type":"Standard"},{"zip":"27427","city":"Greensboro","state":"North Carolina","stateCode":"NC","county":"Greensboro County","lat":36.0726,"lng":-79.792,"timezone":"America/New_York","areaCode":"336","population":0,"elevation":100,"type":"Standard"},{"zip":"27429","city":"Greensboro","state":"North Carolina","stateCode":"NC","county":"Greensboro County","lat":36.0726,"lng":-79.792,"timezone":"America/New_York","areaCode":"336","population":0,"elevation":100,"type":"Standard"},{"zip":"27435","city":"Greensboro","state":"North Carolina","stateCode":"NC","county":"Greensboro County","lat":36.0726,"lng":-79.792,"timezone":"America/New_York","areaCode":"336","population":0,"elevation":100,"type":"Standard"},{"zip":"27438","city":"Greensboro","state":"North Carolina","stateCode":"NC","county":"Greensboro County","lat":36.0726,"lng":-79.792,"timezone":"America/New_York","areaCode":"336","population":0,"elevation":100,"type":"Standard"},{"zip":"27455","city":"Greensboro","state":"North Carolina","stateCode":"NC","county":"Greensboro County","lat":36.1824,"lng":-79.806,"timezone":"America/New_York","areaCode":"336","population":0,"elevation":100,"type":"Standard"},{"zip":"27480","city":"Sears Roebuck","state":"North Carolina","stateCode":"NC","county":"Sears Roebuck County","lat":36.07,"lng":-79.79,"timezone":"America/New_York","areaCode":"336","population":0,"elevation":100,"type":"Standard"},{"zip":"27495","city":"Greensboro","state":"North Carolina","stateCode":"NC","county":"Greensboro County","lat":36.0726,"lng":-79.792,"timezone":"America/New_York","areaCode":"336","population":0,"elevation":100,"type":"Standard"},{"zip":"27497","city":"Greensboro","state":"North Carolina","stateCode":"NC","county":"Greensboro County","lat":36.0798,"lng":-79.8282,"timezone":"America/New_York","areaCode":"336","population":0,"elevation":100,"type":"Standard"},{"zip":"27498","city":"Greensboro","state":"North Carolina","stateCode":"NC","county":"Greensboro County","lat":36.0726,"lng":-79.792,"timezone":"America/New_York","areaCode":"336","population":0,"elevation":100,"type":"Standard"},{"zip":"27499","city":"Greensboro","state":"North Carolina","stateCode":"NC","county":"Greensboro County","lat":36.0726,"lng":-79.792,"timezone":"America/New_York","areaCode":"336","population":0,"elevation":100,"type":"Standard"},{"zip":"27501","city":"Angier","state":"North Carolina","stateCode":"NC","county":"Angier County","lat":35.4897,"lng":-78.7249,"timezone":"America/New_York","areaCode":"919","population":0,"elevation":100,"type":"Standard"},{"zip":"27502","city":"Apex","state":"North Carolina","stateCode":"NC","county":"Apex County","lat":35.7225,"lng":-78.8408,"timezone":"America/New_York","areaCode":"919","population":0,"elevation":100,"type":"Standard"},{"zip":"27503","city":"Bahama","state":"North Carolina","stateCode":"NC","county":"Bahama County","lat":36.1566,"lng":-78.8903,"timezone":"America/New_York","areaCode":"919","population":0,"elevation":100,"type":"Standard"},{"zip":"27504","city":"Benson","state":"North Carolina","stateCode":"NC","county":"Benson County","lat":35.4037,"lng":-78.5421,"timezone":"America/New_York","areaCode":"919","population":0,"elevation":100,"type":"Standard"},{"zip":"27505","city":"Broadway","state":"North Carolina","stateCode":"NC","county":"Broadway County","lat":35.4181,"lng":-79.0435,"timezone":"America/New_York","areaCode":"919","population":0,"elevation":100,"type":"Standard"},{"zip":"27506","city":"Buies Creek","state":"North Carolina","stateCode":"NC","county":"Buies Creek County","lat":35.4132,"lng":-78.7356,"timezone":"America/New_York","areaCode":"919","population":0,"elevation":100,"type":"Standard"},{"zip":"27507","city":"Bullock","state":"North Carolina","stateCode":"NC","county":"Bullock County","lat":36.5076,"lng":-78.5646,"timezone":"America/New_York","areaCode":"919","population":0,"elevation":100,"type":"Standard"},{"zip":"27508","city":"Bunn","state":"North Carolina","stateCode":"NC","county":"Bunn County","lat":35.9577,"lng":-78.2498,"timezone":"America/New_York","areaCode":"919","population":0,"elevation":100,"type":"Standard"},{"zip":"27509","city":"Butner","state":"North Carolina","stateCode":"NC","county":"Butner County","lat":36.1359,"lng":-78.7636,"timezone":"America/New_York","areaCode":"919","population":0,"elevation":100,"type":"Standard"},{"zip":"27510","city":"Carrboro","state":"North Carolina","stateCode":"NC","county":"Carrboro County","lat":35.9055,"lng":-79.0901,"timezone":"America/New_York","areaCode":"919","population":0,"elevation":100,"type":"Standard"},{"zip":"27511","city":"Cary","state":"North Carolina","stateCode":"NC","county":"Cary County","lat":35.7641,"lng":-78.7786,"timezone":"America/New_York","areaCode":"919","population":0,"elevation":100,"type":"Standard"},{"zip":"27512","city":"Cary","state":"North Carolina","stateCode":"NC","county":"Cary County","lat":35.8084,"lng":-78.8395,"timezone":"America/New_York","areaCode":"919","population":0,"elevation":100,"type":"Standard"},{"zip":"27513","city":"Cary","state":"North Carolina","stateCode":"NC","county":"Cary County","lat":35.7956,"lng":-78.7941,"timezone":"America/New_York","areaCode":"919","population":0,"elevation":100,"type":"Standard"},{"zip":"27514","city":"Chapel Hill","state":"North Carolina","stateCode":"NC","county":"Chapel Hill County","lat":35.9203,"lng":-79.0372,"timezone":"America/New_York","areaCode":"919","population":0,"elevation":100,"type":"Standard"},{"zip":"27515","city":"Chapel Hill","state":"North Carolina","stateCode":"NC","county":"Chapel Hill County","lat":35.9132,"lng":-79.0558,"timezone":"America/New_York","areaCode":"919","population":0,"elevation":100,"type":"Standard"},{"zip":"27516","city":"Chapel Hill","state":"North Carolina","stateCode":"NC","county":"Chapel Hill County","lat":35.9162,"lng":-79.0999,"timezone":"America/New_York","areaCode":"919","population":0,"elevation":100,"type":"Standard"},{"zip":"27517","city":"Chapel Hill","state":"North Carolina","stateCode":"NC","county":"Chapel Hill County","lat":35.9182,"lng":-79.0035,"timezone":"America/New_York","areaCode":"919","population":0,"elevation":100,"type":"Standard"},{"zip":"27518","city":"Cary","state":"North Carolina","stateCode":"NC","county":"Cary County","lat":35.7299,"lng":-78.7735,"timezone":"America/New_York","areaCode":"919","population":0,"elevation":100,"type":"Standard"},{"zip":"27519","city":"Cary","state":"North Carolina","stateCode":"NC","county":"Cary County","lat":35.8072,"lng":-78.887,"timezone":"America/New_York","areaCode":"919","population":0,"elevation":100,"type":"Standard"},{"zip":"27520","city":"Clayton","state":"North Carolina","stateCode":"NC","county":"Clayton County","lat":35.6348,"lng":-78.451,"timezone":"America/New_York","areaCode":"919","population":0,"elevation":100,"type":"Standard"},{"zip":"27521","city":"Coats","state":"North Carolina","stateCode":"NC","county":"Coats County","lat":35.4082,"lng":-78.6627,"timezone":"America/New_York","areaCode":"919","population":0,"elevation":100,"type":"Standard"},{"zip":"27522","city":"Creedmoor","state":"North Carolina","stateCode":"NC","county":"Creedmoor County","lat":36.1224,"lng":-78.6861,"timezone":"America/New_York","areaCode":"919","population":0,"elevation":100,"type":"Standard"},{"zip":"27523","city":"Apex","state":"North Carolina","stateCode":"NC","county":"Apex County","lat":35.7225,"lng":-78.8408,"timezone":"America/New_York","areaCode":"919","population":0,"elevation":100,"type":"Standard"},{"zip":"27524","city":"Four Oaks","state":"North Carolina","stateCode":"NC","county":"Four Oaks County","lat":35.404,"lng":-78.4153,"timezone":"America/New_York","areaCode":"919","population":0,"elevation":100,"type":"Standard"},{"zip":"27525","city":"Franklinton","state":"North Carolina","stateCode":"NC","county":"Franklinton County","lat":36.0955,"lng":-78.4486,"timezone":"America/New_York","areaCode":"919","population":0,"elevation":100,"type":"Standard"},{"zip":"27526","city":"Fuquay Varina","state":"North Carolina","stateCode":"NC","county":"Fuquay Varina County","lat":35.58,"lng":-78.7908,"timezone":"America/New_York","areaCode":"919","population":0,"elevation":100,"type":"Standard"},{"zip":"27527","city":"Clayton","state":"North Carolina","stateCode":"NC","county":"Clayton County","lat":35.6577,"lng":-78.3837,"timezone":"America/New_York","areaCode":"919","population":0,"elevation":100,"type":"Standard"},{"zip":"27528","city":"Clayton","state":"North Carolina","stateCode":"NC","county":"Clayton County","lat":35.6555,"lng":-78.4611,"timezone":"America/New_York","areaCode":"919","population":0,"elevation":100,"type":"Standard"},{"zip":"27529","city":"Garner","state":"North Carolina","stateCode":"NC","county":"Garner County","lat":35.6813,"lng":-78.5975,"timezone":"America/New_York","areaCode":"919","population":0,"elevation":100,"type":"Standard"},{"zip":"27530","city":"Goldsboro","state":"North Carolina","stateCode":"NC","county":"Goldsboro County","lat":35.3683,"lng":-78.0929,"timezone":"America/New_York","areaCode":"919","population":0,"elevation":100,"type":"Standard"},{"zip":"27531","city":"Goldsboro","state":"North Carolina","stateCode":"NC","county":"Goldsboro County","lat":35.343,"lng":-77.9644,"timezone":"America/New_York","areaCode":"919","population":0,"elevation":100,"type":"Standard"},{"zip":"27532","city":"Goldsboro","state":"North Carolina","stateCode":"NC","county":"Goldsboro County","lat":35.372,"lng":-78.0524,"timezone":"America/New_York","areaCode":"919","population":0,"elevation":100,"type":"Standard"},{"zip":"27533","city":"Goldsboro","state":"North Carolina","stateCode":"NC","county":"Goldsboro County","lat":35.372,"lng":-78.0524,"timezone":"America/New_York","areaCode":"919","population":0,"elevation":100,"type":"Standard"},{"zip":"27534","city":"Goldsboro","state":"North Carolina","stateCode":"NC","county":"Goldsboro County","lat":35.3664,"lng":-77.9221,"timezone":"America/New_York","areaCode":"919","population":0,"elevation":100,"type":"Standard"},{"zip":"27536","city":"Henderson","state":"North Carolina","stateCode":"NC","county":"Clark County","lat":36.3301,"lng":-78.3981,"timezone":"America/New_York","areaCode":"919","population":0,"elevation":100,"type":"Standard"},{"zip":"27537","city":"Henderson","state":"North Carolina","stateCode":"NC","county":"Clark County","lat":36.36,"lng":-78.3906,"timezone":"America/New_York","areaCode":"919","population":0,"elevation":100,"type":"Standard"},{"zip":"27539","city":"Apex","state":"North Carolina","stateCode":"NC","county":"Apex County","lat":35.7225,"lng":-78.8408,"timezone":"America/New_York","areaCode":"919","population":0,"elevation":100,"type":"Standard"},{"zip":"27540","city":"Holly Springs","state":"North Carolina","stateCode":"NC","county":"Holly Springs County","lat":35.6263,"lng":-78.8458,"timezone":"America/New_York","areaCode":"919","population":0,"elevation":100,"type":"Standard"},{"zip":"27541","city":"Hurdle Mills","state":"North Carolina","stateCode":"NC","county":"Hurdle Mills County","lat":36.2518,"lng":-79.0827,"timezone":"America/New_York","areaCode":"919","population":0,"elevation":100,"type":"Standard"},{"zip":"27542","city":"Kenly","state":"North Carolina","stateCode":"NC","county":"Kenly County","lat":35.6077,"lng":-78.1382,"timezone":"America/New_York","areaCode":"919","population":0,"elevation":100,"type":"Standard"},{"zip":"27543","city":"Kipling","state":"North Carolina","stateCode":"NC","county":"Kipling County","lat":35.4799,"lng":-78.8211,"timezone":"America/New_York","areaCode":"919","population":0,"elevation":100,"type":"Standard"},{"zip":"27544","city":"Kittrell","state":"North Carolina","stateCode":"NC","county":"Kittrell County","lat":36.2042,"lng":-78.4241,"timezone":"America/New_York","areaCode":"919","population":0,"elevation":100,"type":"Standard"},{"zip":"27545","city":"Knightdale","state":"North Carolina","stateCode":"NC","county":"Knightdale County","lat":35.7789,"lng":-78.4898,"timezone":"America/New_York","areaCode":"919","population":0,"elevation":100,"type":"Standard"},{"zip":"27546","city":"Lillington","state":"North Carolina","stateCode":"NC","county":"Lillington County","lat":35.332,"lng":-78.9212,"timezone":"America/New_York","areaCode":"919","population":0,"elevation":100,"type":"Standard"},{"zip":"27549","city":"Louisburg","state":"North Carolina","stateCode":"NC","county":"Louisburg County","lat":36.0578,"lng":-78.2586,"timezone":"America/New_York","areaCode":"919","population":0,"elevation":100,"type":"Standard"},{"zip":"27551","city":"Macon","state":"North Carolina","stateCode":"NC","county":"Macon County","lat":36.507,"lng":-77.9975,"timezone":"America/New_York","areaCode":"919","population":0,"elevation":100,"type":"Standard"},{"zip":"27552","city":"Mamers","state":"North Carolina","stateCode":"NC","county":"Mamers County","lat":35.4168,"lng":-78.9334,"timezone":"America/New_York","areaCode":"919","population":0,"elevation":100,"type":"Standard"},{"zip":"27553","city":"Manson","state":"North Carolina","stateCode":"NC","county":"Manson County","lat":36.4603,"lng":-78.2952,"timezone":"America/New_York","areaCode":"919","population":0,"elevation":100,"type":"Standard"},{"zip":"27555","city":"Micro","state":"North Carolina","stateCode":"NC","county":"Micro County","lat":35.5638,"lng":-78.2044,"timezone":"America/New_York","areaCode":"919","population":0,"elevation":100,"type":"Standard"},{"zip":"27556","city":"Middleburg","state":"North Carolina","stateCode":"NC","county":"Middleburg County","lat":36.3996,"lng":-78.3225,"timezone":"America/New_York","areaCode":"919","population":0,"elevation":100,"type":"Standard"},{"zip":"27557","city":"Middlesex","state":"North Carolina","stateCode":"NC","county":"Middlesex County","lat":35.7665,"lng":-78.2062,"timezone":"America/New_York","areaCode":"919","population":0,"elevation":100,"type":"Standard"},{"zip":"27559","city":"Moncure","state":"North Carolina","stateCode":"NC","county":"Moncure County","lat":35.6306,"lng":-79.0839,"timezone":"America/New_York","areaCode":"919","population":0,"elevation":100,"type":"Standard"},{"zip":"27560","city":"Morrisville","state":"North Carolina","stateCode":"NC","county":"Morrisville County","lat":35.8344,"lng":-78.8466,"timezone":"America/New_York","areaCode":"919","population":0,"elevation":100,"type":"Standard"},{"zip":"27562","city":"New Hill","state":"North Carolina","stateCode":"NC","county":"New Hill County","lat":35.6809,"lng":-78.9365,"timezone":"America/New_York","areaCode":"919","population":0,"elevation":100,"type":"Standard"},{"zip":"27563","city":"Norlina","state":"North Carolina","stateCode":"NC","county":"Norlina County","lat":36.4754,"lng":-78.1895,"timezone":"America/New_York","areaCode":"919","population":0,"elevation":100,"type":"Standard"},{"zip":"27564","city":"Creedmoor","state":"North Carolina","stateCode":"NC","county":"Creedmoor County","lat":36.11,"lng":-78.68,"timezone":"America/New_York","areaCode":"919","population":0,"elevation":100,"type":"Standard"},{"zip":"27565","city":"Oxford","state":"North Carolina","stateCode":"NC","county":"Oxford County","lat":36.3313,"lng":-78.6134,"timezone":"America/New_York","areaCode":"919","population":0,"elevation":100,"type":"Standard"},{"zip":"27568","city":"Pine Level","state":"North Carolina","stateCode":"NC","county":"Pine Level County","lat":35.5132,"lng":-78.2444,"timezone":"America/New_York","areaCode":"919","population":0,"elevation":100,"type":"Standard"},{"zip":"27569","city":"Princeton","state":"North Carolina","stateCode":"NC","county":"Princeton County","lat":35.4558,"lng":-78.1674,"timezone":"America/New_York","areaCode":"919","population":0,"elevation":100,"type":"Standard"},{"zip":"27570","city":"Ridgeway","state":"North Carolina","stateCode":"NC","county":"Ridgeway County","lat":36.4357,"lng":-78.2367,"timezone":"America/New_York","areaCode":"919","population":0,"elevation":100,"type":"Standard"},{"zip":"27571","city":"Rolesville","state":"North Carolina","stateCode":"NC","county":"Rolesville County","lat":35.9156,"lng":-78.4658,"timezone":"America/New_York","areaCode":"919","population":0,"elevation":100,"type":"Standard"},{"zip":"27572","city":"Rougemont","state":"North Carolina","stateCode":"NC","county":"Rougemont County","lat":36.2393,"lng":-78.9019,"timezone":"America/New_York","areaCode":"919","population":0,"elevation":100,"type":"Standard"},{"zip":"27573","city":"Roxboro","state":"North Carolina","stateCode":"NC","county":"Roxboro County","lat":36.4059,"lng":-78.9737,"timezone":"America/New_York","areaCode":"919","population":0,"elevation":100,"type":"Standard"},{"zip":"27574","city":"Roxboro","state":"North Carolina","stateCode":"NC","county":"Roxboro County","lat":36.3942,"lng":-78.9863,"timezone":"America/New_York","areaCode":"919","population":0,"elevation":100,"type":"Standard"},{"zip":"27576","city":"Selma","state":"North Carolina","stateCode":"NC","county":"Selma County","lat":35.5565,"lng":-78.264,"timezone":"America/New_York","areaCode":"919","population":0,"elevation":100,"type":"Standard"},{"zip":"27577","city":"Smithfield","state":"North Carolina","stateCode":"NC","county":"Smithfield County","lat":35.5068,"lng":-78.3479,"timezone":"America/New_York","areaCode":"919","population":0,"elevation":100,"type":"Standard"},{"zip":"27581","city":"Stem","state":"North Carolina","stateCode":"NC","county":"Stem County","lat":36.1999,"lng":-78.7222,"timezone":"America/New_York","areaCode":"919","population":0,"elevation":100,"type":"Standard"},{"zip":"27582","city":"Stovall","state":"North Carolina","stateCode":"NC","county":"Stovall County","lat":36.4482,"lng":-78.5703,"timezone":"America/New_York","areaCode":"919","population":0,"elevation":100,"type":"Standard"},{"zip":"27583","city":"Timberlake","state":"North Carolina","stateCode":"NC","county":"Timberlake County","lat":36.2918,"lng":-78.9353,"timezone":"America/New_York","areaCode":"919","population":0,"elevation":100,"type":"Standard"},{"zip":"27584","city":"Townsville","state":"North Carolina","stateCode":"NC","county":"Townsville County","lat":36.4946,"lng":-78.4236,"timezone":"America/New_York","areaCode":"919","population":0,"elevation":100,"type":"Standard"},{"zip":"27586","city":"Vaughan","state":"North Carolina","stateCode":"NC","county":"Vaughan County","lat":36.4265,"lng":-78.0036,"timezone":"America/New_York","areaCode":"919","population":0,"elevation":100,"type":"Standard"},{"zip":"27587","city":"Wake Forest","state":"North Carolina","stateCode":"NC","county":"Wake Forest County","lat":35.9815,"lng":-78.5392,"timezone":"America/New_York","areaCode":"919","population":0,"elevation":100,"type":"Standard"},{"zip":"27588","city":"Wake Forest","state":"North Carolina","stateCode":"NC","county":"Wake Forest County","lat":35.9731,"lng":-78.4508,"timezone":"America/New_York","areaCode":"919","population":0,"elevation":100,"type":"Standard"},{"zip":"27589","city":"Warrenton","state":"North Carolina","stateCode":"NC","county":"Warrenton County","lat":36.3539,"lng":-78.1594,"timezone":"America/New_York","areaCode":"919","population":0,"elevation":100,"type":"Standard"},{"zip":"27591","city":"Wendell","state":"North Carolina","stateCode":"NC","county":"Wendell County","lat":35.798,"lng":-78.3926,"timezone":"America/New_York","areaCode":"919","population":0,"elevation":100,"type":"Standard"},{"zip":"27592","city":"Willow Spring","state":"North Carolina","stateCode":"NC","county":"Willow Spring County","lat":35.547,"lng":-78.6717,"timezone":"America/New_York","areaCode":"919","population":0,"elevation":100,"type":"Standard"},{"zip":"27593","city":"Wilsons Mills","state":"North Carolina","stateCode":"NC","county":"Wilsons Mills County","lat":35.5907,"lng":-78.3607,"timezone":"America/New_York","areaCode":"919","population":0,"elevation":100,"type":"Standard"},{"zip":"27594","city":"Wise","state":"North Carolina","stateCode":"NC","county":"Wise County","lat":36.4865,"lng":-78.1708,"timezone":"America/New_York","areaCode":"919","population":0,"elevation":100,"type":"Standard"},{"zip":"27596","city":"Youngsville","state":"North Carolina","stateCode":"NC","county":"Youngsville County","lat":36.0249,"lng":-78.4744,"timezone":"America/New_York","areaCode":"919","population":0,"elevation":100,"type":"Standard"},{"zip":"27597","city":"Zebulon","state":"North Carolina","stateCode":"NC","county":"Zebulon County","lat":35.8321,"lng":-78.3174,"timezone":"America/New_York","areaCode":"919","population":0,"elevation":100,"type":"Standard"},{"zip":"27599","city":"Chapel Hill","state":"North Carolina","stateCode":"NC","county":"Chapel Hill County","lat":36.0525,"lng":-79.1077,"timezone":"America/New_York","areaCode":"919","population":0,"elevation":100,"type":"Standard"},{"zip":"27601","city":"Raleigh","state":"North Carolina","stateCode":"NC","county":"Wake County","lat":35.7727,"lng":-78.6324,"timezone":"America/New_York","areaCode":"919","population":0,"elevation":100,"type":"Standard"},{"zip":"27602","city":"Raleigh","state":"North Carolina","stateCode":"NC","county":"Wake County","lat":35.7587,"lng":-78.6711,"timezone":"America/New_York","areaCode":"919","population":0,"elevation":100,"type":"Standard"},{"zip":"27603","city":"Raleigh","state":"North Carolina","stateCode":"NC","county":"Wake County","lat":35.7076,"lng":-78.6563,"timezone":"America/New_York","areaCode":"919","population":0,"elevation":100,"type":"Standard"},{"zip":"27604","city":"Raleigh","state":"North Carolina","stateCode":"NC","county":"Wake County","lat":35.8334,"lng":-78.5799,"timezone":"America/New_York","areaCode":"919","population":0,"elevation":100,"type":"Standard"},{"zip":"27605","city":"Raleigh","state":"North Carolina","stateCode":"NC","county":"Wake County","lat":35.7908,"lng":-78.653,"timezone":"America/New_York","areaCode":"919","population":0,"elevation":100,"type":"Standard"},{"zip":"27606","city":"Raleigh","state":"North Carolina","stateCode":"NC","county":"Wake County","lat":35.7645,"lng":-78.7112,"timezone":"America/New_York","areaCode":"919","population":0,"elevation":100,"type":"Standard"},{"zip":"27607","city":"Raleigh","state":"North Carolina","stateCode":"NC","county":"Wake County","lat":35.8014,"lng":-78.6877,"timezone":"America/New_York","areaCode":"919","population":0,"elevation":100,"type":"Standard"},{"zip":"27608","city":"Raleigh","state":"North Carolina","stateCode":"NC","county":"Wake County","lat":35.8077,"lng":-78.6463,"timezone":"America/New_York","areaCode":"919","population":0,"elevation":100,"type":"Standard"},{"zip":"27609","city":"Raleigh","state":"North Carolina","stateCode":"NC","county":"Wake County","lat":35.848,"lng":-78.6317,"timezone":"America/New_York","areaCode":"919","population":0,"elevation":100,"type":"Standard"},{"zip":"27610","city":"Raleigh","state":"North Carolina","stateCode":"NC","county":"Wake County","lat":35.7667,"lng":-78.6008,"timezone":"America/New_York","areaCode":"919","population":0,"elevation":100,"type":"Standard"},{"zip":"27611","city":"Raleigh","state":"North Carolina","stateCode":"NC","county":"Wake County","lat":35.7977,"lng":-78.6253,"timezone":"America/New_York","areaCode":"919","population":0,"elevation":100,"type":"Standard"},{"zip":"27612","city":"Raleigh","state":"North Carolina","stateCode":"NC","county":"Wake County","lat":35.852,"lng":-78.6841,"timezone":"America/New_York","areaCode":"919","population":0,"elevation":100,"type":"Standard"},{"zip":"27613","city":"Raleigh","state":"North Carolina","stateCode":"NC","county":"Wake County","lat":35.8949,"lng":-78.7051,"timezone":"America/New_York","areaCode":"919","population":0,"elevation":100,"type":"Standard"},{"zip":"27614","city":"Raleigh","state":"North Carolina","stateCode":"NC","county":"Wake County","lat":35.9457,"lng":-78.6433,"timezone":"America/New_York","areaCode":"919","population":0,"elevation":100,"type":"Standard"},{"zip":"27615","city":"Raleigh","state":"North Carolina","stateCode":"NC","county":"Wake County","lat":35.8887,"lng":-78.6393,"timezone":"America/New_York","areaCode":"919","population":0,"elevation":100,"type":"Standard"},{"zip":"27616","city":"Raleigh","state":"North Carolina","stateCode":"NC","county":"Wake County","lat":35.8673,"lng":-78.5381,"timezone":"America/New_York","areaCode":"919","population":0,"elevation":100,"type":"Standard"},{"zip":"27617","city":"Raleigh","state":"North Carolina","stateCode":"NC","county":"Wake County","lat":35.9034,"lng":-78.7447,"timezone":"America/New_York","areaCode":"919","population":0,"elevation":100,"type":"Standard"},{"zip":"27619","city":"Raleigh","state":"North Carolina","stateCode":"NC","county":"Wake County","lat":35.8515,"lng":-78.6314,"timezone":"America/New_York","areaCode":"919","population":0,"elevation":100,"type":"Standard"},{"zip":"27620","city":"Raleigh","state":"North Carolina","stateCode":"NC","county":"Wake County","lat":35.7977,"lng":-78.6253,"timezone":"America/New_York","areaCode":"919","population":0,"elevation":100,"type":"Standard"},{"zip":"27621","city":"Raleigh","state":"North Carolina","stateCode":"NC","county":"Wake County","lat":35.7977,"lng":-78.6253,"timezone":"America/New_York","areaCode":"919","population":0,"elevation":100,"type":"Standard"},{"zip":"27622","city":"Raleigh","state":"North Carolina","stateCode":"NC","county":"Wake County","lat":35.7977,"lng":-78.6253,"timezone":"America/New_York","areaCode":"919","population":0,"elevation":100,"type":"Standard"},{"zip":"27623","city":"Raleigh","state":"North Carolina","stateCode":"NC","county":"Wake County","lat":35.7977,"lng":-78.6253,"timezone":"America/New_York","areaCode":"919","population":0,"elevation":100,"type":"Standard"},{"zip":"27624","city":"Raleigh","state":"North Carolina","stateCode":"NC","county":"Wake County","lat":35.7977,"lng":-78.6253,"timezone":"America/New_York","areaCode":"919","population":0,"elevation":100,"type":"Standard"},{"zip":"27625","city":"Raleigh","state":"North Carolina","stateCode":"NC","county":"Wake County","lat":35.7977,"lng":-78.6253,"timezone":"America/New_York","areaCode":"919","population":0,"elevation":100,"type":"Standard"},{"zip":"27626","city":"Raleigh","state":"North Carolina","stateCode":"NC","county":"Wake County","lat":35.7977,"lng":-78.6253,"timezone":"America/New_York","areaCode":"919","population":0,"elevation":100,"type":"Standard"},{"zip":"27627","city":"Raleigh","state":"North Carolina","stateCode":"NC","county":"Wake County","lat":35.7977,"lng":-78.6253,"timezone":"America/New_York","areaCode":"919","population":0,"elevation":100,"type":"Standard"},{"zip":"27628","city":"Raleigh","state":"North Carolina","stateCode":"NC","county":"Wake County","lat":35.7977,"lng":-78.6253,"timezone":"America/New_York","areaCode":"919","population":0,"elevation":100,"type":"Standard"},{"zip":"27629","city":"Raleigh","state":"North Carolina","stateCode":"NC","county":"Wake County","lat":35.8175,"lng":-78.5524,"timezone":"America/New_York","areaCode":"919","population":0,"elevation":100,"type":"Standard"},{"zip":"27634","city":"Raleigh","state":"North Carolina","stateCode":"NC","county":"Wake County","lat":35.7977,"lng":-78.6253,"timezone":"America/New_York","areaCode":"919","population":0,"elevation":100,"type":"Standard"},{"zip":"27635","city":"Raleigh","state":"North Carolina","stateCode":"NC","county":"Wake County","lat":35.7977,"lng":-78.6253,"timezone":"America/New_York","areaCode":"919","population":0,"elevation":100,"type":"Standard"},{"zip":"27636","city":"Raleigh","state":"North Carolina","stateCode":"NC","county":"Wake County","lat":35.7977,"lng":-78.6253,"timezone":"America/New_York","areaCode":"919","population":0,"elevation":100,"type":"Standard"},{"zip":"27640","city":"Raleigh","state":"North Carolina","stateCode":"NC","county":"Wake County","lat":35.7977,"lng":-78.6253,"timezone":"America/New_York","areaCode":"919","population":0,"elevation":100,"type":"Standard"},{"zip":"27650","city":"Raleigh","state":"North Carolina","stateCode":"NC","county":"Wake County","lat":35.7977,"lng":-78.6253,"timezone":"America/New_York","areaCode":"919","population":0,"elevation":100,"type":"Standard"},{"zip":"27656","city":"Raleigh","state":"North Carolina","stateCode":"NC","county":"Wake County","lat":35.7977,"lng":-78.6253,"timezone":"America/New_York","areaCode":"919","population":0,"elevation":100,"type":"Standard"},{"zip":"27658","city":"Raleigh","state":"North Carolina","stateCode":"NC","county":"Wake County","lat":35.7977,"lng":-78.6253,"timezone":"America/New_York","areaCode":"919","population":0,"elevation":100,"type":"Standard"},{"zip":"27661","city":"Raleigh","state":"North Carolina","stateCode":"NC","county":"Wake County","lat":35.7977,"lng":-78.6253,"timezone":"America/New_York","areaCode":"919","population":0,"elevation":100,"type":"Standard"},{"zip":"27668","city":"Raleigh","state":"North Carolina","stateCode":"NC","county":"Wake County","lat":35.7977,"lng":-78.6253,"timezone":"America/New_York","areaCode":"919","population":0,"elevation":100,"type":"Standard"},{"zip":"27675","city":"Raleigh","state":"North Carolina","stateCode":"NC","county":"Wake County","lat":35.7977,"lng":-78.6253,"timezone":"America/New_York","areaCode":"919","population":0,"elevation":100,"type":"Standard"},{"zip":"27676","city":"Raleigh","state":"North Carolina","stateCode":"NC","county":"Wake County","lat":35.7977,"lng":-78.6253,"timezone":"America/New_York","areaCode":"919","population":0,"elevation":100,"type":"Standard"},{"zip":"27690","city":"Raleigh","state":"North Carolina","stateCode":"NC","county":"Wake County","lat":35.7977,"lng":-78.6253,"timezone":"America/New_York","areaCode":"919","population":0,"elevation":100,"type":"Standard"},{"zip":"27695","city":"Raleigh","state":"North Carolina","stateCode":"NC","county":"Wake County","lat":35.7977,"lng":-78.6253,"timezone":"America/New_York","areaCode":"919","population":0,"elevation":100,"type":"Standard"},{"zip":"27697","city":"Raleigh","state":"North Carolina","stateCode":"NC","county":"Wake County","lat":35.7721,"lng":-78.6386,"timezone":"America/New_York","areaCode":"919","population":0,"elevation":100,"type":"Standard"},{"zip":"27698","city":"Raleigh","state":"North Carolina","stateCode":"NC","county":"Wake County","lat":35.7977,"lng":-78.6253,"timezone":"America/New_York","areaCode":"919","population":0,"elevation":100,"type":"Standard"},{"zip":"27699","city":"Raleigh","state":"North Carolina","stateCode":"NC","county":"Wake County","lat":35.7977,"lng":-78.6253,"timezone":"America/New_York","areaCode":"919","population":0,"elevation":100,"type":"Standard"},{"zip":"27701","city":"Durham","state":"North Carolina","stateCode":"NC","county":"Durham County","lat":35.9967,"lng":-78.8966,"timezone":"America/New_York","areaCode":"919","population":0,"elevation":100,"type":"Standard"},{"zip":"27702","city":"Durham","state":"North Carolina","stateCode":"NC","county":"Durham County","lat":36.0512,"lng":-78.8577,"timezone":"America/New_York","areaCode":"919","population":0,"elevation":100,"type":"Standard"},{"zip":"27703","city":"Durham","state":"North Carolina","stateCode":"NC","county":"Durham County","lat":35.9781,"lng":-78.8439,"timezone":"America/New_York","areaCode":"919","population":0,"elevation":100,"type":"Standard"},{"zip":"27704","city":"Durham","state":"North Carolina","stateCode":"NC","county":"Durham County","lat":36.0383,"lng":-78.8764,"timezone":"America/New_York","areaCode":"919","population":0,"elevation":100,"type":"Standard"},{"zip":"27705","city":"Durham","state":"North Carolina","stateCode":"NC","county":"Durham County","lat":36.0218,"lng":-78.9478,"timezone":"America/New_York","areaCode":"919","population":0,"elevation":100,"type":"Standard"},{"zip":"27706","city":"Durham","state":"North Carolina","stateCode":"NC","county":"Durham County","lat":35.997,"lng":-78.9422,"timezone":"America/New_York","areaCode":"919","population":0,"elevation":100,"type":"Standard"},{"zip":"27707","city":"Durham","state":"North Carolina","stateCode":"NC","county":"Durham County","lat":35.9631,"lng":-78.9315,"timezone":"America/New_York","areaCode":"919","population":0,"elevation":100,"type":"Standard"},{"zip":"27708","city":"Durham","state":"North Carolina","stateCode":"NC","county":"Durham County","lat":36.0287,"lng":-78.924,"timezone":"America/New_York","areaCode":"919","population":0,"elevation":100,"type":"Standard"},{"zip":"27709","city":"Durham","state":"North Carolina","stateCode":"NC","county":"Durham County","lat":36.0512,"lng":-78.8577,"timezone":"America/New_York","areaCode":"919","population":0,"elevation":100,"type":"Standard"},{"zip":"27710","city":"Durham","state":"North Carolina","stateCode":"NC","county":"Durham County","lat":36.0512,"lng":-78.8577,"timezone":"America/New_York","areaCode":"919","population":0,"elevation":100,"type":"Standard"},{"zip":"27711","city":"Durham","state":"North Carolina","stateCode":"NC","county":"Durham County","lat":36.0512,"lng":-78.8577,"timezone":"America/New_York","areaCode":"919","population":0,"elevation":100,"type":"Standard"},{"zip":"27712","city":"Durham","state":"North Carolina","stateCode":"NC","county":"Durham County","lat":36.0918,"lng":-78.9299,"timezone":"America/New_York","areaCode":"919","population":0,"elevation":100,"type":"Standard"},{"zip":"27713","city":"Durham","state":"North Carolina","stateCode":"NC","county":"Durham County","lat":35.9112,"lng":-78.9178,"timezone":"America/New_York","areaCode":"919","population":0,"elevation":100,"type":"Standard"},{"zip":"27715","city":"Durham","state":"North Carolina","stateCode":"NC","county":"Durham County","lat":36.0512,"lng":-78.8577,"timezone":"America/New_York","areaCode":"919","population":0,"elevation":100,"type":"Standard"},{"zip":"27717","city":"Durham","state":"North Carolina","stateCode":"NC","county":"Durham County","lat":36.0512,"lng":-78.8577,"timezone":"America/New_York","areaCode":"919","population":0,"elevation":100,"type":"Standard"},{"zip":"27722","city":"Durham","state":"North Carolina","stateCode":"NC","county":"Durham County","lat":35.994,"lng":-78.8986,"timezone":"America/New_York","areaCode":"919","population":0,"elevation":100,"type":"Standard"},{"zip":"27801","city":"Rocky Mount","state":"North Carolina","stateCode":"NC","county":"Rocky Mount County","lat":35.9427,"lng":-77.7608,"timezone":"America/New_York","areaCode":"252","population":0,"elevation":100,"type":"Standard"},{"zip":"27802","city":"Rocky Mount","state":"North Carolina","stateCode":"NC","county":"Rocky Mount County","lat":35.9356,"lng":-77.7808,"timezone":"America/New_York","areaCode":"252","population":0,"elevation":100,"type":"Standard"},{"zip":"27803","city":"Rocky Mount","state":"North Carolina","stateCode":"NC","county":"Rocky Mount County","lat":35.9238,"lng":-77.835,"timezone":"America/New_York","areaCode":"252","population":0,"elevation":100,"type":"Standard"},{"zip":"27804","city":"Rocky Mount","state":"North Carolina","stateCode":"NC","county":"Rocky Mount County","lat":35.9904,"lng":-77.8468,"timezone":"America/New_York","areaCode":"252","population":0,"elevation":100,"type":"Standard"},{"zip":"27805","city":"Aulander","state":"North Carolina","stateCode":"NC","county":"Aulander County","lat":36.1475,"lng":-77.1141,"timezone":"America/New_York","areaCode":"252","population":0,"elevation":100,"type":"Standard"},{"zip":"27806","city":"Aurora","state":"North Carolina","stateCode":"NC","county":"Aurora County","lat":35.3023,"lng":-76.7994,"timezone":"America/New_York","areaCode":"252","population":0,"elevation":100,"type":"Standard"},{"zip":"27807","city":"Bailey","state":"North Carolina","stateCode":"NC","county":"Bailey County","lat":35.8072,"lng":-78.0892,"timezone":"America/New_York","areaCode":"252","population":0,"elevation":100,"type":"Standard"},{"zip":"27808","city":"Bath","state":"North Carolina","stateCode":"NC","county":"Bath County","lat":35.4702,"lng":-76.7715,"timezone":"America/New_York","areaCode":"252","population":0,"elevation":100,"type":"Standard"},{"zip":"27809","city":"Battleboro","state":"North Carolina","stateCode":"NC","county":"Battleboro County","lat":36.0067,"lng":-77.7074,"timezone":"America/New_York","areaCode":"252","population":0,"elevation":100,"type":"Standard"},{"zip":"27810","city":"Belhaven","state":"North Carolina","stateCode":"NC","county":"Belhaven County","lat":35.4458,"lng":-76.6391,"timezone":"America/New_York","areaCode":"252","population":0,"elevation":100,"type":"Standard"},{"zip":"27811","city":"Bellarthur","state":"North Carolina","stateCode":"NC","county":"Bellarthur County","lat":35.5847,"lng":-77.5134,"timezone":"America/New_York","areaCode":"252","population":0,"elevation":100,"type":"Standard"},{"zip":"27812","city":"Bethel","state":"North Carolina","stateCode":"NC","county":"Bethel County","lat":35.7909,"lng":-77.3748,"timezone":"America/New_York","areaCode":"252","population":0,"elevation":100,"type":"Standard"},{"zip":"27813","city":"Black Creek","state":"North Carolina","stateCode":"NC","county":"Black Creek County","lat":35.6352,"lng":-77.933,"timezone":"America/New_York","areaCode":"252","population":0,"elevation":100,"type":"Standard"},{"zip":"27814","city":"Blounts Creek","state":"North Carolina","stateCode":"NC","county":"Blounts Creek County","lat":35.382,"lng":-76.925,"timezone":"America/New_York","areaCode":"252","population":0,"elevation":100,"type":"Standard"},{"zip":"27815","city":"Rocky Mount","state":"North Carolina","stateCode":"NC","county":"Rocky Mount County","lat":35.8979,"lng":-77.7935,"timezone":"America/New_York","areaCode":"252","population":0,"elevation":100,"type":"Standard"},{"zip":"27816","city":"Castalia","state":"North Carolina","stateCode":"NC","county":"Castalia County","lat":36.0901,"lng":-78.0705,"timezone":"America/New_York","areaCode":"252","population":0,"elevation":100,"type":"Standard"},{"zip":"27817","city":"Chocowinity","state":"North Carolina","stateCode":"NC","county":"Chocowinity County","lat":35.4814,"lng":-77.0868,"timezone":"America/New_York","areaCode":"252","population":0,"elevation":100,"type":"Standard"},{"zip":"27818","city":"Como","state":"North Carolina","stateCode":"NC","county":"Como County","lat":36.5015,"lng":-77.0094,"timezone":"America/New_York","areaCode":"252","population":0,"elevation":100,"type":"Standard"},{"zip":"27819","city":"Conetoe","state":"North Carolina","stateCode":"NC","county":"Conetoe County","lat":35.8178,"lng":-77.4533,"timezone":"America/New_York","areaCode":"252","population":0,"elevation":100,"type":"Standard"},{"zip":"27820","city":"Conway","state":"North Carolina","stateCode":"NC","county":"Conway County","lat":36.4164,"lng":-77.2502,"timezone":"America/New_York","areaCode":"252","population":0,"elevation":100,"type":"Standard"},{"zip":"27821","city":"Edward","state":"North Carolina","stateCode":"NC","county":"Edward County","lat":35.3236,"lng":-76.8794,"timezone":"America/New_York","areaCode":"252","population":0,"elevation":100,"type":"Standard"},{"zip":"27822","city":"Elm City","state":"North Carolina","stateCode":"NC","county":"Elm City County","lat":35.811,"lng":-77.856,"timezone":"America/New_York","areaCode":"252","population":0,"elevation":100,"type":"Standard"},{"zip":"27823","city":"Enfield","state":"North Carolina","stateCode":"NC","county":"Enfield County","lat":36.1973,"lng":-77.7129,"timezone":"America/New_York","areaCode":"252","population":0,"elevation":100,"type":"Standard"},{"zip":"27824","city":"Engelhard","state":"North Carolina","stateCode":"NC","county":"Engelhard County","lat":35.5149,"lng":-76.0303,"timezone":"America/New_York","areaCode":"252","population":0,"elevation":100,"type":"Standard"},{"zip":"27825","city":"Everetts","state":"North Carolina","stateCode":"NC","county":"Everetts County","lat":35.8349,"lng":-77.1736,"timezone":"America/New_York","areaCode":"252","population":0,"elevation":100,"type":"Standard"},{"zip":"27826","city":"Fairfield","state":"North Carolina","stateCode":"NC","county":"Fairfield County","lat":35.5659,"lng":-76.2318,"timezone":"America/New_York","areaCode":"252","population":0,"elevation":100,"type":"Standard"},{"zip":"27827","city":"Falkland","state":"North Carolina","stateCode":"NC","county":"Falkland County","lat":35.6966,"lng":-77.5132,"timezone":"America/New_York","areaCode":"252","population":0,"elevation":100,"type":"Standard"},{"zip":"27828","city":"Farmville","state":"North Carolina","stateCode":"NC","county":"Farmville County","lat":35.5806,"lng":-77.5793,"timezone":"America/New_York","areaCode":"252","population":0,"elevation":100,"type":"Standard"},{"zip":"27829","city":"Fountain","state":"North Carolina","stateCode":"NC","county":"Fountain County","lat":35.674,"lng":-77.64,"timezone":"America/New_York","areaCode":"252","population":0,"elevation":100,"type":"Standard"},{"zip":"27830","city":"Fremont","state":"North Carolina","stateCode":"NC","county":"Fremont County","lat":35.5553,"lng":-77.958,"timezone":"America/New_York","areaCode":"252","population":0,"elevation":100,"type":"Standard"},{"zip":"27831","city":"Garysburg","state":"North Carolina","stateCode":"NC","county":"Garysburg County","lat":36.4761,"lng":-77.5719,"timezone":"America/New_York","areaCode":"252","population":0,"elevation":100,"type":"Standard"},{"zip":"27832","city":"Gaston","state":"North Carolina","stateCode":"NC","county":"Gaston County","lat":36.5004,"lng":-77.645,"timezone":"America/New_York","areaCode":"252","population":0,"elevation":100,"type":"Standard"},{"zip":"27833","city":"Greenville","state":"North Carolina","stateCode":"NC","county":"Greenville County","lat":35.5804,"lng":-77.3926,"timezone":"America/New_York","areaCode":"252","population":0,"elevation":100,"type":"Standard"},{"zip":"27834","city":"Greenville","state":"North Carolina","stateCode":"NC","county":"Greenville County","lat":35.6192,"lng":-77.3975,"timezone":"America/New_York","areaCode":"252","population":0,"elevation":100,"type":"Standard"},{"zip":"27835","city":"Greenville","state":"North Carolina","stateCode":"NC","county":"Greenville County","lat":35.5885,"lng":-77.3531,"timezone":"America/New_York","areaCode":"252","population":0,"elevation":100,"type":"Standard"},{"zip":"27836","city":"Greenville","state":"North Carolina","stateCode":"NC","county":"Greenville County","lat":35.5804,"lng":-77.3926,"timezone":"America/New_York","areaCode":"252","population":0,"elevation":100,"type":"Standard"},{"zip":"27837","city":"Grimesland","state":"North Carolina","stateCode":"NC","county":"Grimesland County","lat":35.558,"lng":-77.2566,"timezone":"America/New_York","areaCode":"252","population":0,"elevation":100,"type":"Standard"},{"zip":"27839","city":"Halifax","state":"North Carolina","stateCode":"NC","county":"Halifax County","lat":36.3049,"lng":-77.5607,"timezone":"America/New_York","areaCode":"252","population":0,"elevation":100,"type":"Standard"},{"zip":"27840","city":"Hamilton","state":"North Carolina","stateCode":"NC","county":"Hamilton County","lat":35.9446,"lng":-77.2097,"timezone":"America/New_York","areaCode":"252","population":0,"elevation":100,"type":"Standard"},{"zip":"27841","city":"Hassell","state":"North Carolina","stateCode":"NC","county":"Hassell County","lat":35.9086,"lng":-77.2763,"timezone":"America/New_York","areaCode":"252","population":0,"elevation":100,"type":"Standard"},{"zip":"27842","city":"Henrico","state":"North Carolina","stateCode":"NC","county":"Henrico County","lat":36.5274,"lng":-77.8546,"timezone":"America/New_York","areaCode":"252","population":0,"elevation":100,"type":"Standard"},{"zip":"27843","city":"Hobgood","state":"North Carolina","stateCode":"NC","county":"Hobgood County","lat":36.0594,"lng":-77.4061,"timezone":"America/New_York","areaCode":"252","population":0,"elevation":100,"type":"Standard"},{"zip":"27844","city":"Hollister","state":"North Carolina","stateCode":"NC","county":"Hollister County","lat":36.259,"lng":-77.9319,"timezone":"America/New_York","areaCode":"252","population":0,"elevation":100,"type":"Standard"},{"zip":"27845","city":"Jackson","state":"North Carolina","stateCode":"NC","county":"Jackson County","lat":36.3896,"lng":-77.4214,"timezone":"America/New_York","areaCode":"252","population":0,"elevation":100,"type":"Standard"},{"zip":"27846","city":"Jamesville","state":"North Carolina","stateCode":"NC","county":"Jamesville County","lat":35.7839,"lng":-76.8983,"timezone":"America/New_York","areaCode":"252","population":0,"elevation":100,"type":"Standard"},{"zip":"27847","city":"Kelford","state":"North Carolina","stateCode":"NC","county":"Kelford County","lat":36.1871,"lng":-77.1898,"timezone":"America/New_York","areaCode":"252","population":0,"elevation":100,"type":"Standard"},{"zip":"27849","city":"Lewiston Woodville","state":"North Carolina","stateCode":"NC","county":"Lewiston Woodville County","lat":36.0933,"lng":-77.1439,"timezone":"America/New_York","areaCode":"252","population":0,"elevation":100,"type":"Standard"},{"zip":"27850","city":"Littleton","state":"North Carolina","stateCode":"NC","county":"Littleton County","lat":36.4169,"lng":-77.8528,"timezone":"America/New_York","areaCode":"252","population":0,"elevation":100,"type":"Standard"},{"zip":"27851","city":"Lucama","state":"North Carolina","stateCode":"NC","county":"Lucama County","lat":35.6415,"lng":-78.0197,"timezone":"America/New_York","areaCode":"252","population":0,"elevation":100,"type":"Standard"},{"zip":"27852","city":"Macclesfield","state":"North Carolina","stateCode":"NC","county":"Macclesfield County","lat":35.751,"lng":-77.6706,"timezone":"America/New_York","areaCode":"252","population":0,"elevation":100,"type":"Standard"},{"zip":"27853","city":"Margarettsville","state":"North Carolina","stateCode":"NC","county":"Margarettsville County","lat":36.5245,"lng":-77.326,"timezone":"America/New_York","areaCode":"252","population":0,"elevation":100,"type":"Standard"},{"zip":"27854","city":"Milwaukee","state":"North Carolina","stateCode":"NC","county":"Milwaukee County","lat":36.4,"lng":-77.23,"timezone":"America/New_York","areaCode":"252","population":0,"elevation":100,"type":"Standard"},{"zip":"27855","city":"Murfreesboro","state":"North Carolina","stateCode":"NC","county":"Murfreesboro County","lat":36.4319,"lng":-77.1027,"timezone":"America/New_York","areaCode":"252","population":0,"elevation":100,"type":"Standard"},{"zip":"27856","city":"Nashville","state":"North Carolina","stateCode":"NC","county":"Davidson County","lat":35.9843,"lng":-77.9595,"timezone":"America/New_York","areaCode":"252","population":0,"elevation":100,"type":"Standard"},{"zip":"27857","city":"Oak City","state":"North Carolina","stateCode":"NC","county":"Oak City County","lat":35.9597,"lng":-77.3004,"timezone":"America/New_York","areaCode":"252","population":0,"elevation":100,"type":"Standard"},{"zip":"27858","city":"Greenville","state":"North Carolina","stateCode":"NC","county":"Greenville County","lat":35.5866,"lng":-77.3485,"timezone":"America/New_York","areaCode":"252","population":0,"elevation":100,"type":"Standard"},{"zip":"27860","city":"Pantego","state":"North Carolina","stateCode":"NC","county":"Pantego County","lat":35.6201,"lng":-76.6988,"timezone":"America/New_York","areaCode":"252","population":0,"elevation":100,"type":"Standard"},{"zip":"27861","city":"Parmele","state":"North Carolina","stateCode":"NC","county":"Parmele County","lat":35.8165,"lng":-77.3141,"timezone":"America/New_York","areaCode":"252","population":0,"elevation":100,"type":"Standard"},{"zip":"27862","city":"Pendleton","state":"North Carolina","stateCode":"NC","county":"Pendleton County","lat":36.4937,"lng":-77.1911,"timezone":"America/New_York","areaCode":"252","population":0,"elevation":100,"type":"Standard"},{"zip":"27863","city":"Pikeville","state":"North Carolina","stateCode":"NC","county":"Pikeville County","lat":35.4929,"lng":-77.9578,"timezone":"America/New_York","areaCode":"252","population":0,"elevation":100,"type":"Standard"},{"zip":"27864","city":"Pinetops","state":"North Carolina","stateCode":"NC","county":"Pinetops County","lat":35.7885,"lng":-77.6378,"timezone":"America/New_York","areaCode":"252","population":0,"elevation":100,"type":"Standard"},{"zip":"27865","city":"Pinetown","state":"North Carolina","stateCode":"NC","county":"Pinetown County","lat":35.5758,"lng":-76.8076,"timezone":"America/New_York","areaCode":"252","population":0,"elevation":100,"type":"Standard"},{"zip":"27866","city":"Pleasant Hill","state":"North Carolina","stateCode":"NC","county":"Pleasant Hill County","lat":36.5212,"lng":-77.5192,"timezone":"America/New_York","areaCode":"252","population":0,"elevation":100,"type":"Standard"},{"zip":"27867","city":"Potecasi","state":"North Carolina","stateCode":"NC","county":"Potecasi County","lat":36.3632,"lng":-77.2391,"timezone":"America/New_York","areaCode":"252","population":0,"elevation":100,"type":"Standard"},{"zip":"27868","city":"Red Oak","state":"North Carolina","stateCode":"NC","county":"Red Oak County","lat":36.0548,"lng":-77.9116,"timezone":"America/New_York","areaCode":"252","population":0,"elevation":100,"type":"Standard"},{"zip":"27869","city":"Rich Square","state":"North Carolina","stateCode":"NC","county":"Rich Square County","lat":36.2773,"lng":-77.2969,"timezone":"America/New_York","areaCode":"252","population":0,"elevation":100,"type":"Standard"},{"zip":"27870","city":"Roanoke Rapids","state":"North Carolina","stateCode":"NC","county":"Roanoke Rapids County","lat":36.4461,"lng":-77.6731,"timezone":"America/New_York","areaCode":"252","population":0,"elevation":100,"type":"Standard"},{"zip":"27871","city":"Robersonville","state":"North Carolina","stateCode":"NC","county":"Robersonville County","lat":35.8218,"lng":-77.26,"timezone":"America/New_York","areaCode":"252","population":0,"elevation":100,"type":"Standard"},{"zip":"27872","city":"Roxobel","state":"North Carolina","stateCode":"NC","county":"Roxobel County","lat":36.195,"lng":-77.2602,"timezone":"America/New_York","areaCode":"252","population":0,"elevation":100,"type":"Standard"},{"zip":"27873","city":"Saratoga","state":"North Carolina","stateCode":"NC","county":"Saratoga County","lat":35.6538,"lng":-77.7755,"timezone":"America/New_York","areaCode":"252","population":0,"elevation":100,"type":"Standard"},{"zip":"27874","city":"Scotland Neck","state":"North Carolina","stateCode":"NC","county":"Scotland Neck County","lat":36.1301,"lng":-77.4273,"timezone":"America/New_York","areaCode":"252","population":0,"elevation":100,"type":"Standard"},{"zip":"27875","city":"Scranton","state":"North Carolina","stateCode":"NC","county":"Scranton County","lat":35.4717,"lng":-76.4951,"timezone":"America/New_York","areaCode":"252","population":0,"elevation":100,"type":"Standard"},{"zip":"27876","city":"Seaboard","state":"North Carolina","stateCode":"NC","county":"Seaboard County","lat":36.4886,"lng":-77.4113,"timezone":"America/New_York","areaCode":"252","population":0,"elevation":100,"type":"Standard"},{"zip":"27877","city":"Severn","state":"North Carolina","stateCode":"NC","county":"Severn County","lat":36.5152,"lng":-77.1897,"timezone":"America/New_York","areaCode":"252","population":0,"elevation":100,"type":"Standard"},{"zip":"27878","city":"Sharpsburg","state":"North Carolina","stateCode":"NC","county":"Sharpsburg County","lat":35.8654,"lng":-77.8389,"timezone":"America/New_York","areaCode":"252","population":0,"elevation":100,"type":"Standard"},{"zip":"27879","city":"Simpson","state":"North Carolina","stateCode":"NC","county":"Simpson County","lat":35.5752,"lng":-77.2786,"timezone":"America/New_York","areaCode":"252","population":0,"elevation":100,"type":"Standard"},{"zip":"27880","city":"Sims","state":"North Carolina","stateCode":"NC","county":"Sims County","lat":35.7435,"lng":-78.0859,"timezone":"America/New_York","areaCode":"252","population":0,"elevation":100,"type":"Standard"},{"zip":"27881","city":"Speed","state":"North Carolina","stateCode":"NC","county":"Speed County","lat":35.9679,"lng":-77.4452,"timezone":"America/New_York","areaCode":"252","population":0,"elevation":100,"type":"Standard"},{"zip":"27882","city":"Spring Hope","state":"North Carolina","stateCode":"NC","county":"Spring Hope County","lat":35.9302,"lng":-78.1085,"timezone":"America/New_York","areaCode":"252","population":0,"elevation":100,"type":"Standard"},{"zip":"27883","city":"Stantonsburg","state":"North Carolina","stateCode":"NC","county":"Stantonsburg County","lat":35.594,"lng":-77.8378,"timezone":"America/New_York","areaCode":"252","population":0,"elevation":100,"type":"Standard"},{"zip":"27884","city":"Stokes","state":"North Carolina","stateCode":"NC","county":"Stokes County","lat":35.7104,"lng":-77.2722,"timezone":"America/New_York","areaCode":"252","population":0,"elevation":100,"type":"Standard"},{"zip":"27885","city":"Swanquarter","state":"North Carolina","stateCode":"NC","county":"Swanquarter County","lat":35.4222,"lng":-76.2875,"timezone":"America/New_York","areaCode":"252","population":0,"elevation":100,"type":"Standard"},{"zip":"27886","city":"Tarboro","state":"North Carolina","stateCode":"NC","county":"Tarboro County","lat":35.8983,"lng":-77.5421,"timezone":"America/New_York","areaCode":"252","population":0,"elevation":100,"type":"Standard"},{"zip":"27887","city":"Tillery","state":"North Carolina","stateCode":"NC","county":"Tillery County","lat":36.2352,"lng":-77.5026,"timezone":"America/New_York","areaCode":"252","population":0,"elevation":100,"type":"Standard"},{"zip":"27888","city":"Walstonburg","state":"North Carolina","stateCode":"NC","county":"Walstonburg County","lat":35.5882,"lng":-77.6983,"timezone":"America/New_York","areaCode":"252","population":0,"elevation":100,"type":"Standard"},{"zip":"27889","city":"Washington","state":"North Carolina","stateCode":"NC","county":"District of Columbia","lat":35.5884,"lng":-77.1404,"timezone":"America/New_York","areaCode":"252","population":0,"elevation":100,"type":"Standard"},{"zip":"27890","city":"Weldon","state":"North Carolina","stateCode":"NC","county":"Weldon County","lat":36.4206,"lng":-77.6035,"timezone":"America/New_York","areaCode":"252","population":0,"elevation":100,"type":"Standard"},{"zip":"27891","city":"Whitakers","state":"North Carolina","stateCode":"NC","county":"Whitakers County","lat":36.0758,"lng":-77.7167,"timezone":"America/New_York","areaCode":"252","population":0,"elevation":100,"type":"Standard"},{"zip":"27892","city":"Williamston","state":"North Carolina","stateCode":"NC","county":"Williamston County","lat":35.8212,"lng":-77.1022,"timezone":"America/New_York","areaCode":"252","population":0,"elevation":100,"type":"Standard"},{"zip":"27893","city":"Wilson","state":"North Carolina","stateCode":"NC","county":"Wilson County","lat":35.727,"lng":-77.9227,"timezone":"America/New_York","areaCode":"252","population":0,"elevation":100,"type":"Standard"},{"zip":"27894","city":"Wilson","state":"North Carolina","stateCode":"NC","county":"Wilson County","lat":35.7158,"lng":-77.9043,"timezone":"America/New_York","areaCode":"252","population":0,"elevation":100,"type":"Standard"},{"zip":"27895","city":"Wilson","state":"North Carolina","stateCode":"NC","county":"Wilson County","lat":35.7199,"lng":-77.9267,"timezone":"America/New_York","areaCode":"252","population":0,"elevation":100,"type":"Standard"},{"zip":"27896","city":"Wilson","state":"North Carolina","stateCode":"NC","county":"Wilson County","lat":35.7715,"lng":-77.973,"timezone":"America/New_York","areaCode":"252","population":0,"elevation":100,"type":"Standard"},{"zip":"27897","city":"Woodland","state":"North Carolina","stateCode":"NC","county":"Woodland County","lat":36.325,"lng":-77.2107,"timezone":"America/New_York","areaCode":"252","population":0,"elevation":100,"type":"Standard"},{"zip":"27906","city":"Elizabeth City","state":"North Carolina","stateCode":"NC","county":"Elizabeth City County","lat":36.2854,"lng":-76.2133,"timezone":"America/New_York","areaCode":"252","population":0,"elevation":100,"type":"Standard"},{"zip":"27907","city":"Elizabeth City","state":"North Carolina","stateCode":"NC","county":"Elizabeth City County","lat":36.285,"lng":-76.2553,"timezone":"America/New_York","areaCode":"252","population":0,"elevation":100,"type":"Standard"},{"zip":"27909","city":"Elizabeth City","state":"North Carolina","stateCode":"NC","county":"Elizabeth City County","lat":36.2951,"lng":-76.2445,"timezone":"America/New_York","areaCode":"252","population":0,"elevation":100,"type":"Standard"},{"zip":"27910","city":"Ahoskie","state":"North Carolina","stateCode":"NC","county":"Ahoskie County","lat":36.2957,"lng":-76.9966,"timezone":"America/New_York","areaCode":"252","population":0,"elevation":100,"type":"Standard"},{"zip":"27915","city":"Avon","state":"North Carolina","stateCode":"NC","county":"Avon County","lat":35.3521,"lng":-75.5104,"timezone":"America/New_York","areaCode":"252","population":0,"elevation":100,"type":"Standard"},