[{"zip":"03601","city":"Acworth","state":"New Hampshire","stateCode":"NH","county":"Acworth County","lat":43.196,"lng":-72.3001,"timezone":"America/New_York","areaCode":"603","population":0,"elevation":100,"type":"Standard"},{"zip":"03602","city":"Alstead","state":"New Hampshire","stateCode":"NH","county":"Alstead County","lat":43.1265,"lng":-72.3281,"timezone":"America/New_York","areaCode":"603","population":0,"elevation":100,"type":"Standard"},{"zip":"03607","city":"South Acworth","state":"New Hampshire","stateCode":"NH","county":"South Acworth County","lat":43.1956,"lng":-72.2686,"timezone":"America/New_York","areaCode":"603","population":0,"elevation":100,"type":"Standard"},{"zip":"03809","city":"Alton","state":"New Hampshire","stateCode":"NH","county":"Alton County","lat":43.463,"lng":-71.2297,"timezone":"America/New_York","areaCode":"603","population":0,"elevation":100,"type":"Standard"},{"zip":"03810","city":"Alton Bay","state":"New Hampshire","stateCode":"NH","county":"Alton Bay County","lat":43.4845,"lng":-71.2489,"timezone":"America/New_York","areaCode":"603","population":0,"elevation":100,"type":"Standard"},{"zip":"03031","city":"Amherst","state":"New Hampshire","stateCode":"NH","county":"Amherst County","lat":42.8569,"lng":-71.6075,"timezone":"America/New_York","areaCode":"603","population":0,"elevation":100,"type":"Standard"},{"zip":"03216","city":"Andover","state":"New Hampshire","stateCode":"NH","county":"Andover County","lat":43.4287,"lng":-71.783,"timezone":"America/New_York","areaCode":"603","population":0,"elevation":100,"type":"Standard"},{"zip":"03440","city":"Antrim","state":"New Hampshire","stateCode":"NH","county":"Antrim County","lat":43.0595,"lng":-71.9387,"timezone":"America/New_York","areaCode":"603","population":0,"elevation":100,"type":"Standard"},{"zip":"03217","city":"Ashland","state":"New Hampshire","stateCode":"NH","county":"Ashland County","lat":43.7034,"lng":-71.6121,"timezone":"America/New_York","areaCode":"603","population":0,"elevation":100,"type":"Standard"},{"zip":"03441","city":"Ashuelot","state":"New Hampshire","stateCode":"NH","county":"Ashuelot County","lat":42.7851,"lng":-72.4349,"timezone":"America/New_York","areaCode":"603","population":0,"elevation":100,"type":"Standard"},{"zip":"03811","city":"Atkinson","state":"New Hampshire","stateCode":"NH","county":"Atkinson County","lat":42.837,"lng":-71.1603,"timezone":"America/New_York","areaCode":"603","population":0,"elevation":100,"type":"Standard"},{"zip":"03032","city":"Auburn","state":"New Hampshire","stateCode":"NH","county":"Auburn County","lat":42.9925,"lng":-71.3449,"timezone":"America/New_York","areaCode":"603","population":0,"elevation":100,"type":"Standard"},{"zip":"03218","city":"Barnstead","state":"New Hampshire","stateCode":"NH","county":"Barnstead County","lat":43.3349,"lng":-71.2887,"timezone":"America/New_York","areaCode":"603","population":0,"elevation":100,"type":"Standard"},{"zip":"03825","city":"Barrington","state":"New Hampshire","stateCode":"NH","county":"Barrington County","lat":43.2027,"lng":-71.0377,"timezone":"America/New_York","areaCode":"603","population":0,"elevation":100,"type":"Standard"},{"zip":"03812","city":"Bartlett","state":"New Hampshire","stateCode":"NH","county":"Bartlett County","lat":44.0802,"lng":-71.292,"timezone":"America/New_York","areaCode":"603","population":0,"elevation":100,"type":"Standard"},{"zip":"03740","city":"Bath","state":"New Hampshire","stateCode":"NH","county":"Bath County","lat":44.1808,"lng":-71.9828,"timezone":"America/New_York","areaCode":"603","population":0,"elevation":100,"type":"Standard"},{"zip":"03220","city":"Belmont","state":"New Hampshire","stateCode":"NH","county":"Belmont County","lat":43.4512,"lng":-71.489,"timezone":"America/New_York","areaCode":"603","population":0,"elevation":100,"type":"Standard"},{"zip":"03442","city":"Bennington","state":"New Hampshire","stateCode":"NH","county":"Bennington County","lat":43.0103,"lng":-71.9153,"timezone":"America/New_York","areaCode":"603","population":0,"elevation":100,"type":"Standard"},{"zip":"03570","city":"Berlin","state":"New Hampshire","stateCode":"NH","county":"Berlin County","lat":44.4811,"lng":-71.1892,"timezone":"America/New_York","areaCode":"603","population":0,"elevation":100,"type":"Standard"},{"zip":"03574","city":"Bethlehem","state":"New Hampshire","stateCode":"NH","county":"Bethlehem County","lat":44.2808,"lng":-71.6829,"timezone":"America/New_York","areaCode":"603","population":0,"elevation":100,"type":"Standard"},{"zip":"03221","city":"Bradford","state":"New Hampshire","stateCode":"NH","county":"Bradford County","lat":43.2517,"lng":-71.9617,"timezone":"America/New_York","areaCode":"603","population":0,"elevation":100,"type":"Standard"},{"zip":"03222","city":"Bristol","state":"New Hampshire","stateCode":"NH","county":"Bristol County","lat":43.612,"lng":-71.7507,"timezone":"America/New_York","areaCode":"603","population":0,"elevation":100,"type":"Standard"},{"zip":"03033","city":"Brookline","state":"New Hampshire","stateCode":"NH","county":"Brookline County","lat":42.7384,"lng":-71.6663,"timezone":"America/New_York","areaCode":"603","population":0,"elevation":100,"type":"Standard"},{"zip":"03215","city":"Waterville Valley","state":"New Hampshire","stateCode":"NH","county":"Waterville Valley County","lat":43.9501,"lng":-71.4995,"timezone":"America/New_York","areaCode":"603","population":0,"elevation":100,"type":"Standard"},{"zip":"03223","city":"Campton","state":"New Hampshire","stateCode":"NH","county":"Campton County","lat":43.8418,"lng":-71.6652,"timezone":"America/New_York","areaCode":"603","population":0,"elevation":100,"type":"Standard"},{"zip":"03285","city":"Thornton","state":"New Hampshire","stateCode":"NH","county":"Thornton County","lat":43.905,"lng":-71.647,"timezone":"America/New_York","areaCode":"603","population":0,"elevation":100,"type":"Standard"},{"zip":"03741","city":"Canaan","state":"New Hampshire","stateCode":"NH","county":"Canaan County","lat":43.6601,"lng":-72.0297,"timezone":"America/New_York","areaCode":"603","population":0,"elevation":100,"type":"Standard"},{"zip":"03034","city":"Candia","state":"New Hampshire","stateCode":"NH","county":"Candia County","lat":43.0585,"lng":-71.3049,"timezone":"America/New_York","areaCode":"603","population":0,"elevation":100,"type":"Standard"},{"zip":"03040","city":"East Candia","state":"New Hampshire","stateCode":"NH","county":"East Candia County","lat":43.0481,"lng":-71.2487,"timezone":"America/New_York","areaCode":"603","population":0,"elevation":100,"type":"Standard"},{"zip":"03224","city":"Canterbury","state":"New Hampshire","stateCode":"NH","county":"Canterbury County","lat":43.357,"lng":-71.557,"timezone":"America/New_York","areaCode":"603","population":0,"elevation":100,"type":"Standard"},{"zip":"03225","city":"Center Barnstead","state":"New Hampshire","stateCode":"NH","county":"Center Barnstead County","lat":43.3566,"lng":-71.2424,"timezone":"America/New_York","areaCode":"603","population":0,"elevation":100,"type":"Standard"},{"zip":"03813","city":"Center Conway","state":"New Hampshire","stateCode":"NH","county":"Center Conway County","lat":43.9878,"lng":-71.0607,"timezone":"America/New_York","areaCode":"603","population":0,"elevation":100,"type":"Standard"},{"zip":"03226","city":"Center Harbor","state":"New Hampshire","stateCode":"NH","county":"Center Harbor County","lat":43.7107,"lng":-71.4797,"timezone":"America/New_York","areaCode":"603","population":0,"elevation":100,"type":"Standard"},{"zip":"03814","city":"Center Ossipee","state":"New Hampshire","stateCode":"NH","county":"Center Ossipee County","lat":43.7682,"lng":-71.1349,"timezone":"America/New_York","areaCode":"603","population":0,"elevation":100,"type":"Standard"},{"zip":"03227","city":"Center Sandwich","state":"New Hampshire","stateCode":"NH","county":"Center Sandwich County","lat":43.8162,"lng":-71.4506,"timezone":"America/New_York","areaCode":"603","population":0,"elevation":100,"type":"Standard"},{"zip":"03603","city":"Charlestown","state":"New Hampshire","stateCode":"NH","county":"Charlestown County","lat":43.2573,"lng":-72.4064,"timezone":"America/New_York","areaCode":"603","population":0,"elevation":100,"type":"Standard"},{"zip":"03036","city":"Chester","state":"New Hampshire","stateCode":"NH","county":"Chester County","lat":42.9678,"lng":-71.245,"timezone":"America/New_York","areaCode":"603","population":0,"elevation":100,"type":"Standard"},{"zip":"03443","city":"Chesterfield","state":"New Hampshire","stateCode":"NH","county":"Chesterfield County","lat":42.8839,"lng":-72.4548,"timezone":"America/New_York","areaCode":"603","population":0,"elevation":100,"type":"Standard"},{"zip":"03817","city":"Chocorua","state":"New Hampshire","stateCode":"NH","county":"Chocorua County","lat":43.8909,"lng":-71.2407,"timezone":"America/New_York","areaCode":"603","population":0,"elevation":100,"type":"Standard"},{"zip":"03743","city":"Claremont","state":"New Hampshire","stateCode":"NH","county":"Claremont County","lat":43.3679,"lng":-72.3422,"timezone":"America/New_York","areaCode":"603","population":0,"elevation":100,"type":"Standard"},{"zip":"03576","city":"Colebrook","state":"New Hampshire","stateCode":"NH","county":"Colebrook County","lat":44.9078,"lng":-71.4793,"timezone":"America/New_York","areaCode":"603","population":0,"elevation":100,"type":"Standard"},{"zip":"03301","city":"Concord","state":"New Hampshire","stateCode":"NH","county":"Concord County","lat":43.2185,"lng":-71.5277,"timezone":"America/New_York","areaCode":"603","population":0,"elevation":100,"type":"Standard"},{"zip":"03302","city":"Concord","state":"New Hampshire","stateCode":"NH","county":"Concord County","lat":43.3103,"lng":-71.6629,"timezone":"America/New_York","areaCode":"603","population":0,"elevation":100,"type":"Standard"},{"zip":"03303","city":"Concord","state":"New Hampshire","stateCode":"NH","county":"Concord County","lat":43.2817,"lng":-71.6595,"timezone":"America/New_York","areaCode":"603","population":0,"elevation":100,"type":"Standard"},{"zip":"03304","city":"Bow","state":"New Hampshire","stateCode":"NH","county":"Bow County","lat":43.1388,"lng":-71.5448,"timezone":"America/New_York","areaCode":"603","population":0,"elevation":100,"type":"Standard"},{"zip":"03305","city":"Concord","state":"New Hampshire","stateCode":"NH","county":"Concord County","lat":43.2134,"lng":-71.5172,"timezone":"America/New_York","areaCode":"603","population":0,"elevation":100,"type":"Standard"},{"zip":"03307","city":"Loudon","state":"New Hampshire","stateCode":"NH","county":"Loudon County","lat":43.3193,"lng":-71.467,"timezone":"America/New_York","areaCode":"603","population":0,"elevation":100,"type":"Standard"},{"zip":"03229","city":"Contoocook","state":"New Hampshire","stateCode":"NH","county":"Contoocook County","lat":43.1978,"lng":-71.6968,"timezone":"America/New_York","areaCode":"603","population":0,"elevation":100,"type":"Standard"},{"zip":"03818","city":"Conway","state":"New Hampshire","stateCode":"NH","county":"Conway County","lat":43.9742,"lng":-71.1503,"timezone":"America/New_York","areaCode":"603","population":0,"elevation":100,"type":"Standard"},{"zip":"03745","city":"Cornish","state":"New Hampshire","stateCode":"NH","county":"Cornish County","lat":43.4963,"lng":-72.3394,"timezone":"America/New_York","areaCode":"603","population":0,"elevation":100,"type":"Standard"},{"zip":"03746","city":"Cornish Flat","state":"New Hampshire","stateCode":"NH","county":"Cornish Flat County","lat":43.4973,"lng":-72.2795,"timezone":"America/New_York","areaCode":"603","population":0,"elevation":100,"type":"Standard"},{"zip":"03230","city":"Danbury","state":"New Hampshire","stateCode":"NH","county":"Danbury County","lat":43.5115,"lng":-71.8691,"timezone":"America/New_York","areaCode":"603","population":0,"elevation":100,"type":"Standard"},{"zip":"03819","city":"Danville","state":"New Hampshire","stateCode":"NH","county":"Danville County","lat":42.9234,"lng":-71.121,"timezone":"America/New_York","areaCode":"603","population":0,"elevation":100,"type":"Standard"},{"zip":"03037","city":"Deerfield","state":"New Hampshire","stateCode":"NH","county":"Deerfield County","lat":43.1378,"lng":-71.2513,"timezone":"America/New_York","areaCode":"603","population":0,"elevation":100,"type":"Standard"},{"zip":"03038","city":"Derry","state":"New Hampshire","stateCode":"NH","county":"Derry County","lat":42.8874,"lng":-71.302,"timezone":"America/New_York","areaCode":"603","population":0,"elevation":100,"type":"Standard"},{"zip":"03820","city":"Dover","state":"New Hampshire","stateCode":"NH","county":"Dover County","lat":43.1888,"lng":-70.8868,"timezone":"America/New_York","areaCode":"603","population":0,"elevation":100,"type":"Standard"},{"zip":"03821","city":"Dover","state":"New Hampshire","stateCode":"NH","county":"Dover County","lat":43.1979,"lng":-70.8737,"timezone":"America/New_York","areaCode":"603","population":0,"elevation":100,"type":"Standard"},{"zip":"03822","city":"Dover","state":"New Hampshire","stateCode":"NH","county":"Dover County","lat":43.1979,"lng":-70.8737,"timezone":"America/New_York","areaCode":"603","population":0,"elevation":100,"type":"Standard"},{"zip":"03823","city":"Madbury","state":"New Hampshire","stateCode":"NH","county":"Madbury County","lat":43.1729,"lng":-70.9412,"timezone":"America/New_York","areaCode":"603","population":0,"elevation":100,"type":"Standard"},{"zip":"03444","city":"Dublin","state":"New Hampshire","stateCode":"NH","county":"Dublin County","lat":42.8972,"lng":-72.0505,"timezone":"America/New_York","areaCode":"603","population":0,"elevation":100,"type":"Standard"},{"zip":"03824","city":"Durham","state":"New Hampshire","stateCode":"NH","county":"Durham County","lat":43.1174,"lng":-70.9197,"timezone":"America/New_York","areaCode":"603","population":0,"elevation":100,"type":"Standard"},{"zip":"03861","city":"Lee","state":"New Hampshire","stateCode":"NH","county":"Lee County","lat":43.1192,"lng":-70.9969,"timezone":"America/New_York","areaCode":"603","population":0,"elevation":100,"type":"Standard"},{"zip":"03231","city":"East Andover","state":"New Hampshire","stateCode":"NH","county":"East Andover County","lat":43.4595,"lng":-71.7476,"timezone":"America/New_York","areaCode":"603","population":0,"elevation":100,"type":"Standard"},{"zip":"03041","city":"East Derry","state":"New Hampshire","stateCode":"NH","county":"East Derry County","lat":42.8945,"lng":-71.2912,"timezone":"America/New_York","areaCode":"603","population":0,"elevation":100,"type":"Standard"},{"zip":"03826","city":"East Hampstead","state":"New Hampshire","stateCode":"NH","county":"East Hampstead County","lat":42.8877,"lng":-71.128,"timezone":"America/New_York","areaCode":"603","population":0,"elevation":100,"type":"Standard"},{"zip":"03827","city":"East Kingston","state":"New Hampshire","stateCode":"NH","county":"East Kingston County","lat":42.907,"lng":-70.9876,"timezone":"America/New_York","areaCode":"603","population":0,"elevation":100,"type":"Standard"},{"zip":"03605","city":"Lempster","state":"New Hampshire","stateCode":"NH","county":"Lempster County","lat":43.2136,"lng":-72.1968,"timezone":"America/New_York","areaCode":"603","population":0,"elevation":100,"type":"Standard"},{"zip":"03445","city":"Sullivan","state":"New Hampshire","stateCode":"NH","county":"Sullivan County","lat":42.9982,"lng":-72.2019,"timezone":"America/New_York","areaCode":"603","population":0,"elevation":100,"type":"Standard"},{"zip":"03457","city":"Nelson","state":"New Hampshire","stateCode":"NH","county":"Nelson County","lat":42.9906,"lng":-72.1309,"timezone":"America/New_York","areaCode":"603","population":0,"elevation":100,"type":"Standard"},{"zip":"03446","city":"Swanzey","state":"New Hampshire","stateCode":"NH","county":"Swanzey County","lat":42.8411,"lng":-72.3301,"timezone":"America/New_York","areaCode":"603","population":0,"elevation":100,"type":"Standard"},{"zip":"03830","city":"East Wakefield","state":"New Hampshire","stateCode":"NH","county":"East Wakefield County","lat":43.6142,"lng":-71.0051,"timezone":"America/New_York","areaCode":"603","population":0,"elevation":100,"type":"Standard"},{"zip":"03233","city":"Elkins","state":"New Hampshire","stateCode":"NH","county":"Elkins County","lat":43.4209,"lng":-71.9373,"timezone":"America/New_York","areaCode":"603","population":0,"elevation":100,"type":"Standard"},{"zip":"03748","city":"Enfield","state":"New Hampshire","stateCode":"NH","county":"Enfield County","lat":43.6256,"lng":-72.127,"timezone":"America/New_York","areaCode":"603","population":0,"elevation":100,"type":"Standard"},{"zip":"03749","city":"Enfield Center","state":"New Hampshire","stateCode":"NH","county":"Enfield Center County","lat":43.5796,"lng":-72.0854,"timezone":"America/New_York","areaCode":"603","population":0,"elevation":100,"type":"Standard"},{"zip":"03042","city":"Epping","state":"New Hampshire","stateCode":"NH","county":"Epping County","lat":43.0411,"lng":-71.0764,"timezone":"America/New_York","areaCode":"603","population":0,"elevation":100,"type":"Standard"},{"zip":"03234","city":"Epsom","state":"New Hampshire","stateCode":"NH","county":"Epsom County","lat":43.2174,"lng":-71.3546,"timezone":"America/New_York","areaCode":"603","population":0,"elevation":100,"type":"Standard"},{"zip":"03258","city":"Chichester","state":"New Hampshire","stateCode":"NH","county":"Chichester County","lat":43.244,"lng":-71.4105,"timezone":"America/New_York","areaCode":"603","population":0,"elevation":100,"type":"Standard"},{"zip":"03579","city":"Errol","state":"New Hampshire","stateCode":"NH","county":"Errol County","lat":44.8003,"lng":-71.1436,"timezone":"America/New_York","areaCode":"603","population":0,"elevation":100,"type":"Standard"},{"zip":"03750","city":"Etna","state":"New Hampshire","stateCode":"NH","county":"Etna County","lat":43.7113,"lng":-72.2125,"timezone":"America/New_York","areaCode":"603","population":0,"elevation":100,"type":"Standard"},{"zip":"03833","city":"Exeter","state":"New Hampshire","stateCode":"NH","county":"Exeter County","lat":42.9815,"lng":-70.9478,"timezone":"America/New_York","areaCode":"603","population":0,"elevation":100,"type":"Standard"},{"zip":"03835","city":"Farmington","state":"New Hampshire","stateCode":"NH","county":"Farmington County","lat":43.3884,"lng":-71.0647,"timezone":"America/New_York","areaCode":"603","population":0,"elevation":100,"type":"Standard"},{"zip":"03447","city":"Fitzwilliam","state":"New Hampshire","stateCode":"NH","county":"Fitzwilliam County","lat":42.7611,"lng":-72.145,"timezone":"America/New_York","areaCode":"603","population":0,"elevation":100,"type":"Standard"},{"zip":"03043","city":"Francestown","state":"New Hampshire","stateCode":"NH","county":"Francestown County","lat":42.992,"lng":-71.8113,"timezone":"America/New_York","areaCode":"603","population":0,"elevation":100,"type":"Standard"},{"zip":"03580","city":"Franconia","state":"New Hampshire","stateCode":"NH","county":"Franconia County","lat":44.2053,"lng":-71.7518,"timezone":"America/New_York","areaCode":"603","population":0,"elevation":100,"type":"Standard"},{"zip":"03235","city":"Franklin","state":"New Hampshire","stateCode":"NH","county":"Franklin County","lat":43.4426,"lng":-71.6491,"timezone":"America/New_York","areaCode":"603","population":0,"elevation":100,"type":"Standard"},{"zip":"03836","city":"Freedom","state":"New Hampshire","stateCode":"NH","county":"Freedom County","lat":43.8172,"lng":-71.0628,"timezone":"America/New_York","areaCode":"603","population":0,"elevation":100,"type":"Standard"},{"zip":"03044","city":"Fremont","state":"New Hampshire","stateCode":"NH","county":"Fremont County","lat":42.984,"lng":-71.1218,"timezone":"America/New_York","areaCode":"603","population":0,"elevation":100,"type":"Standard"},{"zip":"03751","city":"Georges Mills","state":"New Hampshire","stateCode":"NH","county":"Georges Mills County","lat":43.4317,"lng":-72.0673,"timezone":"America/New_York","areaCode":"603","population":0,"elevation":100,"type":"Standard"},{"zip":"03237","city":"Gilmanton","state":"New Hampshire","stateCode":"NH","county":"Gilmanton County","lat":43.4175,"lng":-71.4121,"timezone":"America/New_York","areaCode":"603","population":0,"elevation":100,"type":"Standard"},{"zip":"03837","city":"Gilmanton Iron Works","state":"New Hampshire","stateCode":"NH","county":"Gilmanton Iron Works County","lat":43.4466,"lng":-71.2995,"timezone":"America/New_York","areaCode":"603","population":0,"elevation":100,"type":"Standard"},{"zip":"03448","city":"Gilsum","state":"New Hampshire","stateCode":"NH","county":"Gilsum County","lat":43.0399,"lng":-72.2719,"timezone":"America/New_York","areaCode":"603","population":0,"elevation":100,"type":"Standard"},{"zip":"03838","city":"Glen","state":"New Hampshire","stateCode":"NH","county":"Glen County","lat":44.1018,"lng":-71.1925,"timezone":"America/New_York","areaCode":"603","population":0,"elevation":100,"type":"Standard"},{"zip":"03238","city":"Glencliff","state":"New Hampshire","stateCode":"NH","county":"Glencliff County","lat":43.9828,"lng":-71.8934,"timezone":"America/New_York","areaCode":"603","population":0,"elevation":100,"type":"Standard"},{"zip":"03045","city":"Goffstown","state":"New Hampshire","stateCode":"NH","county":"Goffstown County","lat":43.0201,"lng":-71.5697,"timezone":"America/New_York","areaCode":"603","population":0,"elevation":100,"type":"Standard"},{"zip":"03046","city":"Dunbarton","state":"New Hampshire","stateCode":"NH","county":"Dunbarton County","lat":43.1025,"lng":-71.6169,"timezone":"America/New_York","areaCode":"603","population":0,"elevation":100,"type":"Standard"},{"zip":"03581","city":"Gorham","state":"New Hampshire","stateCode":"NH","county":"Gorham County","lat":44.4048,"lng":-71.1548,"timezone":"America/New_York","areaCode":"603","population":0,"elevation":100,"type":"Standard"},{"zip":"03593","city":"Randolph","state":"New Hampshire","stateCode":"NH","county":"Randolph County","lat":44.3753,"lng":-71.2798,"timezone":"America/New_York","areaCode":"603","population":0,"elevation":100,"type":"Standard"},{"zip":"03752","city":"Goshen","state":"New Hampshire","stateCode":"NH","county":"Goshen County","lat":43.3026,"lng":-72.1241,"timezone":"America/New_York","areaCode":"603","population":0,"elevation":100,"type":"Standard"},{"zip":"03240","city":"Grafton","state":"New Hampshire","stateCode":"NH","county":"Grafton County","lat":43.5727,"lng":-71.9634,"timezone":"America/New_York","areaCode":"603","population":0,"elevation":100,"type":"Standard"},{"zip":"03753","city":"Grantham","state":"New Hampshire","stateCode":"NH","county":"Grantham County","lat":43.5103,"lng":-72.1334,"timezone":"America/New_York","areaCode":"603","population":0,"elevation":100,"type":"Standard"},{"zip":"03047","city":"Greenfield","state":"New Hampshire","stateCode":"NH","county":"Greenfield County","lat":42.9493,"lng":-71.8728,"timezone":"America/New_York","areaCode":"603","population":0,"elevation":100,"type":"Standard"},{"zip":"03840","city":"Greenland","state":"New Hampshire","stateCode":"NH","county":"Greenland County","lat":43.0353,"lng":-70.8475,"timezone":"America/New_York","areaCode":"603","population":0,"elevation":100,"type":"Standard"},{"zip":"03048","city":"Greenville","state":"New Hampshire","stateCode":"NH","county":"Greenville County","lat":42.7482,"lng":-71.7619,"timezone":"America/New_York","areaCode":"603","population":0,"elevation":100,"type":"Standard"},{"zip":"03582","city":"Groveton","state":"New Hampshire","stateCode":"NH","county":"Groveton County","lat":44.5984,"lng":-71.5064,"timezone":"America/New_York","areaCode":"603","population":0,"elevation":100,"type":"Standard"},{"zip":"03754","city":"Guild","state":"New Hampshire","stateCode":"NH","county":"Guild County","lat":43.3767,"lng":-72.1381,"timezone":"America/New_York","areaCode":"603","population":0,"elevation":100,"type":"Standard"},{"zip":"03841","city":"Hampstead","state":"New Hampshire","stateCode":"NH","county":"Hampstead County","lat":42.882,"lng":-71.1758,"timezone":"America/New_York","areaCode":"603","population":0,"elevation":100,"type":"Standard"},{"zip":"03842","city":"Hampton","state":"New Hampshire","stateCode":"NH","county":"Hampton County","lat":42.9359,"lng":-70.8243,"timezone":"America/New_York","areaCode":"603","population":0,"elevation":100,"type":"Standard"},{"zip":"03843","city":"Hampton","state":"New Hampshire","stateCode":"NH","county":"Hampton County","lat":43.0059,"lng":-71.0132,"timezone":"America/New_York","areaCode":"603","population":0,"elevation":100,"type":"Standard"},{"zip":"03844","city":"Hampton Falls","state":"New Hampshire","stateCode":"NH","county":"Hampton Falls County","lat":42.9263,"lng":-70.8876,"timezone":"America/New_York","areaCode":"603","population":0,"elevation":100,"type":"Standard"},{"zip":"03449","city":"Hancock","state":"New Hampshire","stateCode":"NH","county":"Hancock County","lat":42.9768,"lng":-71.9819,"timezone":"America/New_York","areaCode":"603","population":0,"elevation":100,"type":"Standard"},{"zip":"03755","city":"Hanover","state":"New Hampshire","stateCode":"NH","county":"Hanover County","lat":43.7045,"lng":-72.285,"timezone":"America/New_York","areaCode":"603","population":0,"elevation":100,"type":"Standard"},{"zip":"03450","city":"Harrisville","state":"New Hampshire","stateCode":"NH","county":"Harrisville County","lat":42.9399,"lng":-72.0972,"timezone":"America/New_York","areaCode":"603","population":0,"elevation":100,"type":"Standard"},{"zip":"03765","city":"Haverhill","state":"New Hampshire","stateCode":"NH","county":"Haverhill County","lat":44.0394,"lng":-72.0573,"timezone":"America/New_York","areaCode":"603","population":0,"elevation":100,"type":"Standard"},{"zip":"03241","city":"Hebron","state":"New Hampshire","stateCode":"NH","county":"Hebron County","lat":43.7186,"lng":-71.827,"timezone":"America/New_York","areaCode":"603","population":0,"elevation":100,"type":"Standard"},{"zip":"03242","city":"Henniker","state":"New Hampshire","stateCode":"NH","county":"Henniker County","lat":43.1791,"lng":-71.8159,"timezone":"America/New_York","areaCode":"603","population":0,"elevation":100,"type":"Standard"},{"zip":"03243","city":"Hill","state":"New Hampshire","stateCode":"NH","county":"Hill County","lat":43.5274,"lng":-71.7292,"timezone":"America/New_York","areaCode":"603","population":0,"elevation":100,"type":"Standard"},{"zip":"03244","city":"Hillsborough","state":"New Hampshire","stateCode":"NH","county":"Hillsborough County","lat":43.1141,"lng":-71.8992,"timezone":"America/New_York","areaCode":"603","population":0,"elevation":100,"type":"Standard"},{"zip":"03451","city":"Hinsdale","state":"New Hampshire","stateCode":"NH","county":"Hinsdale County","lat":42.8027,"lng":-72.5015,"timezone":"America/New_York","areaCode":"603","population":0,"elevation":100,"type":"Standard"},{"zip":"03245","city":"Holderness","state":"New Hampshire","stateCode":"NH","county":"Holderness County","lat":43.7378,"lng":-71.6044,"timezone":"America/New_York","areaCode":"603","population":0,"elevation":100,"type":"Standard"},{"zip":"03049","city":"Hollis","state":"New Hampshire","stateCode":"NH","county":"Hollis County","lat":42.7485,"lng":-71.5772,"timezone":"America/New_York","areaCode":"603","population":0,"elevation":100,"type":"Standard"},{"zip":"03051","city":"Hudson","state":"New Hampshire","stateCode":"NH","county":"Hudson County","lat":42.769,"lng":-71.4121,"timezone":"America/New_York","areaCode":"603","population":0,"elevation":100,"type":"Standard"},{"zip":"03052","city":"Litchfield","state":"New Hampshire","stateCode":"NH","county":"Litchfield County","lat":42.843,"lng":-71.455,"timezone":"America/New_York","areaCode":"603","population":0,"elevation":100,"type":"Standard"},{"zip":"03845","city":"Intervale","state":"New Hampshire","stateCode":"NH","county":"Intervale County","lat":44.0955,"lng":-71.1194,"timezone":"America/New_York","areaCode":"603","population":0,"elevation":100,"type":"Standard"},{"zip":"03846","city":"Jackson","state":"New Hampshire","stateCode":"NH","county":"Jackson County","lat":44.167,"lng":-71.1878,"timezone":"America/New_York","areaCode":"603","population":0,"elevation":100,"type":"Standard"},{"zip":"03452","city":"Jaffrey","state":"New Hampshire","stateCode":"NH","county":"Jaffrey County","lat":42.8178,"lng":-72.0275,"timezone":"America/New_York","areaCode":"603","population":0,"elevation":100,"type":"Standard"},{"zip":"03583","city":"Jefferson","state":"New Hampshire","stateCode":"NH","county":"Jefferson County","lat":44.3999,"lng":-71.4518,"timezone":"America/New_York","areaCode":"603","population":0,"elevation":100,"type":"Standard"},{"zip":"03847","city":"Kearsarge","state":"New Hampshire","stateCode":"NH","county":"Kearsarge County","lat":44.0753,"lng":-71.1176,"timezone":"America/New_York","areaCode":"603","population":0,"elevation":100,"type":"Standard"},{"zip":"03431","city":"Keene","state":"New Hampshire","stateCode":"NH","county":"Keene County","lat":42.9627,"lng":-72.2955,"timezone":"America/New_York","areaCode":"603","population":0,"elevation":100,"type":"Standard"},{"zip":"03435","city":"Keene","state":"New Hampshire","stateCode":"NH","county":"Keene County","lat":42.9337,"lng":-72.2781,"timezone":"America/New_York","areaCode":"603","population":0,"elevation":100,"type":"Standard"},{"zip":"03848","city":"Kingston","state":"New Hampshire","stateCode":"NH","county":"Kingston County","lat":42.9133,"lng":-71.0639,"timezone":"America/New_York","areaCode":"603","population":0,"elevation":100,"type":"Standard"},{"zip":"03246","city":"Laconia","state":"New Hampshire","stateCode":"NH","county":"Laconia County","lat":43.5727,"lng":-71.4781,"timezone":"America/New_York","areaCode":"603","population":0,"elevation":100,"type":"Standard"},{"zip":"03247","city":"Laconia","state":"New Hampshire","stateCode":"NH","county":"Laconia County","lat":43.589,"lng":-71.4455,"timezone":"America/New_York","areaCode":"603","population":0,"elevation":100,"type":"Standard"},{"zip":"03249","city":"Gilford","state":"New Hampshire","stateCode":"NH","county":"Gilford County","lat":43.5475,"lng":-71.4072,"timezone":"America/New_York","areaCode":"603","population":0,"elevation":100,"type":"Standard"},{"zip":"03584","city":"Lancaster","state":"New Hampshire","stateCode":"NH","county":"Lancaster County","lat":44.4921,"lng":-71.5591,"timezone":"America/New_York","areaCode":"603","population":0,"elevation":100,"type":"Standard"},{"zip":"03756","city":"Lebanon","state":"New Hampshire","stateCode":"NH","county":"Lebanon County","lat":43.6423,"lng":-72.2518,"timezone":"America/New_York","areaCode":"603","population":0,"elevation":100,"type":"Standard"},{"zip":"03766","city":"Lebanon","state":"New Hampshire","stateCode":"NH","county":"Lebanon County","lat":43.6447,"lng":-72.2428,"timezone":"America/New_York","areaCode":"603","population":0,"elevation":100,"type":"Standard"},{"zip":"03784","city":"West Lebanon","state":"New Hampshire","stateCode":"NH","county":"West Lebanon County","lat":43.644,"lng":-72.3007,"timezone":"America/New_York","areaCode":"603","population":0,"elevation":100,"type":"Standard"},{"zip":"03251","city":"Lincoln","state":"New Hampshire","stateCode":"NH","county":"Lincoln County","lat":44.0582,"lng":-71.6727,"timezone":"America/New_York","areaCode":"603","population":0,"elevation":100,"type":"Standard"},{"zip":"03585","city":"Lisbon","state":"New Hampshire","stateCode":"NH","county":"Lisbon County","lat":44.2148,"lng":-71.8966,"timezone":"America/New_York","areaCode":"603","population":0,"elevation":100,"type":"Standard"},{"zip":"03586","city":"Sugar Hill","state":"New Hampshire","stateCode":"NH","county":"Sugar Hill County","lat":44.2203,"lng":-71.7964,"timezone":"America/New_York","areaCode":"603","population":0,"elevation":100,"type":"Standard"},{"zip":"03561","city":"Littleton","state":"New Hampshire","stateCode":"NH","county":"Littleton County","lat":44.3112,"lng":-71.7768,"timezone":"America/New_York","areaCode":"603","population":0,"elevation":100,"type":"Standard"},{"zip":"03252","city":"Lochmere","state":"New Hampshire","stateCode":"NH","county":"Lochmere County","lat":43.4686,"lng":-71.5371,"timezone":"America/New_York","areaCode":"603","population":0,"elevation":100,"type":"Standard"},{"zip":"03053","city":"Londonderry","state":"New Hampshire","stateCode":"NH","county":"Londonderry County","lat":42.8656,"lng":-71.3772,"timezone":"America/New_York","areaCode":"603","population":0,"elevation":100,"type":"Standard"},{"zip":"03768","city":"Lyme","state":"New Hampshire","stateCode":"NH","county":"Lyme County","lat":43.7913,"lng":-72.162,"timezone":"America/New_York","areaCode":"603","population":0,"elevation":100,"type":"Standard"},{"zip":"03769","city":"Lyme Center","state":"New Hampshire","stateCode":"NH","county":"Lyme Center County","lat":43.7863,"lng":-72.1205,"timezone":"America/New_York","areaCode":"603","population":0,"elevation":100,"type":"Standard"},{"zip":"03832","city":"Eaton Center","state":"New Hampshire","stateCode":"NH","county":"Eaton Center County","lat":43.9092,"lng":-71.0837,"timezone":"America/New_York","areaCode":"603","population":0,"elevation":100,"type":"Standard"},{"zip":"03849","city":"Madison","state":"New Hampshire","stateCode":"NH","county":"Madison County","lat":43.9152,"lng":-71.1254,"timezone":"America/New_York","areaCode":"603","population":0,"elevation":100,"type":"Standard"},{"zip":"03101","city":"Manchester","state":"New Hampshire","stateCode":"NH","county":"Manchester County","lat":42.9929,"lng":-71.4633,"timezone":"America/New_York","areaCode":"603","population":0,"elevation":100,"type":"Standard"},{"zip":"03102","city":"Manchester","state":"New Hampshire","stateCode":"NH","county":"Manchester County","lat":42.9944,"lng":-71.4884,"timezone":"America/New_York","areaCode":"603","population":0,"elevation":100,"type":"Standard"},{"zip":"03103","city":"Manchester","state":"New Hampshire","stateCode":"NH","county":"Manchester County","lat":42.9656,"lng":-71.4493,"timezone":"America/New_York","areaCode":"603","population":0,"elevation":100,"type":"Standard"},{"zip":"03104","city":"Manchester","state":"New Hampshire","stateCode":"NH","county":"Manchester County","lat":43.0073,"lng":-71.4482,"timezone":"America/New_York","areaCode":"603","population":0,"elevation":100,"type":"Standard"},{"zip":"03105","city":"Manchester","state":"New Hampshire","stateCode":"NH","county":"Manchester County","lat":42.9956,"lng":-71.4548,"timezone":"America/New_York","areaCode":"603","population":0,"elevation":100,"type":"Standard"},{"zip":"03106","city":"Hooksett","state":"New Hampshire","stateCode":"NH","county":"Hooksett County","lat":43.0617,"lng":-71.4444,"timezone":"America/New_York","areaCode":"603","population":0,"elevation":100,"type":"Standard"},{"zip":"03107","city":"Manchester","state":"New Hampshire","stateCode":"NH","county":"Manchester County","lat":42.99,"lng":-71.45,"timezone":"America/New_York","areaCode":"603","population":0,"elevation":100,"type":"Standard"},{"zip":"03108","city":"Manchester","state":"New Hampshire","stateCode":"NH","county":"Manchester County","lat":42.9956,"lng":-71.4548,"timezone":"America/New_York","areaCode":"603","population":0,"elevation":100,"type":"Standard"},{"zip":"03109","city":"Manchester","state":"New Hampshire","stateCode":"NH","county":"Manchester County","lat":42.9713,"lng":-71.4135,"timezone":"America/New_York","areaCode":"603","population":0,"elevation":100,"type":"Standard"},{"zip":"03110","city":"Bedford","state":"New Hampshire","stateCode":"NH","county":"Bedford County","lat":42.9403,"lng":-71.5213,"timezone":"America/New_York","areaCode":"603","population":0,"elevation":100,"type":"Standard"},{"zip":"03111","city":"Manchester","state":"New Hampshire","stateCode":"NH","county":"Manchester County","lat":42.9956,"lng":-71.4548,"timezone":"America/New_York","areaCode":"603","population":0,"elevation":100,"type":"Standard"},{"zip":"03455","city":"Marlborough","state":"New Hampshire","stateCode":"NH","county":"Marlborough County","lat":42.8988,"lng":-72.2013,"timezone":"America/New_York","areaCode":"603","population":0,"elevation":100,"type":"Standard"},{"zip":"03456","city":"Marlow","state":"New Hampshire","stateCode":"NH","county":"Marlow County","lat":43.1326,"lng":-72.2109,"timezone":"America/New_York","areaCode":"603","population":0,"elevation":100,"type":"Standard"},{"zip":"03464","city":"Stoddard","state":"New Hampshire","stateCode":"NH","county":"Stoddard County","lat":43.0739,"lng":-72.1088,"timezone":"America/New_York","areaCode":"603","population":0,"elevation":100,"type":"Standard"},{"zip":"03850","city":"Melvin Village","state":"New Hampshire","stateCode":"NH","county":"Melvin Village County","lat":43.7077,"lng":-71.3017,"timezone":"America/New_York","areaCode":"603","population":0,"elevation":100,"type":"Standard"},{"zip":"03253","city":"Meredith","state":"New Hampshire","stateCode":"NH","county":"Meredith County","lat":43.6311,"lng":-71.4997,"timezone":"America/New_York","areaCode":"603","population":0,"elevation":100,"type":"Standard"},{"zip":"03770","city":"Meriden","state":"New Hampshire","stateCode":"NH","county":"Meriden County","lat":43.5299,"lng":-72.2756,"timezone":"America/New_York","areaCode":"603","population":0,"elevation":100,"type":"Standard"},{"zip":"03054","city":"Merrimack","state":"New Hampshire","stateCode":"NH","county":"Merrimack County","lat":42.8667,"lng":-71.5128,"timezone":"America/New_York","areaCode":"603","population":0,"elevation":100,"type":"Standard"},{"zip":"03588","city":"Milan","state":"New Hampshire","stateCode":"NH","county":"Milan County","lat":44.587,"lng":-71.181,"timezone":"America/New_York","areaCode":"603","population":0,"elevation":100,"type":"Standard"},{"zip":"03055","city":"Milford","state":"New Hampshire","stateCode":"NH","county":"Milford County","lat":42.8285,"lng":-71.6606,"timezone":"America/New_York","areaCode":"603","population":0,"elevation":100,"type":"Standard"},{"zip":"03851","city":"Milton","state":"New Hampshire","stateCode":"NH","county":"Milton County","lat":43.4229,"lng":-71.0114,"timezone":"America/New_York","areaCode":"603","population":0,"elevation":100,"type":"Standard"},{"zip":"03852","city":"Milton Mills","state":"New Hampshire","stateCode":"NH","county":"Milton Mills County","lat":43.5025,"lng":-70.9697,"timezone":"America/New_York","areaCode":"603","population":0,"elevation":100,"type":"Standard"},{"zip":"03853","city":"Mirror Lake","state":"New Hampshire","stateCode":"NH","county":"Mirror Lake County","lat":43.6366,"lng":-71.2729,"timezone":"America/New_York","areaCode":"603","population":0,"elevation":100,"type":"Standard"},{"zip":"03771","city":"Monroe","state":"New Hampshire","stateCode":"NH","county":"Monroe County","lat":44.2734,"lng":-72.025,"timezone":"America/New_York","areaCode":"603","population":0,"elevation":100,"type":"Standard"},{"zip":"03057","city":"Mont Vernon","state":"New Hampshire","stateCode":"NH","county":"Mont Vernon County","lat":42.8976,"lng":-71.6762,"timezone":"America/New_York","areaCode":"603","population":0,"elevation":100,"type":"Standard"},{"zip":"03254","city":"Moultonborough","state":"New Hampshire","stateCode":"NH","county":"Moultonborough County","lat":43.7281,"lng":-71.3922,"timezone":"America/New_York","areaCode":"603","population":0,"elevation":100,"type":"Standard"},{"zip":"03060","city":"Nashua","state":"New Hampshire","stateCode":"NH","county":"Nashua County","lat":42.7564,"lng":-71.4667,"timezone":"America/New_York","areaCode":"603","population":0,"elevation":100,"type":"Standard"},{"zip":"03061","city":"Nashua","state":"New Hampshire","stateCode":"NH","county":"Nashua County","lat":42.7654,"lng":-71.4676,"timezone":"America/New_York","areaCode":"603","population":0,"elevation":100,"type":"Standard"},{"zip":"03062","city":"Nashua","state":"New Hampshire","stateCode":"NH","county":"Nashua County","lat":42.7235,"lng":-71.4893,"timezone":"America/New_York","areaCode":"603","population":0,"elevation":100,"type":"Standard"},{"zip":"03063","city":"Nashua","state":"New Hampshire","stateCode":"NH","county":"Nashua County","lat":42.7717,"lng":-71.5132,"timezone":"America/New_York","areaCode":"603","population":0,"elevation":100,"type":"Standard"},{"zip":"03064","city":"Nashua","state":"New Hampshire","stateCode":"NH","county":"Nashua County","lat":42.779,"lng":-71.4748,"timezone":"America/New_York","areaCode":"603","population":0,"elevation":100,"type":"Standard"},{"zip":"03070","city":"New Boston","state":"New Hampshire","stateCode":"NH","county":"New Boston County","lat":42.9722,"lng":-71.6864,"timezone":"America/New_York","areaCode":"603","population":0,"elevation":100,"type":"Standard"},{"zip":"03255","city":"Newbury","state":"New Hampshire","stateCode":"NH","county":"Newbury County","lat":43.3217,"lng":-72.0118,"timezone":"America/New_York","areaCode":"603","population":0,"elevation":100,"type":"Standard"},{"zip":"03272","city":"South Newbury","state":"New Hampshire","stateCode":"NH","county":"South Newbury County","lat":43.2956,"lng":-71.9967,"timezone":"America/New_York","areaCode":"603","population":0,"elevation":100,"type":"Standard"},{"zip":"03854","city":"New Castle","state":"New Hampshire","stateCode":"NH","county":"New Castle County","lat":43.0681,"lng":-70.7199,"timezone":"America/New_York","areaCode":"603","population":0,"elevation":100,"type":"Standard"},{"zip":"03855","city":"New Durham","state":"New Hampshire","stateCode":"NH","county":"New Durham County","lat":43.443,"lng":-71.1408,"timezone":"America/New_York","areaCode":"603","population":0,"elevation":100,"type":"Standard"},{"zip":"03856","city":"Newfields","state":"New Hampshire","stateCode":"NH","county":"Newfields County","lat":43.0374,"lng":-70.9782,"timezone":"America/New_York","areaCode":"603","population":0,"elevation":100,"type":"Standard"},{"zip":"03256","city":"New Hampton","state":"New Hampshire","stateCode":"NH","county":"New Hampton County","lat":43.6184,"lng":-71.6435,"timezone":"America/New_York","areaCode":"603","population":0,"elevation":100,"type":"Standard"},{"zip":"03071","city":"New Ipswich","state":"New Hampshire","stateCode":"NH","county":"New Ipswich County","lat":42.7511,"lng":-71.8703,"timezone":"America/New_York","areaCode":"603","population":0,"elevation":100,"type":"Standard"},{"zip":"03257","city":"New London","state":"New Hampshire","stateCode":"NH","county":"New London County","lat":43.4145,"lng":-71.9857,"timezone":"America/New_York","areaCode":"603","population":0,"elevation":100,"type":"Standard"},{"zip":"03857","city":"Newmarket","state":"New Hampshire","stateCode":"NH","county":"Newmarket County","lat":43.0726,"lng":-70.9553,"timezone":"America/New_York","areaCode":"603","population":0,"elevation":100,"type":"Standard"},{"zip":"03773","city":"Newport","state":"New Hampshire","stateCode":"NH","county":"Newport County","lat":43.3532,"lng":-72.1838,"timezone":"America/New_York","areaCode":"603","population":0,"elevation":100,"type":"Standard"},{"zip":"03858","city":"Newton","state":"New Hampshire","stateCode":"NH","county":"Newton County","lat":42.8678,"lng":-71.042,"timezone":"America/New_York","areaCode":"603","population":0,"elevation":100,"type":"Standard"},{"zip":"03859","city":"Newton Junction","state":"New Hampshire","stateCode":"NH","county":"Newton Junction County","lat":42.8619,"lng":-71.04,"timezone":"America/New_York","areaCode":"603","population":0,"elevation":100,"type":"Standard"},{"zip":"03860","city":"North Conway","state":"New Hampshire","stateCode":"NH","county":"North Conway County","lat":44.0336,"lng":-71.1238,"timezone":"America/New_York","areaCode":"603","population":0,"elevation":100,"type":"Standard"},{"zip":"03862","city":"North Hampton","state":"New Hampshire","stateCode":"NH","county":"North Hampton County","lat":42.9776,"lng":-70.8267,"timezone":"America/New_York","areaCode":"603","population":0,"elevation":100,"type":"Standard"},{"zip":"03774","city":"North Haverhill","state":"New Hampshire","stateCode":"NH","county":"North Haverhill County","lat":44.0978,"lng":-72.0191,"timezone":"America/New_York","areaCode":"603","population":0,"elevation":100,"type":"Standard"},{"zip":"03073","city":"North Salem","state":"New Hampshire","stateCode":"NH","county":"North Salem County","lat":42.837,"lng":-71.2206,"timezone":"America/New_York","areaCode":"603","population":0,"elevation":100,"type":"Standard"},{"zip":"03259","city":"North Sandwich","state":"New Hampshire","stateCode":"NH","county":"North Sandwich County","lat":43.8452,"lng":-71.385,"timezone":"America/New_York","areaCode":"603","population":0,"elevation":100,"type":"Standard"},{"zip":"03590","city":"North Stratford","state":"New Hampshire","stateCode":"NH","county":"North Stratford County","lat":44.7149,"lng":-71.5644,"timezone":"America/New_York","areaCode":"603","population":0,"elevation":100,"type":"Standard"},{"zip":"03260","city":"North Sutton","state":"New Hampshire","stateCode":"NH","county":"North Sutton County","lat":43.3653,"lng":-71.9341,"timezone":"America/New_York","areaCode":"603","population":0,"elevation":100,"type":"Standard"},{"zip":"03261","city":"Northwood","state":"New Hampshire","stateCode":"NH","county":"Northwood County","lat":43.207,"lng":-71.2004,"timezone":"America/New_York","areaCode":"603","population":0,"elevation":100,"type":"Standard"},{"zip":"03262","city":"North Woodstock","state":"New Hampshire","stateCode":"NH","county":"North Woodstock County","lat":44.0354,"lng":-71.6863,"timezone":"America/New_York","areaCode":"603","population":0,"elevation":100,"type":"Standard"},{"zip":"03293","city":"Woodstock","state":"New Hampshire","stateCode":"NH","county":"Woodstock County","lat":43.9776,"lng":-71.6851,"timezone":"America/New_York","areaCode":"603","population":0,"elevation":100,"type":"Standard"},{"zip":"03290","city":"Nottingham","state":"New Hampshire","stateCode":"NH","county":"Nottingham County","lat":43.1196,"lng":-71.111,"timezone":"America/New_York","areaCode":"603","population":0,"elevation":100,"type":"Standard"},{"zip":"03777","city":"Orford","state":"New Hampshire","stateCode":"NH","county":"Orford County","lat":43.8941,"lng":-72.0978,"timezone":"America/New_York","areaCode":"603","population":0,"elevation":100,"type":"Standard"},{"zip":"03864","city":"Ossipee","state":"New Hampshire","stateCode":"NH","county":"Ossipee County","lat":43.6945,"lng":-71.1129,"timezone":"America/New_York","areaCode":"603","population":0,"elevation":100,"type":"Standard"},{"zip":"03076","city":"Pelham","state":"New Hampshire","stateCode":"NH","county":"Pelham County","lat":42.7288,"lng":-71.3046,"timezone":"America/New_York","areaCode":"603","population":0,"elevation":100,"type":"Standard"},{"zip":"03458","city":"Peterborough","state":"New Hampshire","stateCode":"NH","county":"Peterborough County","lat":42.8856,"lng":-71.947,"timezone":"America/New_York","areaCode":"603","population":0,"elevation":100,"type":"Standard"},{"zip":"03779","city":"Piermont","state":"New Hampshire","stateCode":"NH","county":"Piermont County","lat":43.9906,"lng":-72.0813,"timezone":"America/New_York","areaCode":"603","population":0,"elevation":100,"type":"Standard"},{"zip":"03780","city":"Pike","state":"New Hampshire","stateCode":"NH","county":"Pike County","lat":44.0255,"lng":-72.0096,"timezone":"America/New_York","areaCode":"603","population":0,"elevation":100,"type":"Standard"},{"zip":"03592","city":"Pittsburg","state":"New Hampshire","stateCode":"NH","county":"Pittsburg County","lat":45.0866,"lng":-71.3636,"timezone":"America/New_York","areaCode":"603","population":0,"elevation":100,"type":"Standard"},{"zip":"03263","city":"Pittsfield","state":"New Hampshire","stateCode":"NH","county":"Pittsfield County","lat":43.2874,"lng":-71.333,"timezone":"America/New_York","areaCode":"603","population":0,"elevation":100,"type":"Standard"},{"zip":"03781","city":"Plainfield","state":"New Hampshire","stateCode":"NH","county":"Plainfield County","lat":43.5519,"lng":-72.2704,"timezone":"America/New_York","areaCode":"603","population":0,"elevation":100,"type":"Standard"},{"zip":"03865","city":"Plaistow","state":"New Hampshire","stateCode":"NH","county":"Plaistow County","lat":42.8356,"lng":-71.0934,"timezone":"America/New_York","areaCode":"603","population":0,"elevation":100,"type":"Standard"},{"zip":"03264","city":"Plymouth","state":"New Hampshire","stateCode":"NH","county":"Plymouth County","lat":43.757,"lng":-71.6881,"timezone":"America/New_York","areaCode":"603","population":0,"elevation":100,"type":"Standard"},{"zip":"03801","city":"Portsmouth","state":"New Hampshire","stateCode":"NH","county":"Portsmouth County","lat":43.0729,"lng":-70.8052,"timezone":"America/New_York","areaCode":"603","population":0,"elevation":100,"type":"Standard"},{"zip":"03802","city":"Portsmouth","state":"New Hampshire","stateCode":"NH","county":"Portsmouth County","lat":43.0718,"lng":-70.7626,"timezone":"America/New_York","areaCode":"603","population":0,"elevation":100,"type":"Standard"},{"zip":"03803","city":"Portsmouth","state":"New Hampshire","stateCode":"NH","county":"Portsmouth County","lat":43.0718,"lng":-70.7626,"timezone":"America/New_York","areaCode":"603","population":0,"elevation":100,"type":"Standard"},{"zip":"03804","city":"Portsmouth","state":"New Hampshire","stateCode":"NH","county":"Portsmouth County","lat":43.0718,"lng":-70.7626,"timezone":"America/New_York","areaCode":"603","population":0,"elevation":100,"type":"Standard"},{"zip":"03805","city":"Newington","state":"New Hampshire","stateCode":"NH","county":"Newington County","lat":43.23,"lng":-70.82,"timezone":"America/New_York","areaCode":"603","population":0,"elevation":100,"type":"Standard"},{"zip":"03077","city":"Raymond","state":"New Hampshire","stateCode":"NH","county":"Raymond County","lat":43.0325,"lng":-71.1912,"timezone":"America/New_York","areaCode":"603","population":0,"elevation":100,"type":"Standard"},{"zip":"03461","city":"Rindge","state":"New Hampshire","stateCode":"NH","county":"Rindge County","lat":42.7544,"lng":-72.019,"timezone":"America/New_York","areaCode":"603","population":0,"elevation":100,"type":"Standard"},{"zip":"03839","city":"Rochester","state":"New Hampshire","stateCode":"NH","county":"Rochester County","lat":43.262,"lng":-70.9837,"timezone":"America/New_York","areaCode":"603","population":0,"elevation":100,"type":"Standard"},{"zip":"03866","city":"Rochester","state":"New Hampshire","stateCode":"NH","county":"Rochester County","lat":43.3045,"lng":-70.9756,"timezone":"America/New_York","areaCode":"603","population":0,"elevation":100,"type":"Standard"},{"zip":"03867","city":"Rochester","state":"New Hampshire","stateCode":"NH","county":"Rochester County","lat":43.3045,"lng":-70.9756,"timezone":"America/New_York","areaCode":"603","population":0,"elevation":100,"type":"Standard"},{"zip":"03868","city":"Rochester","state":"New Hampshire","stateCode":"NH","county":"Rochester County","lat":43.32,"lng":-70.9413,"timezone":"America/New_York","areaCode":"603","population":0,"elevation":100,"type":"Standard"},{"zip":"03869","city":"Rollinsford","state":"New Hampshire","stateCode":"NH","county":"Rollinsford County","lat":43.2269,"lng":-70.8332,"timezone":"America/New_York","areaCode":"603","population":0,"elevation":100,"type":"Standard"},{"zip":"03266","city":"Rumney","state":"New Hampshire","stateCode":"NH","county":"Rumney County","lat":43.8044,"lng":-71.848,"timezone":"America/New_York","areaCode":"603","population":0,"elevation":100,"type":"Standard"},{"zip":"03274","city":"Stinson Lake","state":"New Hampshire","stateCode":"NH","county":"Stinson Lake County","lat":43.86,"lng":-71.8,"timezone":"America/New_York","areaCode":"603","population":0,"elevation":100,"type":"Standard"},{"zip":"03870","city":"Rye","state":"New Hampshire","stateCode":"NH","county":"Rye County","lat":43.0095,"lng":-70.7652,"timezone":"America/New_York","areaCode":"603","population":0,"elevation":100,"type":"Standard"},{"zip":"03871","city":"Rye Beach","state":"New Hampshire","stateCode":"NH","county":"Rye Beach County","lat":42.9806,"lng":-70.7719,"timezone":"America/New_York","areaCode":"603","population":0,"elevation":100,"type":"Standard"},{"zip":"03079","city":"Salem","state":"New Hampshire","stateCode":"NH","county":"Salem County","lat":42.7846,"lng":-71.2176,"timezone":"America/New_York","areaCode":"603","population":0,"elevation":100,"type":"Standard"},{"zip":"03268","city":"Salisbury","state":"New Hampshire","stateCode":"NH","county":"Salisbury County","lat":43.4067,"lng":-71.7045,"timezone":"America/New_York","areaCode":"603","population":0,"elevation":100,"type":"Standard"},{"zip":"03269","city":"Sanbornton","state":"New Hampshire","stateCode":"NH","county":"Sanbornton County","lat":43.5496,"lng":-71.6003,"timezone":"America/New_York","areaCode":"603","population":0,"elevation":100,"type":"Standard"},{"zip":"03872","city":"Sanbornville","state":"New Hampshire","stateCode":"NH","county":"Sanbornville County","lat":43.5513,"lng":-71.02,"timezone":"America/New_York","areaCode":"603","population":0,"elevation":100,"type":"Standard"},{"zip":"03873","city":"Sandown","state":"New Hampshire","stateCode":"NH","county":"Sandown County","lat":42.9308,"lng":-71.1861,"timezone":"America/New_York","areaCode":"603","population":0,"elevation":100,"type":"Standard"},{"zip":"03874","city":"Seabrook","state":"New Hampshire","stateCode":"NH","county":"Seabrook County","lat":42.8854,"lng":-70.8646,"timezone":"America/New_York","areaCode":"603","population":0,"elevation":100,"type":"Standard"},{"zip":"03875","city":"Silver Lake","state":"New Hampshire","stateCode":"NH","county":"Silver Lake County","lat":43.879,"lng":-71.1905,"timezone":"America/New_York","areaCode":"603","population":0,"elevation":100,"type":"Standard"},{"zip":"03878","city":"Somersworth","state":"New Hampshire","stateCode":"NH","county":"Somersworth County","lat":43.2525,"lng":-70.8756,"timezone":"America/New_York","areaCode":"603","population":0,"elevation":100,"type":"Standard"},{"zip":"03882","city":"Effingham","state":"New Hampshire","stateCode":"NH","county":"Effingham County","lat":43.7012,"lng":-70.9834,"timezone":"America/New_York","areaCode":"603","population":0,"elevation":100,"type":"Standard"},{"zip":"03082","city":"Lyndeborough","state":"New Hampshire","stateCode":"NH","county":"Lyndeborough County","lat":42.8954,"lng":-71.7744,"timezone":"America/New_York","areaCode":"603","population":0,"elevation":100,"type":"Standard"},{"zip":"03273","city":"South Sutton","state":"New Hampshire","stateCode":"NH","county":"South Sutton County","lat":43.3042,"lng":-71.9289,"timezone":"America/New_York","areaCode":"603","population":0,"elevation":100,"type":"Standard"},{"zip":"03883","city":"South Tamworth","state":"New Hampshire","stateCode":"NH","county":"South Tamworth County","lat":43.8077,"lng":-71.308,"timezone":"America/New_York","areaCode":"603","population":0,"elevation":100,"type":"Standard"},{"zip":"03462","city":"Spofford","state":"New Hampshire","stateCode":"NH","county":"Spofford County","lat":42.912,"lng":-72.4103,"timezone":"America/New_York","areaCode":"603","population":0,"elevation":100,"type":"Standard"},{"zip":"03815","city":"Center Strafford","state":"New Hampshire","stateCode":"NH","county":"Center Strafford County","lat":43.2629,"lng":-71.1071,"timezone":"America/New_York","areaCode":"603","population":0,"elevation":100,"type":"Standard"},{"zip":"03884","city":"Strafford","state":"New Hampshire","stateCode":"NH","county":"Strafford County","lat":43.2506,"lng":-71.1625,"timezone":"America/New_York","areaCode":"603","population":0,"elevation":100,"type":"Standard"},{"zip":"03885","city":"Stratham","state":"New Hampshire","stateCode":"NH","county":"Stratham County","lat":43.0194,"lng":-70.8997,"timezone":"America/New_York","areaCode":"603","population":0,"elevation":100,"type":"Standard"},{"zip":"03782","city":"Sunapee","state":"New Hampshire","stateCode":"NH","county":"Sunapee County","lat":43.3868,"lng":-72.095,"timezone":"America/New_York","areaCode":"603","population":0,"elevation":100,"type":"Standard"},{"zip":"03275","city":"Suncook","state":"New Hampshire","stateCode":"NH","county":"Suncook County","lat":43.1604,"lng":-71.4179,"timezone":"America/New_York","areaCode":"603","population":0,"elevation":100,"type":"Standard"},{"zip":"03886","city":"Tamworth","state":"New Hampshire","stateCode":"NH","county":"Tamworth County","lat":43.862,"lng":-71.2645,"timezone":"America/New_York","areaCode":"603","population":0,"elevation":100,"type":"Standard"},{"zip":"03897","city":"Wonalancet","state":"New Hampshire","stateCode":"NH","county":"Wonalancet County","lat":43.9073,"lng":-71.3506,"timezone":"America/New_York","areaCode":"603","population":0,"elevation":100,"type":"Standard"},{"zip":"03084","city":"Temple","state":"New Hampshire","stateCode":"NH","county":"Temple County","lat":42.82,"lng":-71.8523,"timezone":"America/New_York","areaCode":"603","population":0,"elevation":100,"type":"Standard"},{"zip":"03276","city":"Tilton","state":"New Hampshire","stateCode":"NH","county":"Tilton County","lat":43.4603,"lng":-71.5774,"timezone":"America/New_York","areaCode":"603","population":0,"elevation":100,"type":"Standard"},{"zip":"03298","city":"Tilton","state":"New Hampshire","stateCode":"NH","county":"Tilton County","lat":43.5249,"lng":-71.4458,"timezone":"America/New_York","areaCode":"603","population":0,"elevation":100,"type":"Standard"},{"zip":"03299","city":"Tilton","state":"New Hampshire","stateCode":"NH","county":"Tilton County","lat":43.5249,"lng":-71.4458,"timezone":"America/New_York","areaCode":"603","population":0,"elevation":100,"type":"Standard"},{"zip":"03465","city":"Troy","state":"New Hampshire","stateCode":"NH","county":"Troy County","lat":42.827,"lng":-72.1848,"timezone":"America/New_York","areaCode":"603","population":0,"elevation":100,"type":"Standard"},{"zip":"03575","city":"Bretton Woods","state":"New Hampshire","stateCode":"NH","county":"Bretton Woods County","lat":44.2581,"lng":-71.4412,"timezone":"America/New_York","areaCode":"603","population":0,"elevation":100,"type":"Standard"},{"zip":"03589","city":"Mount Washington","state":"New Hampshire","stateCode":"NH","county":"Mount Washington County","lat":44.6956,"lng":-71.3874,"timezone":"America/New_York","areaCode":"603","population":0,"elevation":100,"type":"Standard"},{"zip":"03595","city":"Twin Mountain","state":"New Hampshire","stateCode":"NH","county":"Twin Mountain County","lat":44.2689,"lng":-71.5471,"timezone":"America/New_York","areaCode":"603","population":0,"elevation":100,"type":"Standard"},{"zip":"03887","city":"Union","state":"New Hampshire","stateCode":"NH","county":"Union County","lat":43.4861,"lng":-71.063,"timezone":"America/New_York","areaCode":"603","population":0,"elevation":100,"type":"Standard"},{"zip":"03604","city":"Drewsville","state":"New Hampshire","stateCode":"NH","county":"Drewsville County","lat":43.1281,"lng":-72.392,"timezone":"America/New_York","areaCode":"603","population":0,"elevation":100,"type":"Standard"},{"zip":"03608","city":"Walpole","state":"New Hampshire","stateCode":"NH","county":"Walpole County","lat":43.0765,"lng":-72.4155,"timezone":"America/New_York","areaCode":"603","population":0,"elevation":100,"type":"Standard"},{"zip":"03609","city":"North Walpole","state":"New Hampshire","stateCode":"NH","county":"North Walpole County","lat":43.1428,"lng":-72.4483,"timezone":"America/New_York","areaCode":"603","population":0,"elevation":100,"type":"Standard"},{"zip":"03278","city":"Warner","state":"New Hampshire","stateCode":"NH","county":"Warner County","lat":43.3035,"lng":-71.8353,"timezone":"America/New_York","areaCode":"603","population":0,"elevation":100,"type":"Standard"},{"zip":"03279","city":"Warren","state":"New Hampshire","stateCode":"NH","county":"Warren County","lat":43.9447,"lng":-71.8901,"timezone":"America/New_York","areaCode":"603","population":0,"elevation":100,"type":"Standard"},{"zip":"03280","city":"Washington","state":"New Hampshire","stateCode":"NH","county":"District of Columbia","lat":43.1747,"lng":-72.0824,"timezone":"America/New_York","areaCode":"603","population":0,"elevation":100,"type":"Standard"},{"zip":"03281","city":"Weare","state":"New Hampshire","stateCode":"NH","county":"Weare County","lat":43.0714,"lng":-71.7038,"timezone":"America/New_York","areaCode":"603","population":0,"elevation":100,"type":"Standard"},{"zip":"03282","city":"Wentworth","state":"New Hampshire","stateCode":"NH","county":"Wentworth County","lat":43.8685,"lng":-71.9097,"timezone":"America/New_York","areaCode":"603","population":0,"elevation":100,"type":"Standard"},{"zip":"03466","city":"West Chesterfield","state":"New Hampshire","stateCode":"NH","county":"West Chesterfield County","lat":42.8956,"lng":-72.5097,"timezone":"America/New_York","areaCode":"603","population":0,"elevation":100,"type":"Standard"},{"zip":"03467","city":"Westmoreland","state":"New Hampshire","stateCode":"NH","county":"Westmoreland County","lat":42.969,"lng":-72.4358,"timezone":"America/New_York","areaCode":"603","population":0,"elevation":100,"type":"Standard"},{"zip":"03291","city":"West Nottingham","state":"New Hampshire","stateCode":"NH","county":"West Nottingham County","lat":43.1823,"lng":-71.1396,"timezone":"America/New_York","areaCode":"603","population":0,"elevation":100,"type":"Standard"},{"zip":"03890","city":"West Ossipee","state":"New Hampshire","stateCode":"NH","county":"West Ossipee County","lat":43.8118,"lng":-71.1946,"timezone":"America/New_York","areaCode":"603","population":0,"elevation":100,"type":"Standard"},{"zip":"03468","city":"West Peterborough","state":"New Hampshire","stateCode":"NH","county":"West Peterborough County","lat":42.8908,"lng":-71.9334,"timezone":"America/New_York","areaCode":"603","population":0,"elevation":100,"type":"Standard"},{"zip":"03284","city":"Springfield","state":"New Hampshire","stateCode":"NH","county":"Springfield County","lat":43.4938,"lng":-72.047,"timezone":"America/New_York","areaCode":"603","population":0,"elevation":100,"type":"Standard"},{"zip":"03597","city":"West Stewartstown","state":"New Hampshire","stateCode":"NH","county":"West Stewartstown County","lat":44.6956,"lng":-71.3874,"timezone":"America/New_York","areaCode":"603","population":0,"elevation":100,"type":"Standard"},{"zip":"03469","city":"West Swanzey","state":"New Hampshire","stateCode":"NH","county":"West Swanzey County","lat":42.8734,"lng":-72.3151,"timezone":"America/New_York","areaCode":"603","population":0,"elevation":100,"type":"Standard"},{"zip":"03598","city":"Whitefield","state":"New Hampshire","stateCode":"NH","county":"Whitefield County","lat":44.3681,"lng":-71.6035,"timezone":"America/New_York","areaCode":"603","population":0,"elevation":100,"type":"Standard"},{"zip":"03287","city":"Wilmot","state":"New Hampshire","stateCode":"NH","county":"Wilmot County","lat":43.4485,"lng":-71.9158,"timezone":"America/New_York","areaCode":"603","population":0,"elevation":100,"type":"Standard"},{"zip":"03086","city":"Wilton","state":"New Hampshire","stateCode":"NH","county":"Wilton County","lat":42.8368,"lng":-71.7541,"timezone":"America/New_York","areaCode":"603","population":0,"elevation":100,"type":"Standard"},{"zip":"03470","city":"Winchester","state":"New Hampshire","stateCode":"NH","county":"Winchester County","lat":42.7788,"lng":-72.344,"timezone":"America/New_York","areaCode":"603","population":0,"elevation":100,"type":"Standard"},{"zip":"03087","city":"Windham","state":"New Hampshire","stateCode":"NH","county":"Windham County","lat":42.8051,"lng":-71.3067,"timezone":"America/New_York","areaCode":"603","population":0,"elevation":100,"type":"Standard"},{"zip":"03289","city":"Winnisquam","state":"New Hampshire","stateCode":"NH","county":"Winnisquam County","lat":43.4964,"lng":-71.5197,"timezone":"America/New_York","areaCode":"603","population":0,"elevation":100,"type":"Standard"},{"zip":"03816","city":"Center Tuftonboro","state":"New Hampshire","stateCode":"NH","county":"Center Tuftonboro County","lat":43.6849,"lng":-71.2551,"timezone":"America/New_York","areaCode":"603","population":0,"elevation":100,"type":"Standard"},{"zip":"03894","city":"Wolfeboro","state":"New Hampshire","stateCode":"NH","county":"Wolfeboro County","lat":43.595,"lng":-71.1908,"timezone":"America/New_York","areaCode":"603","population":0,"elevation":100,"type":"Standard"},{"zip":"03896","city":"Wolfeboro Falls","state":"New Hampshire","stateCode":"NH","county":"Wolfeboro Falls County","lat":43.5892,"lng":-71.2189,"timezone":"America/New_York","areaCode":"603","population":0,"elevation":100,"type":"Standard"},{"zip":"03785","city":"Woodsville","state":"New Hampshire","stateCode":"NH","county":"Woodsville County","lat":44.1523,"lng":-72.0373,"timezone":"America/New_York","areaCode":"603","population":0,"elevation":100,"type":"Standard"}]